time,x,y,altitude,yaw,pitch,roll,speed,wind_dir,wind_spd,dx,dy,wind_dx,wind_dy,vmg_dx,vmg_dy
0.0,0.22167814785879342,14.664991302754771,999.9133974596216,0.8660254037844386,0.0,60.0,100.0,0.0,0.0,0.22167814785879342,14.664991302754771,0.0,-0.0,0.22167814785879342,14.664991302754771
0.1,0.6649837992715186,29.324956896525336,999.8267949192432,1.7320508075688772,0.0,60.0,100.0,0.0,0.0,0.44330565141272515,14.659965593770565,0.0,-0.0,0.44330565141272515,14.659965593770565
0.2,1.329815677198587,43.976547584406404,999.7401923788648,2.598076211353316,0.0,60.0,100.0,0.0,0.0,0.6648318779270682,14.651590687881065,0.0,-0.0,0.6648318779270682,14.651590687881065
0.30000000000000004,2.216021895003304,58.61641608281292,999.6535898384864,3.4641016151377544,0.0,60.0,100.0,0.0,0.0,0.8862062178047169,14.639868498406516,0.0,-0.0,0.8862062178047169,14.639868498406516
0.4,3.3233999911517023,73.24121778619617,999.566987298108,4.330127018922193,0.0,60.0,100.0,0.0,0.0,1.107378096148398,14.62480170338326,0.0,-0.0,1.107378096148398,14.62480170338326
0.5,4.65169697546662,87.84761153114812,999.4803847577296,5.196152422706631,0.0,60.0,100.0,0.0,0.0,1.3282969843149177,14.606393744951937,0.0,-0.0,1.3282969843149177,14.606393744951937
0.6,6.200609386925541,102.4322603597192,999.3937822173511,6.0621778264910695,0.0,60.0,100.0,0.0,0.0,1.5489124114589217,14.584648828571078,0.0,-0.0,1.5489124114589217,14.584648828571078
0.7,7.9697833629889,116.99183228177553,999.3071796769727,6.928203230275508,0.0,60.0,100.0,0.0,0.0,1.7691739760633587,14.55957192205634,0.0,-0.0,1.7691739760633587,14.55957192205634
0.7999999999999999,9.958814720443051,131.5230010362211,999.2205771365943,7.794228634059946,0.0,60.0,100.0,0.0,0.0,1.9890313574541516,14.531168754445572,0.0,-0.0,1.9890313574541516,14.531168754445572
0.8999999999999999,12.167249047739462,146.02244685091105,999.1339745962159,8.660254037844386,0.0,60.0,100.0,0.0,0.0,2.2084343272964113,14.499445814689954,0.0,-0.0,2.2084343272964113,14.499445814689954
0.9999999999999999,14.59458180880899,160.4868572010826,999.0473720558375,9.526279441628825,0.0,60.0,100.0,0.0,0.0,2.4273327610695263,14.464410350171548,0.0,-0.0,2.4273327610695263,14.464410350171548
1.0999999999999999,17.240258458327528,174.91292756613018,998.9607695154591,10.392304845413264,0.0,60.0,100.0,0.0,0.0,2.6456766495185384,14.426070365047565,0.0,-0.0,2.6456766495185384,14.426070365047565
1.2,20.10367456840674,189.29736218455193,998.8741669750807,11.258330249197703,0.0,60.0,100.0,0.0,0.0,2.863416110079211,14.384434618421748,0.0,-0.0,2.863416110079211,14.384434618421748
1.3,23.18417596668086,203.6368748068952,998.7875644347023,12.124355652982143,0.0,60.0,100.0,0.0,0.0,3.0805013982741243,14.339512622343284,0.0,-0.0,3.0805013982741243,14.339512622343284
1.4000000000000001,26.481058885758095,217.92818944652888,998.7009618943239,12.990381056766582,0.0,60.0,100.0,0.0,0.0,3.2968829190772344,14.291314639633681,0.0,-0.0,3.2968829190772344,14.291314639633681
1.5000000000000002,29.993570124002396,232.16804112807102,998.6143593539455,13.856406460551021,0.0,60.0,100.0,0.0,0.0,3.5125112382443,14.239851681542147,0.0,-0.0,3.5125112382443,14.239851681542147
1.6000000000000003,33.72090721760893,246.353176633301,998.5277568135671,14.72243186433546,0.0,60.0,100.0,0.0,0.0,3.7273370936065344,14.185135505229972,0.0,-0.0,3.7273370936065344,14.185135505229972
1.7000000000000004,37.66221862393396,260.48035524438546,998.4411542731887,15.5884572681199,0.0,60.0,100.0,0.0,0.0,3.94131140632503,14.127178611084501,0.0,-0.0,3.94131140632503,14.127178611084501
1.8000000000000005,41.81660391603717,274.54634948424876,998.3545517328103,16.454482671904337,0.0,60.0,100.0,0.0,0.0,4.154385292103204,14.065994239863308,0.0,-0.0,4.154385292103204,14.065994239863308
1.9000000000000006,46.18311398839202,288.547945853918,998.2679491924318,17.320508075688775,0.0,60.0,100.0,0.0,0.0,4.366510072354853,14.00159636966924,0.0,-0.0,4.366510072354853,14.00159636966924
2.0000000000000004,50.760751273717226,302.481945566675,998.1813466520534,18.186533479473212,0.0,60.0,100.0,0.0,0.0,4.577637285325205,13.933999712756982,0.0,-0.0,4.577637285325205,13.933999712756982
2.1000000000000005,55.54846997087965,316.34516527884693,998.094744111675,19.05255888325765,0.0,60.0,100.0,0.0,0.0,4.787718697162428,13.863219712171935,0.0,-0.0,4.787718697162428,13.863219712171935
2.2000000000000006,60.54517628381673,330.134437817069,998.0081415712966,19.918584287042087,0.0,60.0,100.0,0.0,0.0,4.996706312937081,13.789272538222091,0.0,-0.0,4.996706312937081,13.789272538222091
2.3000000000000007,65.74972867142368,343.84661290185284,997.9215390309182,20.784609690826525,0.0,60.0,100.0,0.0,0.0,5.204552387606957,13.712175084783812,0.0,-0.0,5.204552387606957,13.712175084783812
2.400000000000001,71.16093810834855,357.4785578672951,997.8349364905398,21.650635094610962,0.0,60.0,100.0,0.0,0.0,5.411209436924859,13.631944965442258,0.0,-0.0,5.411209436924859,13.631944965442258
2.500000000000001,76.77756835663536,371.0271583767625,997.7483339501614,22.5166604983954,0.0,60.0,100.0,0.0,0.0,5.616630248286806,13.548600509467422,0.0,-0.0,5.616630248286806,13.548600509467422
2.600000000000001,82.5983362481535,384.4893191343891,997.661731409783,23.382685902179837,0.0,60.0,100.0,0.0,0.0,5.820767891518148,13.462160757626636,0.0,-0.0,5.820767891518148,13.462160757626636
2.700000000000001,88.62191197774867,397.86196459222367,997.5751288694046,24.248711305964274,0.0,60.0,100.0,0.0,0.0,6.023575729595171,13.372645457834556,0.0,-0.0,6.023575729595171,13.372645457834556
2.800000000000001,94.84691940704842,411.14203965286526,997.4885263290262,25.114736709748712,0.0,60.0,100.0,0.0,0.0,6.225007429299747,13.280075060641568,0.0,-0.0,6.225007429299747,13.280075060641568
2.9000000000000012,101.27193637885297,424.326510367427,997.4019237886478,25.98076211353315,0.0,60.0,100.0,0.0,0.0,6.425016971804548,13.184470714561686,0.0,-0.0,6.425016971804548,13.184470714561686
3.0000000000000013,107.89549504203943,437.41236462866794,997.3153212482694,26.846787517317587,0.0,60.0,100.0,0.0,0.0,6.623558663186455,13.085854261240986,0.0,-0.0,6.623558663186455,13.085854261240986
3.1000000000000014,114.71608218690515,450.39661285913564,997.228718707891,27.712812921102024,0.0,60.0,100.0,0.0,0.0,6.820587144865729,12.9842482304677,0.0,-0.0,6.820587144865729,12.9842482304677
3.2000000000000015,121.73213959087373,463.2762886941607,997.1421161675125,28.578838324886462,0.0,60.0,100.0,0.0,0.0,7.016057403968575,12.879675835025079,0.0,-0.0,7.016057403968575,12.879675835025079
3.3000000000000016,128.94206437448446,476.04844965954896,997.0555136271341,29.4448637286709,0.0,60.0,100.0,0.0,0.0,7.209924783610729,12.772160965388236,0.0,-0.0,7.209924783610729,12.772160965388236
3.4000000000000017,136.34420936758417,488.71017784381513,996.9689110867557,30.310889132455337,0.0,60.0,100.0,0.0,0.0,7.402144993099706,12.661728184266165,0.0,-0.0,7.402144993099706,12.661728184266165
3.5000000000000018,143.93688348563757,501.2585805648053,996.8823085463773,31.176914536239774,0.0,60.0,100.0,0.0,0.0,7.592674118053404,12.548402720990156,0.0,-0.0,7.592674118053404,12.548402720990156
3.600000000000002,151.71835211607026,513.6907910305553,996.7957060059989,32.04293994002421,0.0,60.0,100.0,0.0,0.0,7.78146863043271,12.432210465749963,0.0,-0.0,7.78146863043271,12.432210465749963
3.700000000000002,159.68683751455615,526.0039689942342,996.7091034656205,32.90896534380865,0.0,60.0,100.0,0.0,0.0,7.968485398485878,12.313177963678937,0.0,-0.0,7.968485398485878,12.313177963678937
3.800000000000002,167.8405192111585,538.1953014030238,996.6225009252421,33.774990747593094,0.0,60.0,100.0,0.0,0.0,8.153681696602353,12.191332408789574,0.0,-0.0,8.153681696602353,12.191332408789574
3.900000000000002,176.17753442623228,550.2620030407846,996.5358983848637,34.641016151377535,0.0,60.0,100.0,0.0,0.0,8.337015215073793,12.066701637760806,0.0,-0.0,8.337015215073793,12.066701637760806
4.000000000000002,184.6959784959924,562.2013171643631,996.4492958444853,35.507041555161976,0.0,60.0,100.0,0.0,0.0,8.518444069760099,11.939314123578464,0.0,-0.0,8.518444069760099,11.939314123578464
4.100000000000001,193.3939053076506,574.0105161333935,996.3626933041069,36.37306695894642,0.0,60.0,100.0,0.0,0.0,8.69792681165823,11.809198969030376,0.0,-0.0,8.69792681165823,11.809198969030376
4.200000000000001,202.26932774402218,585.686902033451,996.2760907637285,37.23909236273086,0.0,60.0,100.0,0.0,0.0,8.87542243637155,11.67638590005759,0.0,-0.0,8.87542243637155,11.67638590005759
4.300000000000001,211.32021813749986,597.2278072924142,996.18948822335,38.1051177665153,0.0,60.0,100.0,0.0,0.0,9.05089039347768,11.540905258963209,0.0,-0.0,9.05089039347768,11.540905258963209
4.4,220.54450873329242,608.6305952898947,996.1028856829716,38.97114317029974,0.0,60.0,100.0,0.0,0.0,9.224290595792565,11.402787997480443,0.0,-0.0,9.224290595792565,11.402787997480443
4.5,229.94009216182118,619.8926609595961,996.0162831425932,39.83716857408418,0.0,60.0,100.0,0.0,0.0,9.395583428528763,11.262065669701402,0.0,-0.0,9.395583428528763,11.262065669701402
4.6,239.50482192016696,631.0114313844645,995.9296806022148,40.70319397786862,0.0,60.0,100.0,0.0,0.0,9.564729758345772,11.118770424868302,0.0,-0.0,9.564729758345772,11.118770424868302
4.699999999999999,249.23651286245735,641.9843663844931,995.8430780618364,41.56921938165306,0.0,60.0,100.0,0.0,0.0,9.73169094229039,10.972935000028679,0.0,-0.0,9.73169094229039,10.972935000028679
4.799999999999999,259.1329416990824,652.8089590970494,995.756475521458,42.435244785437504,0.0,60.0,100.0,0.0,0.0,9.89642883662504,10.82459271255633,0.0,-0.0,9.89642883662504,10.82459271255633
4.899999999999999,269.1918475046244,663.482736549589,995.6698729810796,43.301270189221945,0.0,60.0,100.0,0.0,0.0,10.058905805542022,10.67377745253967,0.0,-0.0,10.058905805542022,10.67377745253967
4.999999999999998,279.4109322343861,674.0032602246283,995.5832704407012,44.167295593006386,0.0,60.0,100.0,0.0,0.0,10.219084729761759,10.520523675039241,0.0,-0.0,10.219084729761759,10.520523675039241
5.099999999999998,289.7878612493991,684.3681266168445,995.4966679003228,45.03332099679083,0.0,60.0,100.0,0.0,0.0,10.376929015013015,10.36486639221617,0.0,-0.0,10.376929015013015,10.36486639221617
5.1999999999999975,300.32026384979224,694.5749677821779,995.4100653599444,45.89934640057527,0.0,60.0,100.0,0.0,0.0,10.53240260039317,10.206841165333298,0.0,-0.0,10.53240260039317,10.206841165333298
5.299999999999997,311.0057338163989,704.6214518788088,995.323462819566,46.76537180435971,0.0,60.0,100.0,0.0,0.0,10.685469966606648,10.046484096630946,0.0,-0.0,10.685469966606648,10.046484096630946
5.399999999999997,321.84182996047855,714.5052836998877,995.2368602791876,47.63139720814415,0.0,60.0,100.0,0.0,0.0,10.83609614407962,9.883831821079006,0.0,-0.0,10.83609614407962,9.883831821079006
5.4999999999999964,332.82607668142765,724.2242051978951,995.1502577388092,48.49742261192859,0.0,60.0,100.0,0.0,0.0,10.984246720949093,9.718921498007393,0.0,-0.0,10.984246720949093,9.718921498007393
5.599999999999996,343.95596453235225,733.7759960005118,995.0636551984308,49.36344801571303,0.0,60.0,100.0,0.0,0.0,11.129887850924616,9.551790802616642,0.0,-0.0,11.129887850924616,9.551790802616642
5.699999999999996,355.228950793373,743.1584739178825,994.9770526580523,50.229473419497474,0.0,60.0,100.0,0.0,0.0,11.272986261020739,9.382477917370704,0.0,-0.0,11.272986261020739,9.382477917370704
5.799999999999995,366.64246005253153,752.3694954411563,994.8904501176739,51.095498823281915,0.0,60.0,100.0,0.0,0.0,11.413509259158538,9.211021523273818,0.0,-0.0,11.413509259158538,9.211021523273818
5.899999999999995,378.1938847941659,761.4069562321898,994.8038475772955,51.961524227066356,0.0,60.0,100.0,0.0,0.0,11.551424741634396,9.037460791033503,0.0,-0.0,11.551424741634396,9.037460791033503
5.999999999999995,389.8805859946203,770.2687916043014,994.7172450369171,52.8275496308508,0.0,60.0,100.0,0.0,0.0,11.68670120045437,8.86183537211167,0.0,-0.0,11.68670120045437,8.86183537211167
6.099999999999994,401.6998937251528,778.9529769939674,994.6306424965387,53.69357503463524,0.0,60.0,100.0,0.0,0.0,11.819307730532476,8.684185389665886,0.0,-0.0,11.819307730532476,8.684185389665886
6.199999999999994,413.649107761904,787.4575284233503,994.5440399561603,54.55960043841968,0.0,60.0,100.0,0.0,0.0,11.949214036751217,8.50455142938291,0.0,-0.0,11.949214036751217,8.50455142938291
6.299999999999994,425.7254982027868,795.7805029535568,994.4574374157819,55.42562584220412,0.0,60.0,100.0,0.0,0.0,12.076390440882768,8.322974530206524,0.0,-0.0,12.076390440882768,8.322974530206524
6.399999999999993,437.92630609115605,803.9199991285187,994.3708348754035,56.29165124598856,0.0,60.0,100.0,0.0,0.0,12.200807888369228,8.139496174961838,0.0,-0.0,12.200807888369228,8.139496174961838
6.499999999999993,450.2487440461164,811.8741574093968,994.2842323350251,57.157676649773,0.0,60.0,100.0,0.0,0.0,12.322437954960396,7.954158280878162,0.0,-0.0,12.322437954960396,7.954158280878162
6.5999999999999925,462.68999689932394,819.6411605994095,994.1976297946467,58.02370205355744,0.0,60.0,100.0,0.0,0.0,12.441252853207514,7.767003190012676,0.0,-0.0,12.441252853207514,7.767003190012676
6.699999999999992,475.24722233813554,827.2192342589865,994.1110272542683,58.889727457341884,0.0,60.0,100.0,0.0,0.0,12.557225438811582,7.578073659576986,0.0,-0.0,12.557225438811582,7.578073659576986
6.799999999999992,487.9175515549602,834.6066471111553,994.0244247138899,59.755752861126325,0.0,60.0,100.0,0.0,0.0,12.67032921682468,7.387412852168892,0.0,-0.0,12.67032921682468,7.387412852168892
6.8999999999999915,500.6980899026632,841.8017114370668,993.9378221735114,60.621778264910766,0.0,60.0,100.0,0.0,0.0,12.780538347702995,7.195064325911506,0.0,-0.0,12.780538347702995,7.195064325911506
6.999999999999991,513.5859175558733,848.8027834615689,993.851219633133,61.48780366869521,0.0,60.0,100.0,0.0,0.0,12.887827653210081,7.001072024502015,0.0,-0.0,12.887827653210081,7.001072024502015
7.099999999999991,526.5780901780423,855.6082637287412,993.7646170927546,62.35382907247965,0.0,60.0,100.0,0.0,0.0,12.992172622169036,6.805480267172374,0.0,-0.0,12.992172622169036,6.805480267172374
7.19999999999999,539.6716395941046,862.2165974673054,993.6780145523762,63.21985447626409,0.0,60.0,100.0,0.0,0.0,13.09354941606231,6.608333738564176,0.0,-0.0,13.09354941606231,6.608333738564176
7.29999999999999,552.8635744685824,868.6262749458255,993.5914120119978,64.08587988004852,0.0,60.0,100.0,0.0,0.0,13.191934874477809,6.409677478520066,0.0,-0.0,13.191934874477809,6.409677478520066
7.39999999999999,566.1508809889825,874.8358318176195,993.5048094716194,64.95190528383296,0.0,60.0,100.0,0.0,0.0,13.28730652040011,6.209556871793988,0.0,-0.0,13.28730652040011,6.209556871793988
7.499999999999989,579.530523554328,880.8438494553021,993.418206931241,65.81793068761739,0.0,60.0,100.0,0.0,0.0,13.379642565345508,6.008017637682655,0.0,-0.0,13.379642565345508,6.008017637682655
7.599999999999989,592.9994454686679,886.6489552748827,993.3316043908626,66.68395609140183,0.0,60.0,100.0,0.0,0.0,13.468921914339807,5.805105819580563,0.0,-0.0,13.468921914339807,5.805105819580563
7.699999999999989,606.5545696394055,892.2498230493437,993.2450018504842,67.54998149518626,0.0,60.0,100.0,0.0,0.0,13.555124170737633,5.60086777446099,0.0,-0.0,13.555124170737633,5.60086777446099
7.799999999999988,620.1927992802878,897.6451732116291,993.1583993101058,68.41600689897069,0.0,60.0,100.0,0.0,0.0,13.638229640882239,5.395350162285328,0.0,-0.0,13.638229640882239,5.395350162285328
7.899999999999988,633.9110186188925,902.8337731469722,993.0717967697274,69.28203230275513,0.0,60.0,100.0,0.0,0.0,13.718219338604685,5.188599935343218,0.0,-0.0,13.718219338604685,5.188599935343218
7.999999999999988,647.7060936084539,907.8144374744982,992.985194229349,70.14805770653956,0.0,60.0,100.0,0.0,0.0,13.795074989561394,4.980664327525888,0.0,-0.0,13.795074989561394,4.980664327525888
8.099999999999987,661.5748726438629,912.5860283180333,992.8985916889706,71.014083110324,0.0,60.0,100.0,0.0,0.0,13.868779035409087,4.771590843535157,0.0,-0.0,13.868779035409087,4.771590843535157
8.199999999999987,675.514187281679,917.1474555660639,992.8119891485921,71.88010851410843,0.0,60.0,100.0,0.0,0.0,13.939314637816146,4.561427248030571,0.0,-0.0,13.939314637816146,4.561427248030571
8.299999999999986,689.5208529639884,921.497677120781,992.7253866082137,72.74613391789286,0.0,60.0,100.0,0.0,0.0,14.006665682309459,4.350221554717153,0.0,-0.0,14.006665682309459,4.350221554717153
8.399999999999986,703.5916697459444,925.6356991361572,992.6387840678353,73.6121593216773,0.0,60.0,100.0,0.0,0.0,14.07081678195593,4.138022015376253,0.0,-0.0,14.07081678195593,4.138022015376253
8.499999999999986,717.7234230268222,929.5605762449992,992.5521815274569,74.47818472546173,0.0,60.0,100.0,0.0,0.0,14.131753280877756,3.9248771088420074,0.0,-0.0,14.131753280877756,3.9248771088420074
8.599999999999985,731.9128842844228,933.2714117749251,992.4655789870785,75.34421012924616,0.0,60.0,100.0,0.0,0.0,14.189461257600676,3.710835529925928,0.0,-0.0,14.189461257600676,3.710835529925928
8.699999999999985,746.1568118126573,936.7673579532172,992.3789764467001,76.2102355330306,0.0,60.0,100.0,0.0,0.0,14.24392752823447,3.4959461782921437,0.0,-0.0,14.24392752823447,3.4959461782921437
8.799999999999985,760.4519514621422,940.0476161005031,992.2923739063217,77.07626093681503,0.0,60.0,100.0,0.0,0.0,14.295139649484925,3.2802581472858536,0.0,-0.0,14.295139649484925,3.2802581472858536
8.899999999999984,774.7950373836388,943.1114368132206,992.2057713659433,77.94228634059947,0.0,60.0,100.0,0.0,0.0,14.343085921496613,3.0638207127175163,0.0,-0.0,14.343085921496613,3.0638207127175163
8.999999999999984,789.1827927741647,945.958120134826,992.1191688255649,78.8083117443839,0.0,60.0,100.0,0.0,0.0,14.387755390525827,2.846683321605369,0.0,-0.0,14.387755390525827,2.846683321605369
9.099999999999984,803.6119306256078,948.5870157157049,992.0325662851865,79.67433714816833,0.0,60.0,100.0,0.0,0.0,14.429137851443066,2.6288955808788192,0.0,-0.0,14.429137851443066,2.6288955808788192
9.199999999999983,818.0791544756722,950.9975229617502,991.9459637448081,80.54036255195277,0.0,60.0,100.0,0.0,0.0,14.467223850064471,2.4105072460453116,0.0,-0.0,14.467223850064471,2.4105072460453116
9.299999999999983,832.5811591609839,953.1890911715734,991.8593612044297,81.4063879557372,0.0,60.0,100.0,0.0,0.0,14.502004685311729,2.191568209823251,0.0,-0.0,14.502004685311729,2.191568209823251
9.399999999999983,847.1146315721838,955.161219662317,991.7727586640513,82.27241335952164,0.0,60.0,100.0,0.0,0.0,14.533472411199902,1.9721284907435717,0.0,-0.0,14.533472411199902,1.9721284907435717
9.499999999999982,861.6762514108366,956.9134578840395,991.6861561236728,83.13843876330607,0.0,60.0,100.0,0.0,0.0,14.561619838652764,1.7522382217225718,0.0,-0.0,14.561619838652764,1.7522382217225718
9.599999999999982,876.2626919479818,958.4454055226481,991.5995535832944,84.0044641670905,0.0,60.0,100.0,0.0,0.0,14.586440537145197,1.5319476386086102,0.0,-0.0,14.586440537145197,1.5319476386086102
9.699999999999982,890.8706207841541,959.7567125913534,991.512951042916,84.87048957087494,0.0,60.0,100.0,0.0,0.0,14.607928836172318,1.3113070687052877,0.0,-0.0,14.607928836172318,1.3113070687052877
9.799999999999981,905.496700610699,960.8470795106272,991.4263485025376,85.73651497465937,0.0,60.0,100.0,0.0,0.0,14.626079826544935,1.0903669192737393,0.0,-0.0,14.626079826544935,1.0903669192737393
9.89999999999998,920.1375899722101,961.7162571766438,991.3397459621592,86.6025403784438,0.0,60.0,100.0,0.0,0.0,14.640889361511103,0.8691776660166529,0.0,-0.0,14.640889361511103,0.8691776660166529
9.99999999999998,934.7899440299136,962.3640470181905,991.2531434217808,87.46856578222824,0.0,60.0,100.0,0.0,0.0,14.652354057703498,0.6477898415466565,0.0,-0.0,14.652354057703498,0.6477898415466565
10.09999999999998,949.4504153258259,962.7903010420322,991.1665408814024,88.33459118601267,0.0,60.0,100.0,0.0,0.0,14.66047129591235,0.42625402384170286,0.0,-0.0,14.66047129591235,0.42625402384170286
10.19999999999998,964.1156545475097,962.9949218667223,991.079938341024,89.20061658979711,0.0,60.0,100.0,0.0,0.0,14.66523922168385,0.2046208246900884,0.0,-0.0,14.66523922168385,0.2046208246900884
10.29999999999998,978.7823112932535,962.9778627448501,990.9933358006456,90.06664199358154,0.0,60.0,100.0,0.0,0.0,14.6666567457438,-0.017059121872249988,0.0,-0.0,14.6666567457438,-0.017059121872249988
10.399999999999979,993.4470348375,962.7391275737206,990.9067332602672,90.93266739736598,0.0,60.0,100.0,0.0,0.0,14.664723544246478,-0.23873517112952203,0.0,-0.0,14.664723544246478,-0.23873517112952203
10.499999999999979,1008.1064748963487,962.2787708944643,990.8201307198888,91.79869280115041,0.0,60.0,100.0,0.0,0.0,14.659440058848608,-0.4603566792563107,0.0,-0.0,14.659440058848608,-0.4603566792563107
10.599999999999978,1022.7572823929572,961.5968978795767,990.7335281795104,92.66471820493484,0.0,60.0,100.0,0.0,0.0,14.650807496608483,-0.6818730148875957,0.0,-0.0,14.650807496608483,-0.6818730148875957
10.699999999999978,1037.3961102226674,960.6936643088907,990.646925639132,93.53074360871928,0.0,60.0,100.0,0.0,0.0,14.638827829710175,-0.9032335706859298,0.0,-0.0,14.638827829710175,-0.9032335706859298
10.799999999999978,1052.0196140176804,959.5692765339876,990.5603230987535,94.39676901250371,0.0,60.0,100.0,0.0,0.0,14.623503795012999,-1.1243877749031261,0.0,-0.0,14.623503795012999,-1.1243877749031261
10.899999999999977,1066.6244529111066,958.2239914310537,990.4737205583751,95.26279441628814,0.0,60.0,100.0,0.0,0.0,14.604838893426232,-1.3452851029338158,0.0,-0.0,14.604838893426232,-1.3452851029338158
10.999999999999977,1081.2072903002158,956.6581163421955,990.3871180179967,96.12881982007258,0.0,60.0,100.0,0.0,0.0,14.58283738910931,-1.565875088858232,0.0,-0.0,14.58283738910931,-1.565875088858232
11.099999999999977,1095.7647946087136,954.872009005224,990.3005154776183,96.99484522385701,0.0,60.0,100.0,0.0,0.0,14.557504308497643,-1.786107336971592,0.0,-0.0,14.557504308497643,-1.786107336971592
11.199999999999976,1110.293640047868,952.8660774719265,990.2139129372399,97.86087062764145,0.0,60.0,100.0,0.0,0.0,14.528845439154283,-2.0059315332974332,0.0,-0.0,14.528845439154283,-2.0059315332974332
11.299999999999976,1124.7905073763156,950.6407800148442,990.1273103968615,98.72689603142588,0.0,60.0,100.0,0.0,0.0,14.4968673284477,-2.22529745708228,0.0,-0.0,14.4968673284477,-2.22529745708228
11.399999999999975,1139.2520846583716,948.1966250225752,990.0407078564831,99.59292143521031,0.0,60.0,100.0,0.0,0.0,14.461577282055982,-2.4441549922690133,0.0,-0.0,14.461577282055982,-2.4441549922690133
11.499999999999975,1153.6750680206694,945.5341708836288,989.9541053161047,100.45894683899475,0.0,60.0,100.0,0.0,0.0,14.422983362297789,-2.6624541389463188,0.0,-0.0,14.422983362297789,-2.6624541389463188
11.599999999999975,1168.0561624069599,942.6540258588572,989.8675027757263,101.32497224277918,0.0,60.0,100.0,0.0,0.0,14.381094386290444,-2.880145024771606,0.0,-0.0,14.381094386290444,-2.880145024771606
11.699999999999974,1182.3920823308954,939.5568479424924,989.7809002353479,102.19099764656362,0.0,60.0,100.0,0.0,0.0,14.335919923935595,-3.097177916364774,0.0,-0.0,14.335919923935595,-3.097177916364774
11.799999999999974,1196.6795526266283,936.2433447118221,989.6942976949695,103.05702305034805,0.0,60.0,100.0,0.0,0.0,14.287470295732868,-3.313503230670242,0.0,-0.0,14.287470295732868,-3.313503230670242
11.899999999999974,1210.9153091970504,932.7142731655375,989.607695154591,103.92304845413248,0.0,60.0,100.0,0.0,0.0,14.235756570422081,-3.529071546284624,0.0,-0.0,14.235756570422081,-3.529071546284624
11.999999999999973,1225.0960997595048,928.97043955079,989.5210926142126,104.78907385791692,0.0,60.0,100.0,0.0,0.0,14.180790562454478,-3.7438336147474867,0.0,-0.0,14.180790562454478,-3.7438336147474867
12.099999999999973,1239.2186845887984,925.0126991789974,989.4344900738342,105.65509926170135,0.0,60.0,100.0,0.0,0.0,14.122584829293622,-3.9577403717925805,0.0,-0.0,14.122584829293622,-3.9577403717925805
12.199999999999973,1253.279837257345,920.8419562304404,989.3478875334558,106.52112466548579,0.0,60.0,100.0,0.0,0.0,14.06115266854653,-4.170742948557007,0.0,-0.0,14.06115266854653,-4.170742948557007
12.299999999999972,1267.2763453722707,916.4591635476946,989.2612849930774,107.38715006927022,0.0,60.0,100.0,0.0,0.0,13.996508114925724,-4.382792682745731,0.0,-0.0,13.996508114925724,-4.382792682745731
12.399999999999972,1281.2050113093137,911.8653224179457,989.174682452699,108.25317547305465,0.0,60.0,100.0,0.0,0.0,13.928665937042874,-4.59384112974891,0.0,-0.0,13.928665937042874,-4.59384112974891
12.499999999999972,1295.0626529433484,907.0614823442362,989.0880799123206,109.11920087683909,0.0,60.0,100.0,0.0,0.0,13.857641634034778,-4.803840073709482,0.0,-0.0,13.857641634034778,-4.803840073709482
12.599999999999971,1308.846104375371,902.0487408056977,989.0014773719422,109.98522628062352,0.0,60.0,100.0,0.0,0.0,13.783451432022453,-5.012741538538507,0.0,-0.0,13.783451432022453,-5.012741538538507
12.69999999999997,1322.552216655775,896.8282430068219,988.9148748315638,110.85125168440796,0.0,60.0,100.0,0.0,0.0,13.706112280404135,-5.220497798875713,0.0,-0.0,13.706112280404135,-5.220497798875713
12.79999999999997,1336.177858503758,891.4011816158292,988.8282722911854,111.71727708819239,0.0,60.0,100.0,0.0,0.0,13.625641847983044,-5.427061390992774,0.0,-0.0,13.625641847983044,-5.427061390992774
12.89999999999997,1349.7199170226888,885.7687964921923,988.741669750807,112.58330249197682,0.0,60.0,100.0,0.0,0.0,13.542058518930785,-5.63238512363682,0.0,-0.0,13.542058518930785,-5.63238512363682
12.99999999999997,1363.1752984112761,879.9323744033807,988.6550672104286,113.44932789576126,0.0,60.0,100.0,0.0,0.0,13.45538138858733,-5.836422088811677,0.0,-0.0,13.45538138858733,-5.836422088811677
13.09999999999997,1376.5409286703746,873.8932487308863,988.5684646700502,114.31535329954569,0.0,60.0,100.0,0.0,0.0,13.365630259098523,-6.039125672494415,0.0,-0.0,13.365630259098523,-6.039125672494415
13.199999999999969,1389.8137543052667,867.6527991656016,988.4818621296718,115.18137870333013,0.0,60.0,100.0,0.0,0.0,13.272825634892097,-6.240449565284729,0.0,-0.0,13.272825634892097,-6.240449565284729
13.299999999999969,1402.99074302326,861.2124513926168,988.3952595892933,116.04740410711456,0.0,60.0,100.0,0.0,0.0,13.17698871799327,-6.440347772984722,0.0,-0.0,13.17698871799327,-6.440347772984722
13.399999999999968,1416.068884426441,854.5736767655101,988.3086570489149,116.913429510899,0.0,60.0,100.0,0.0,0.0,13.07814140318095,-6.6387746271066765,0.0,-0.0,13.07814140318095,-6.6387746271066765
13.499999999999968,1429.0451906994267,847.7379919702037,988.2220545085365,117.77945491468343,0.0,60.0,100.0,0.0,0.0,12.976306272985687,-6.835684795306431,0.0,-0.0,12.976306272985687,-6.835684795306431
13.599999999999968,1441.9166972919572,840.7069586784637,988.1354519681581,118.64548031846786,0.0,60.0,100.0,0.0,0.0,12.87150659253049,-7.031033291739934,0.0,-0.0,12.87150659253049,-7.031033291739934
13.699999999999967,1454.680463596173,833.482183191123,988.0488494277797,119.5115057222523,0.0,60.0,100.0,0.0,0.0,12.763766304215721,-7.224775487340665,0.0,-0.0,12.763766304215721,-7.224775487340665
13.799999999999967,1467.3335736184222,826.0653160711074,987.9622468874013,120.37753112603673,0.0,60.0,100.0,0.0,0.0,12.653110022249225,-7.416867120015526,0.0,-0.0,12.653110022249225,-7.416867120015526
13.899999999999967,1479.8731366454451,818.4580517663505,987.8756443470229,121.24355652982116,0.0,60.0,100.0,0.0,0.0,12.53956302702302,-7.607264304756902,0.0,-0.0,12.53956302702302,-7.607264304756902
13.999999999999966,1492.296287904783,810.662128222682,987.7890418066445,122.1095819336056,0.0,60.0,100.0,0.0,0.0,12.423151259337752,-7.795923543668578,0.0,-0.0,12.423151259337752,-7.795923543668578
14.099999999999966,1504.6001892192592,802.6793264867788,987.7024392662661,122.97560733739003,0.0,60.0,100.0,0.0,0.0,12.30390131447631,-7.982801735903212,0.0,-0.0,12.30390131447631,-7.982801735903212
14.199999999999966,1516.782029655387,794.5114702992697,987.6158367258877,123.84163274117446,0.0,60.0,100.0,0.0,0.0,12.181840436127892,-8.167856187509095,0.0,-0.0,12.181840436127892,-8.167856187509095
14.299999999999965,1528.839026165551,786.1604256780857,987.5292341855093,124.7076581449589,0.0,60.0,100.0,0.0,0.0,12.056996510163948,-8.351044621183961,0.0,-0.0,12.056996510163948,-8.351044621183961
14.399999999999965,1540.7684242238186,777.6281004921522,987.4426316451309,125.57368354874333,0.0,60.0,100.0,0.0,0.0,11.929398058267411,-8.532325185933603,0.0,-0.0,11.929398058267411,-8.532325185933603
14.499999999999964,1552.5674984552352,768.916444025519,987.3560291047525,126.43970895252777,0.0,60.0,100.0,0.0,0.0,11.799074231416672,-8.711656466633096,0.0,-0.0,11.799074231416672,-8.711656466633096
14.599999999999964,1564.233553258461,760.0274465320306,987.269426564374,127.3057343563122,0.0,60.0,100.0,0.0,0.0,11.66605480322578,-8.888997493488448,0.0,-0.0,11.66605480322578,-8.888997493488448
14.699999999999964,1575.7639234216033,750.963138780634,987.1828240239956,128.17175976009665,0.0,60.0,100.0,0.0,0.0,11.530370163142402,-9.064307751396498,0.0,-0.0,11.530370163142402,-9.064307751396498
14.799999999999963,1587.1559747311085,741.725591591433,987.0962214836172,129.0377851638811,0.0,60.0,100.0,0.0,0.0,11.392051309505094,-9.237547189200956,0.0,-0.0,11.392051309505094,-9.237547189200956
14.899999999999963,1598.40710457357,732.3169153625906,987.0096189432388,129.90381056766554,0.0,60.0,100.0,0.0,0.0,11.251129842461452,-9.408676228842424,0.0,-0.0,11.251129842461452,-9.408676228842424
14.999999999999963,1609.5147425303187,722.7392595881903,986.9230164028604,130.76983597145,0.0,60.0,100.0,0.0,0.0,11.107637956748793,-9.577655774400368,0.0,-0.0,11.107637956748793,-9.577655774400368
15.099999999999962,1620.4763509646577,712.9948123671654,986.836413862482,131.63586137523444,0.0,60.0,100.0,0.0,0.0,10.961608434338974,-9.744447221024899,0.0,-0.0,10.961608434338974,-9.744447221024899
15.199999999999962,1631.2894256016068,703.085799903409,986.7498113221036,132.5018867790189,0.0,60.0,100.0,0.0,0.0,10.813074636949077,-9.909012463756406,0.0,-0.0,10.813074636949077,-9.909012463756406
15.299999999999962,1641.9514961000264,693.014485997178,986.6632087817252,133.36791218280334,0.0,60.0,100.0,0.0,0.0,10.662070498419626,-10.071313906230959,0.0,-0.0,10.662070498419626,-10.071313906230959
15.399999999999961,1652.4601266169884,682.7831715279085,986.5766062413468,134.23393758658779,0.0,60.0,100.0,0.0,0.0,10.508630516962103,-10.231314469269527,0.0,-0.0,10.508630516962103,-10.231314469269527
15.499999999999961,1662.812916364266,672.3941939285595,986.4900037009684,135.09996299037223,0.0,60.0,100.0,0.0,0.0,10.352789747277546,-10.388977599349037,0.0,-0.0,10.352789747277546,-10.388977599349037
15.59999999999996,1673.0075001568139,661.8499266516062,986.40340116059,135.96598839415668,0.0,60.0,100.0,0.0,0.0,10.194583792547984,-10.544267276953347,0.0,-0.0,10.194583792547984,-10.544267276953347
15.69999999999996,1683.0415489531165,651.152778626804,986.3167986202116,136.83201379794113,0.0,60.0,100.0,0.0,0.0,10.034048796302576,-10.69714802480222,0.0,-0.0,10.034048796302576,-10.69714802480222
15.79999999999996,1692.9127703872769,640.3051937108476,986.2301960798331,137.69803920172558,0.0,60.0,100.0,0.0,0.0,9.87122143416032,-10.847584915956412,0.0,-0.0,9.87122143416032,-10.847584915956412
15.89999999999996,1702.618909292728,629.3096501290505,986.1435935394547,138.56406460551003,0.0,60.0,100.0,0.0,0.0,9.70613890545118,-10.995543581797042,0.0,-0.0,9.70613890545118,-10.995543581797042
15.99999999999996,1712.1577482174455,618.1686599091731,986.0569909990763,139.43009000929447,0.0,60.0,100.0,0.0,0.0,9.538838924717579,-11.140990219877404,0.0,-0.0,9.538838924717579,-11.140990219877404
16.09999999999996,1721.5271079305437,606.8847683075277,985.9703884586979,140.29611541307892,0.0,60.0,100.0,0.0,0.0,9.369359713098174,-11.283891601645422,0.0,-0.0,9.369359713098174,-11.283891601645422
16.19999999999996,1730.7248479201396,595.4605532274927,985.8837859183195,141.16214081686337,0.0,60.0,100.0,0.0,0.0,9.197739989595918,-11.424215080035006,0.0,-0.0,9.197739989595918,-11.424215080035006
16.29999999999996,1739.7488668823719,583.8986246305682,985.7971833779411,142.02816622064782,0.0,60.0,100.0,0.0,0.0,9.024018962232354,-11.561928596924567,0.0,-0.0,9.024018962232354,-11.561928596924567
16.399999999999963,1748.597103201462,572.2016239401072,985.7105808375627,142.89419162443227,0.0,60.0,100.0,0.0,0.0,8.848236319090207,-11.69700069046096,0.0,-0.0,8.848236319090207,-11.69700069046096
16.499999999999964,1757.2675354207083,560.3722234378599,985.6239782971843,143.76021702821672,0.0,60.0,100.0,0.0,0.0,8.670432219246296,-11.829400502247227,0.0,-0.0,8.670432219246296,-11.829400502247227
16.599999999999966,1765.7581827043052,548.4131256534674,985.5373757568059,144.62624243200116,0.0,60.0,100.0,0.0,0.0,8.490647283596834,-11.95909778439247,0.0,-0.0,8.490647283596834,-11.95909778439247
16.699999999999967,1774.0671052898824,536.3270627470451,985.4507732164275,145.4922678357856,0.0,60.0,100.0,0.0,0.0,8.308922585577248,-12.086062906422235,0.0,-0.0,8.308922585577248,-12.086062906422235
16.79999999999997,1782.192404931661,524.1167958849973,985.3641706760491,146.35829323957006,0.0,60.0,100.0,0.0,0.0,8.125299641778573,-12.210266862047863,0.0,-0.0,8.125299641778573,-12.210266862047863
16.89999999999997,1790.1322253341236,511.785114609204,985.2775681356707,147.2243186433545,0.0,60.0,100.0,0.0,0.0,7.939820402462647,-12.331681275793219,0.0,-0.0,7.939820402462647,-12.331681275793219
16.99999999999997,1797.8847525761018,499.3348361997267,985.1909655952923,148.09034404713896,0.0,60.0,100.0,0.0,0.0,7.752527241978189,-12.450278409477326,0.0,-0.0,7.752527241978189,-12.450278409477326
17.099999999999973,1805.448215525182,486.7688050311753,985.1043630549138,148.9563694509234,0.0,60.0,100.0,0.0,0.0,7.563462949080016,-12.56603116855139,0.0,-0.0,7.563462949080016,-12.56603116855139
17.199999999999974,1812.8208862423355,474.0898919228865,985.0177605145354,149.82239485470785,0.0,60.0,100.0,0.0,0.0,7.372670717153593,-12.678913108288782,0.0,-0.0,7.372670717153593,-12.678913108288782
17.299999999999976,1820.0010803766827,461.3009934830599,984.931157974157,150.6884202584923,0.0,60.0,100.0,0.0,0.0,7.180194134347098,-12.788898439826578,0.0,-0.0,7.180194134347098,-12.788898439826578
17.399999999999977,1826.9871575502962,448.40503144700267,984.8445554337786,151.55444566227675,0.0,60.0,100.0,0.0,0.0,6.986077173613366,-12.895962036057234,0.0,-0.0,6.986077173613366,-12.895962036057234
17.49999999999998,1833.77752173296,435.4049520096336,984.7579528934002,152.4204710660612,0.0,60.0,100.0,0.0,0.0,6.79036418266385,-13.000079437369108,0.0,-0.0,6.79036418266385,-13.000079437369108
17.59999999999998,1840.370621606797,422.3037251523991,984.6713503530218,153.28649646984564,0.0,60.0,100.0,0.0,0.0,6.593099873837021,-13.101226857234458,0.0,-0.0,6.593099873837021,-13.101226857234458
17.69999999999998,1846.7649509206803,409.10434396475546,984.5847478126434,154.1525218736301,0.0,60.0,100.0,0.0,0.0,6.394329313883443,-13.199381187643688,0.0,-0.0,6.394329313883443,-13.199381187643688
17.799999999999983,1852.9590488343501,395.80982396037086,984.498145272265,155.01854727741454,0.0,60.0,100.0,0.0,0.0,6.194097913669873,-13.294520004384578,0.0,-0.0,6.194097913669873,-13.294520004384578
17.899999999999984,1858.9515002521548,382.4232023882056,984.4115427318866,155.884572681199,0.0,60.0,100.0,0.0,0.0,5.992451417804759,-13.386621572165284,0.0,-0.0,5.992451417804759,-13.386621572165284
17.999999999999986,1864.7409361463424,368.9475375386256,984.3249401915082,156.75059808498344,0.0,60.0,100.0,0.0,0.0,5.789435894187482,-13.475664849579957,0.0,-0.0,5.789435894187482,-13.475664849579957
18.099999999999987,1870.3260338698262,355.38590804470977,984.2383376511298,157.61662348876789,0.0,60.0,100.0,0.0,0.0,5.585097723483746,-13.561629493915834,0.0,-0.0,5.585097723483746,-13.561629493915834
18.19999999999999,1875.7055174583556,341.74141217890906,984.1517351107514,158.48264889255233,0.0,60.0,100.0,0.0,0.0,5.379483588529508,-13.64449586580072,0.0,-0.0,5.379483588529508,-13.64449586580072
18.29999999999999,1880.8781579220215,328.01716714521933,984.065132570373,159.34867429633678,0.0,60.0,100.0,0.0,0.0,5.1726404636658785,-13.724245033689746,0.0,-0.0,5.1726404636658785,-13.724245033689746
18.39999999999999,1885.8427735260289,314.21630836702883,983.9785300299945,160.21469970012123,0.0,60.0,100.0,0.0,0.0,4.964615604007423,-13.800858778190479,0.0,-0.0,4.964615604007423,-13.800858778190479
18.499999999999993,1890.5982300606752,300.34198877080354,983.8919274896161,161.08072510390568,0.0,60.0,100.0,0.0,0.0,4.755456534646323,-13.874319596225279,0.0,-0.0,4.755456534646323,-13.874319596225279
18.599999999999994,1895.14344110047,286.3973780657735,983.8053249492377,161.94675050769013,0.0,60.0,100.0,0.0,0.0,4.545211039794849,-13.944610705030035,0.0,-0.0,4.545211039794849,-13.944610705030035
18.699999999999996,1899.4773682523387,272.3856620197852,983.7187224088593,162.81277591147457,0.0,60.0,100.0,0.0,0.0,4.333927151868643,-14.011716045988335,0.0,-0.0,4.333927151868643,-14.011716045988335
18.799999999999997,1903.599021392852,258.310041731485,983.6321198684809,163.67880131525902,0.0,60.0,100.0,0.0,0.0,4.121653140513295,-14.075620288300197,0.0,-0.0,4.121653140513295,-14.075620288300197
18.9,1907.5074588944287,244.17373289900047,983.5455173281025,164.54482671904347,0.0,60.0,100.0,0.0,0.0,3.908437501576726,-14.13630883248452,0.0,-0.0,3.908437501576726,-14.13630883248452
19.0,1911.2017878404586,229.97996508528598,983.4589147877241,165.41085212282792,0.0,60.0,100.0,0.0,0.0,3.694328946029872,-14.193767813714476,0.0,-0.0,3.694328946029872,-14.193767813714476
19.1,1914.6811642292969,215.73198098030096,983.3723122473457,166.27687752661237,0.0,60.0,100.0,0.0,0.0,3.4793763888382663,-14.247984104985028,0.0,-0.0,3.4793763888382663,-14.247984104985028
19.200000000000003,1917.9447931670838,201.43303566018903,983.2857097069673,167.14290293039682,0.0,60.0,100.0,0.0,0.0,3.2636289377869656,-14.298945320111924,0.0,-0.0,3.2636289377869656,-14.298945320111924
19.300000000000004,1920.9919290493453,187.0863958436276,983.1991071665889,168.00892833418126,0.0,60.0,100.0,0.0,0.0,3.0471358822614567,-14.346639816561435,0.0,-0.0,3.0471358822614567,-14.346639816561435
19.400000000000006,1923.8218757313325,172.69533914551744,983.1125046262105,168.8749537379657,0.0,60.0,100.0,0.0,0.0,2.829946681987067,-14.39105669811017,0.0,-0.0,2.829946681987067,-14.39105669811017
19.500000000000007,1926.4339866870619,158.263153328183,983.0259020858321,169.74097914175016,0.0,60.0,100.0,0.0,0.0,2.6121109557294595,-14.432185817334439,0.0,-0.0,2.6121109557294595,-14.432185817334439
19.60000000000001,1928.8276651570206,143.7931355502545,982.9392995454537,170.6070045455346,0.0,60.0,100.0,0.0,0.0,2.393678469958796,-14.470017777928502,0.0,-0.0,2.393678469958796,-14.470017777928502
19.70000000000001,1931.0023642845008,129.28859161340324,982.8526970050752,171.47302994931906,0.0,60.0,100.0,0.0,0.0,2.174699127480136,-14.504543936851249,0.0,-0.0,2.174699127480136,-14.504543936851249
19.80000000000001,1932.9575872405335,114.75283520710248,982.7660944646968,172.3390553531035,0.0,60.0,100.0,0.0,0.0,1.9552229560327443,-14.535756406300766,0.0,-0.0,1.9552229560327443,-14.535756406300766
19.900000000000013,1934.6928873373943,100.1891871515861,982.6794919243184,173.20508075688795,0.0,60.0,100.0,0.0,0.0,1.7353000968607661,-14.563648055516385,0.0,-0.0,1.7353000968607661,-14.563648055516385
20.000000000000014,1936.2078681306523,85.60097463917833,982.59288938394,174.0711061606724,0.0,60.0,100.0,0.0,0.0,1.5149807932580772,-14.58821251240776,0.0,-0.0,1.5149807932580772,-14.58821251240776
20.100000000000016,1937.502183509742,70.9915304741677,982.5062868435616,174.93713156445685,0.0,60.0,100.0,0.0,0.0,1.2943153790897157,-14.609444165010627,0.0,-0.0,1.2943153790897157,-14.609444165010627
20.200000000000017,1938.5755377770347,56.364192311398796,982.4196843031832,175.8031569682413,0.0,60.0,100.0,0.0,0.0,1.0733542672927074,-14.62733816276891,0.0,-0.0,1.0733542672927074,-14.62733816276891
20.30000000000002,1939.4276857153934,41.722301893755926,982.3330817628048,176.66918237202574,0.0,60.0,100.0,0.0,0.0,0.8521479383587759,-14.64189041764287,0.0,-0.0,0.8521479383587759,-14.64189041764287
20.40000000000002,1940.0584326441951,27.06920428871287,982.2464792224264,177.5352077758102,0.0,60.0,100.0,0.0,0.0,0.6307469288016364,-14.653097605043055,0.0,-0.0,0.6307469288016364,-14.653097605043055
20.50000000000002,1940.4676344638067,12.408247124123042,982.159876682048,178.40123317959464,0.0,60.0,100.0,0.0,0.0,0.40920181961148955,-14.66095716458983,0.0,-0.0,0.40920181961148955,-14.66095716458983
20.600000000000023,1940.655197688506,-2.2572201765752755,982.0732741416696,179.2672585833791,0.0,60.0,100.0,0.0,0.0,0.1875632246993526,-14.665467300698317,0.0,-0.0,0.1875632246993526,-14.665467300698317
20.700000000000024,1940.6210794678398,-16.92384715956389,981.9866716012912,180.13328398716354,0.0,60.0,100.0,0.0,0.0,-0.03411822066612894,-14.666626982988616,0.0,-0.0,-0.03411822066612894,-14.666626982988616
20.800000000000026,1940.365287596413,-31.588283106085093,981.9000690609128,180.99930939094799,0.0,60.0,100.0,0.0,0.0,-0.2557918714267534,-14.664435946521202,0.0,-0.0,-0.2557918714267534,-14.664435946521202
20.900000000000027,1939.887880512108,-46.24717779794254,981.8134665205343,181.86533479473243,0.0,60.0,100.0,0.0,0.0,-0.4774070843050484,-14.658894691857451,0.0,-0.0,-0.4774070843050484,-14.658894691857451
21.00000000000003,1939.1889672827338,-60.897182282887826,981.7268639801559,182.73136019851688,0.0,60.0,100.0,0.0,0.0,-0.6989132293742173,-14.650004484945283,0.0,-0.0,-0.6989132293742173,-14.650004484945283
21.10000000000003,1938.2687075811089,-75.53494963971778,981.6402614397775,183.59738560230133,0.0,60.0,100.0,0.0,0.0,-0.9202597016249228,-14.637767356829949,0.0,-0.0,-0.9202597016249228,-14.637767356829949
21.20000000000003,1937.1273116485825,-90.1571357429078,981.5536588993991,184.46341100608578,0.0,60.0,100.0,0.0,0.0,-1.1413959325264937,-14.622186103190014,0.0,-0.0,-1.1413959325264937,-14.622186103190014
21.300000000000033,1935.7650402470028,-104.76040002660648,981.4670563590207,185.32943640987023,0.0,60.0,100.0,0.0,0.0,-1.3622714015797082,-14.603264283698671,0.0,-0.0,-1.3622714015797082,-14.603264283698671
21.400000000000034,1934.1822045991441,-119.34140624781696,981.3804538186423,186.19546181365467,0.0,60.0,100.0,0.0,0.0,-1.5828356478586938,-14.581006221210489,0.0,-0.0,-1.5828356478586938,-14.581006221210489
21.500000000000036,1932.379166317605,-133.89682324859078,981.2938512782639,187.06148721743912,0.0,60.0,100.0,0.0,0.0,-1.8030382815391004,-14.555417000773826,0.0,-0.0,-1.8030382815391004,-14.555417000773826
21.600000000000037,1930.3563373221948,-148.4233257170599,981.2072487378855,187.92751262122357,0.0,60.0,100.0,0.0,0.0,-2.022828995410141,-14.526502468469111,0.0,-0.0,-2.022828995410141,-14.526502468469111
21.70000000000004,1928.1141797458272,-162.91759494713315,981.1206461975071,188.79353802500802,0.0,60.0,100.0,0.0,0.0,-2.2421575763677084,-14.494269230073245,0.0,-0.0,-2.2421575763677084,-14.494269230073245
21.80000000000004,1925.6532058289413,-177.37631959668363,981.0340436571287,189.65956342879247,0.0,60.0,100.0,0.0,0.0,-2.4609739168859677,-14.458724649550462,0.0,-0.0,-2.4609739168859677,-14.458724649550462
21.90000000000004,1922.9739778024764,-191.79619644405358,980.9474411167503,190.52558883257691,0.0,60.0,100.0,0.0,0.0,-2.679228026464889,-14.419876847369961,0.0,-0.0,-2.679228026464889,-14.419876847369961
22.000000000000043,1920.0771077594254,-206.1739311427043,980.8608385763719,191.39161423636136,0.0,60.0,100.0,0.0,0.0,-2.8968700430509964,-14.37773469865072,0.0,-0.0,-2.8968700430509964,-14.37773469865072
22.100000000000044,1916.9632575149967,-220.5062389738382,980.7742360359935,192.2576396401458,0.0,60.0,100.0,0.0,0.0,-3.1138502444288028,-14.33230783113389,0.0,-0.0,-3.1138502444288028,-14.33230783113389
22.200000000000045,1913.6331384554164,-234.78984559682146,980.687633495615,193.12366504393026,0.0,60.0,100.0,0.0,0.0,-3.3301190595802552,-14.28360662298327,0.0,-0.0,-3.3301190595802552,-14.28360662298327
22.300000000000047,1910.0875113754068,-249.02148779723575,980.6010309552366,193.9896904477147,0.0,60.0,100.0,0.0,0.0,-3.545627080009694,-14.2316422004143,0.0,-0.0,-3.545627080009694,-14.2316422004143
22.40000000000005,1906.3271863043751,-263.197914232388,980.5144284148582,194.85571585149916,0.0,60.0,100.0,0.0,0.0,-3.76032507103165,-14.176426435152196,0.0,-0.0,-3.76032507103165,-14.176426435152196
22.50000000000005,1902.353022321356,-277.31588617410773,980.4278258744798,195.7217412552836,0.0,60.0,100.0,0.0,0.0,-3.9741639830189257,-14.117971941719759,0.0,-0.0,-3.9741639830189257,-14.117971941719759
22.60000000000005,1898.1659273587477,-291.3721782486632,980.3412233341014,196.58776665906805,0.0,60.0,100.0,0.0,0.0,-4.18709496260841,-14.056292074555454,0.0,-0.0,-4.18709496260841,-14.056292074555454
22.700000000000053,1893.7668579948856,-305.3635791736257,980.254620793723,197.4537920628525,0.0,60.0,100.0,0.0,0.0,-4.399069363862067,-13.991400924962496,0.0,-0.0,-4.399069363862067,-13.991400924962496
22.800000000000054,1889.156819235505,-319.28689249151523,980.1680182533446,198.31981746663695,0.0,60.0,100.0,0.0,0.0,-4.610038759380524,-13.923313317889548,0.0,-0.0,-4.610038759380524,-13.923313317889548
22.900000000000055,1884.3368642841383,-333.13893730005907,980.0814157129662,199.1858428704214,0.0,60.0,100.0,0.0,0.0,-4.819954951366723,-13.85204480854385,0.0,-0.0,-4.819954951366723,-13.85204480854385
23.000000000000057,1879.3080943015011,-346.91654897889657,979.9948131725878,200.05186827420584,0.0,60.0,100.0,0.0,0.0,-5.0287699826371215,-13.777611678837484,0.0,-0.0,-5.0287699826371215,-13.777611678837484
23.10000000000006,1874.0716581539232,-360.6165799125642,979.9082106322094,200.9178936779903,0.0,60.0,100.0,0.0,0.0,-5.236436147577957,-13.700030933667636,0.0,-0.0,-5.236436147577957,-13.700030933667636
23.20000000000006,1868.628752150879,-374.23590020959585,979.821608091831,201.78391908177474,0.0,60.0,100.0,0.0,0.0,-5.442906003043983,-13.619320297031676,0.0,-0.0,-5.442906003043983,-13.619320297031676
23.30000000000006,1862.9806197716819,-387.77139841757383,979.7350055514526,202.6499444855592,0.0,60.0,100.0,0.0,0.0,-5.648132379197275,-13.535498207977957,0.0,-0.0,-5.648132379197275,-13.535498207977957
23.400000000000063,1857.1285513813982,-401.2199822339671,979.6484030110742,203.51596988934364,0.0,60.0,100.0,0.0,0.0,-5.85206839028361,-13.448583816393256,0.0,-0.0,-5.85206839028361,-13.448583816393256
23.500000000000064,1851.0738839360542,-414.5785792125949,979.5618004706957,204.38199529312809,0.0,60.0,100.0,0.0,0.0,-6.054667445343892,-13.358596978627812,0.0,-0.0,-6.054667445343892,-13.358596978627812
23.600000000000065,1844.8180006771959,-427.84413746555384,979.4751979303173,205.24802069691253,0.0,60.0,100.0,0.0,0.0,-6.255883258858293,-13.265558252958966,0.0,-0.0,-6.255883258858293,-13.265558252958966
23.700000000000067,1838.3623308158753,-441.0136263604483,979.3885953899389,206.11404610069698,0.0,60.0,100.0,0.0,0.0,-6.455669861320557,-13.169488894894464,0.0,-0.0,-6.455669861320557,-13.169488894894464
23.800000000000068,1831.7083492061352,-454.0840372127647,979.3019928495605,206.98007150448143,0.0,60.0,100.0,0.0,0.0,-6.653981609740176,-13.070410852316416,0.0,-0.0,-6.653981609740176,-13.070410852316416
23.90000000000007,1824.8575760080653,-467.0523839732318,979.2153903091821,207.84609690826588,0.0,60.0,100.0,0.0,0.0,-6.8507731980698825,-12.968346760467139,0.0,-0.0,-6.8507731980698825,-12.968346760467139
24.00000000000007,1817.811576340509,-479.91570391000977,979.1287877688037,208.71212231205033,0.0,60.0,100.0,0.0,0.0,-7.0459996675562175,-12.863319936777941,0.0,-0.0,-7.0459996675562175,-12.863319936777941
24.100000000000072,1810.571959923498,-492.6710582855518,979.0421852284253,209.57814771583477,0.0,60.0,100.0,0.0,0.0,-7.239616417010794,-12.755354375542023,0.0,-0.0,-7.239616417010794,-12.755354375542023
24.200000000000074,1803.1403807104982,-505.3155330279846,978.9555826880469,210.44417311961922,0.0,60.0,100.0,0.0,0.0,-7.431579212999773,-12.644474742432795,0.0,-0.0,-7.431579212999773,-12.644474742432795
24.300000000000075,1795.5185365105488,-517.8462393968534,978.8689801476685,211.31019852340367,0.0,60.0,100.0,0.0,0.0,-7.621844199949412,-12.530706368868785,0.0,-0.0,-7.621844199949412,-12.530706368868785
24.400000000000077,1787.7081686003835,-530.2603146430799,978.7823776072901,212.17622392718812,0.0,60.0,100.0,0.0,0.0,-7.8103679101652155,-12.414075246226464,0.0,-0.0,-7.8103679101652155,-12.414075246226464
24.500000000000078,1779.711061326621,-542.5549226629822,978.6957750669117,213.04224933097257,0.0,60.0,100.0,0.0,0.0,-7.9971072737625715,-12.29460801990226,0.0,-0.0,-7.9971072737625715,-12.29460801990226
24.60000000000008,1771.5290416981145,-554.7272546462075,978.6091725265333,213.90827473475701,0.0,60.0,100.0,0.0,0.0,-8.182019628506374,-12.172331983225218,0.0,-0.0,-8.182019628506374,-12.172331983225218
24.70000000000008,1763.1639789685569,-566.7745297174291,978.5225699861548,214.77430013854146,0.0,60.0,100.0,0.0,0.0,-8.365062729557629,-12.047275071221586,0.0,-0.0,-8.365062729557629,-12.047275071221586
24.800000000000082,1754.6177842094323,-578.693995571662,978.4359674457764,215.6403255423259,0.0,60.0,100.0,0.0,0.0,-8.546194759124626,-11.919465854232813,0.0,-0.0,-8.546194759124626,-11.919465854232813
24.900000000000084,1745.8924098734158,-590.4829291030504,978.349364905398,216.50635094611036,0.0,60.0,100.0,0.0,0.0,-8.725374336016603,-11.78893353138841,0.0,-0.0,-8.725374336016603,-11.78893353138841
25.000000000000085,1736.989849348318,-602.1386370269855,978.2627623650196,217.3723763498948,0.0,60.0,100.0,0.0,0.0,-8.902560525097627,-11.65570792393515,0.0,-0.0,-8.902560525097627,-11.65570792393515
25.100000000000087,1727.9121365016795,-613.6584564954097,978.1761598246412,218.23840175367926,0.0,60.0,100.0,0.0,0.0,-9.077712846638562,-11.519819468424165,0.0,-0.0,-9.077712846638562,-11.519819468424165
25.200000000000088,1718.6613452161143,-625.0397557051672,978.0895572842628,219.1044271574637,0.0,60.0,100.0,0.0,0.0,-9.25079128556507,-11.381299209757405,0.0,-0.0,-9.25079128556507,-11.381299209757405
25.30000000000009,1709.239588915515,-636.2799344992624,978.0029547438844,219.97045256124815,0.0,60.0,100.0,0.0,0.0,-9.421756300599352,-11.240178794095208,0.0,-0.0,-9.421756300599352,-11.240178794095208
25.40000000000009,1699.6490200822213,-647.3764249608888,977.916352203506,220.8364779650326,0.0,60.0,100.0,0.0,0.0,-9.590568833293718,-11.096490461626432,0.0,-0.0,-9.590568833293718,-11.096490461626432
25.500000000000092,1689.8918297652674,-658.3266920000917,977.8297496631276,221.70250336881705,0.0,60.0,100.0,0.0,0.0,-9.757190316953826,-10.95026703920291,0.0,-0.0,-9.757190316953826,-10.95026703920291
25.600000000000094,1679.970247079818,-669.1282339329316,977.7431471227492,222.5685287726015,0.0,60.0,100.0,0.0,0.0,-9.921582685449588,-10.801541932839873,0.0,-0.0,-9.921582685449588,-10.801541932839873
25.700000000000095,1669.8865386979062,-679.7785830530156,977.6565445823708,223.43455417638594,0.0,60.0,100.0,0.0,0.0,-10.083708381911698,-10.650349120084043,0.0,-0.0,-10.083708381911698,-10.650349120084043
25.800000000000097,1659.6430083305943,-690.2753061952668,977.5699420419924,224.3005795801704,0.0,60.0,100.0,0.0,0.0,-10.243530367311832,-10.496723142251183,0.0,-0.0,-10.243530367311832,-10.496723142251183
25.900000000000098,1649.2419962016697,-700.6160052918016,977.483339501614,225.16660498395484,0.0,60.0,100.0,0.0,0.0,-10.401012128924535,-10.340699096534813,0.0,-0.0,-10.401012128924535,-10.340699096534813
26.0000000000001,1638.685878513001,-710.7983179197895,977.3967369612355,226.0326303877393,0.0,60.0,100.0,0.0,0.0,-10.556117688668872,-10.182312627987974,0.0,-0.0,-10.556117688668872,-10.182312627987974
26.1000000000001,1627.977066901673,-720.8199178411693,977.3101344208571,226.89865579152374,0.0,60.0,100.0,0.0,0.0,-10.708811611327935,-10.021599921379778,0.0,-0.0,-10.708811611327935,-10.021599921379778
26.200000000000102,1617.1180078890286,-730.678515534098,977.2235318804787,227.76468119530819,0.0,60.0,100.0,0.0,0.0,-10.859059012644327,-9.858597692928708,0.0,-0.0,-10.859059012644327,-9.858597692928708
26.300000000000104,1606.1111823217389,-740.3718587160124,977.1369293401003,228.63070659909263,0.0,60.0,100.0,0.0,0.0,-11.006825567289766,-9.693343181914459,0.0,-0.0,-11.006825567289766,-9.693343181914459
26.400000000000105,1594.9591048050318,-749.8977328581827,977.0503267997219,229.49673200287708,0.0,60.0,100.0,0.0,0.0,-11.152077516707028,-9.525874142170304,0.0,-0.0,-11.152077516707028,-9.525874142170304
26.500000000000107,1583.6643231282094,-759.2539616916406,976.9637242593435,230.36275740666153,0.0,60.0,100.0,0.0,0.0,-11.294781676822353,-9.356228833457912,0.0,-0.0,-11.294781676822353,-9.356228833457912
26.600000000000108,1572.2294176825828,-768.4384077043671,976.8771217189651,231.22878281044598,0.0,60.0,100.0,0.0,0.0,-11.434905445626665,-9.184446012726562,0.0,-0.0,-11.434905445626665,-9.184446012726562
26.70000000000011,1560.657000871959,-777.4489726296259,976.7905191785867,232.09480821423043,0.0,60.0,100.0,0.0,0.0,-11.572416810623762,-9.01056492525878,0.0,-0.0,-11.572416810623762,-9.01056492525878
26.80000000000011,1548.9497165158152,-786.2835979253304,976.7039166382083,232.96083361801487,0.0,60.0,100.0,0.0,0.0,-11.707284356143864,-8.834625295704416,0.0,-0.0,-11.707284356143864,-8.834625295704416
26.900000000000112,1537.1102392452945,-794.9402652443356,976.6173140978299,233.82685902179932,0.0,60.0,100.0,0.0,0.0,-11.839477270520792,-8.656667319005203,0.0,-0.0,-11.839477270520792,-8.656667319005203
27.000000000000114,1525.1412738921633,-803.4169968955474,976.5307115574515,234.69288442558377,0.0,60.0,100.0,0.0,0.0,-11.96896535313116,-8.476731651211868,0.0,-0.0,-11.96896535313116,-8.476731651211868
27.100000000000115,1513.0455548708694,-811.7118562957434,976.4441090170731,235.55890982936822,0.0,60.0,100.0,0.0,0.0,-12.095719021293975,-8.2948594001959,0.0,-0.0,-12.095719021293975,-8.2948594001959
27.200000000000117,1500.8258455538403,-819.8229484120014,976.3575064766947,236.42493523315267,0.0,60.0,100.0,0.0,0.0,-12.219709317029054,-8.111092116258115,0.0,-0.0,-12.219709317029054,-8.111092116258115
27.300000000000118,1488.4849376401676,-827.7484201946376,976.2709039363162,237.29096063693711,0.0,60.0,100.0,0.0,0.0,-12.340907913672728,-7.925471782636102,0.0,-0.0,-12.340907913672728,-7.925471782636102
27.40000000000012,1476.0256505178183,-835.4864610005503,976.1843013959378,238.15698604072156,0.0,60.0,100.0,0.0,0.0,-12.459287122349314,-7.738040805912806,0.0,-0.0,-12.459287122349314,-7.738040805912806
27.50000000000012,1463.4508306195214,-843.0353030068787,976.0976988555594,239.023011444506,0.0,60.0,100.0,0.0,0.0,-12.574819898296887,-7.548842006328378,0.0,-0.0,-12.574819898296887,-7.548842006328378
27.600000000000122,1450.7633507724756,-850.3932216148762,976.011096315181,239.88903684829046,0.0,60.0,100.0,0.0,0.0,-12.68747984704589,-7.357918607997481,0.0,-0.0,-12.68747984704589,-7.357918607997481
27.700000000000124,1437.9661095420265,-857.5585358439106,975.9244937748026,240.7550622520749,0.0,60.0,100.0,0.0,0.0,-12.797241230449162,-7.165314229034427,0.0,-0.0,-12.797241230449162,-7.165314229034427
27.800000000000125,1425.0620305694645,-864.5296087154987,975.8378912344242,241.62108765585936,0.0,60.0,100.0,0.0,0.0,-12.904078972562063,-6.97107287158819,0.0,-0.0,-12.904078972562063,-6.97107287158819
27.900000000000126,1412.0540619040933,-871.3048476272885,975.7512886940458,242.4871130596438,0.0,60.0,100.0,0.0,0.0,-13.0079686653713,-6.775238911789725,0.0,-0.0,-13.0079686653713,-6.775238911789725
28.000000000000128,1398.9451753297221,-877.8827047169024,975.6646861536674,243.35313846342825,0.0,60.0,100.0,0.0,0.0,-13.10888657437112,-6.5778570896138975,0.0,-0.0,-13.10888657437112,-6.5778570896138975
28.10000000000013,1385.7383656857364,-884.2616772155606,975.578083613289,244.2191638672127,0.0,60.0,100.0,0.0,0.0,-13.206809643985682,-6.378972498658226,0.0,-0.0,-13.206809643985682,-6.378972498658226
28.20000000000013,1372.4366501829002,-890.4403077914014,975.4914810729106,245.08518927099715,0.0,60.0,100.0,0.0,0.0,-13.301715502836311,-6.178630575840845,0.0,-0.0,-13.301715502836311,-6.178630575840845
28.300000000000132,1359.0430677140478,-896.4171848824215,975.4048785325322,245.9512146747816,0.0,60.0,100.0,0.0,0.0,-13.393582468852427,-5.976877091020037,0.0,-0.0,-13.393582468852427,-5.976877091020037
28.400000000000134,1345.5606781598228,-902.1909430189592,975.3182759921538,246.81724007856604,0.0,60.0,100.0,0.0,0.0,-13.482389554224994,-5.773758136537761,0.0,-0.0,-13.482389554224994,-5.773758136537761
28.500000000000135,1331.9925616896214,-907.7602631356485,975.2316734517754,247.6832654823505,0.0,60.0,100.0,0.0,0.0,-13.56811647020138,-5.5693201166894015,0.0,-0.0,-13.56811647020138,-5.5693201166894015
28.600000000000136,1318.3418180579008,-913.1238728727708,975.1450709113969,248.54929088613494,0.0,60.0,100.0,0.0,0.0,-13.650743631720504,-5.363609737122313,0.0,-0.0,-13.650743631720504,-5.363609737122313
28.700000000000138,1304.6115658960136,-918.2805468669363,975.0584683710185,249.4153162899194,0.0,60.0,100.0,0.0,0.0,-13.730252161887202,-5.156673994165525,0.0,-0.0,-13.730252161887202,-5.156673994165525
28.80000000000014,1290.8049419997287,-923.2291070310293,974.9718658306401,250.28134169370384,0.0,60.0,100.0,0.0,0.0,-13.806623896284812,-4.948560164093028,0.0,-0.0,-13.806623896284812,-4.948560164093028
28.90000000000014,1276.9251006126037,-927.9684228233524,974.8852632902617,251.14736709748829,0.0,60.0,100.0,0.0,0.0,-13.879841387125012,-4.739315792323066,0.0,-0.0,-13.879841387125012,-4.739315792323066
29.000000000000142,1262.9752127053698,-932.4974115059084,974.7986607498833,252.01339250127273,0.0,60.0,100.0,0.0,0.0,-13.949887907233915,-4.52898868255598,0.0,-0.0,-13.949887907233915,-4.52898868255598
29.100000000000144,1248.9584652514964,-936.8150383917615,974.7120582095049,252.87941790505718,0.0,60.0,100.0,0.0,0.0,-14.016747453873531,-4.317626885853047,0.0,-0.0,-14.016747453873531,-4.317626885853047
29.200000000000145,1234.8780604990986,-940.9203170814203,974.6254556691265,253.74544330884163,0.0,60.0,100.0,0.0,0.0,-14.080404752397722,-4.105278689658819,0.0,-0.0,-14.080404752397722,-4.105278689658819
29.300000000000146,1220.7372152393568,-944.8123096881897,974.5388531287481,254.61146871262608,0.0,60.0,100.0,0.0,0.0,-14.140845259741859,-3.8919926067693655,0.0,-0.0,-14.140845259741859,-3.8919926067693655
29.400000000000148,1206.5391600716116,-948.4901270524389,974.4522505883697,255.47749411641053,0.0,60.0,100.0,0.0,0.0,-14.19805516774528,-3.6778173642491727,0.0,-0.0,-14.19805516774528,-3.6778173642491727
29.50000000000015,1192.2871386653057,-951.9529289447379,974.3656480479913,256.34351952019495,0.0,60.0,100.0,0.0,0.0,-14.252021406305904,-3.462801892298993,0.0,-0.0,-14.252021406305904,-3.462801892298993
29.60000000000015,1177.9844070189395,-955.1999242578152,974.2790455076129,257.20954492397937,0.0,60.0,100.0,0.0,0.0,-14.302731646366201,-3.2469953130773033,0.0,-0.0,-14.302731646366201,-3.2469953130773033
29.700000000000152,1163.6342327162097,-958.2303711872931,974.1924429672345,258.0755703277638,0.0,60.0,100.0,0.0,0.0,-14.35017430272988,-3.0304469294779364,0.0,-0.0,-14.35017430272988,-3.0304469294779364
29.800000000000153,1149.239894179501,-961.0435774011595,974.105840426856,258.9415957315482,0.0,60.0,100.0,0.0,0.0,-14.394338536708613,-2.8132062138664007,0.0,-0.0,-14.394338536708613,-2.8132062138664007
29.900000000000155,1134.8046799209028,-963.638900197937,974.0192378864776,259.8076211353326,0.0,60.0,100.0,0.0,0.0,-14.43521425859825,-2.5953227967774937,0.0,-0.0,-14.43521425859825,-2.5953227967774937
