time,x,y,altitude,yaw,pitch,roll,speed,wind_dir,wind_spd,dx,dy,wind_dx,wind_dy,vmg_dx,vmg_dy
0.0,-1.1650791330497619,13.629018259200912,1000.0960758501114,359.5,0.6,-30.0,100.0,45.0,10.0,-0.12798918730949216,14.666108204941182,-1.0370899457402696,-1.0370899457402698,-1.1650791330497619,13.629018259200912
0.1,-2.4581377065368564,27.256361175754385,1000.1921517002229,359.0,0.6,-30.0,100.0,45.0,10.0,-0.25596862774682466,14.664432862293742,-1.0370899457402696,-1.0370899457402698,-1.2930585734870943,13.627342916553472
0.2,-3.8791562274592706,40.88091199632229,1000.2882275503343,358.5,0.6,-30.0,100.0,45.0,10.0,-0.38392857518214446,14.661640766308176,-1.0370899457402696,-1.0370899457402698,-1.421018520922414,13.624550820567906
0.30000000000000004,-5.428105458169551,54.50155418019543,1000.3843034004458,358.0,0.6,-30.0,100.0,45.0,10.0,-0.5118592849700113,14.657732129613407,-1.0370899457402696,-1.0370899457402698,-1.548949230710281,13.620642183873137
0.4,-7.104946418601417,68.11717148432241,1000.4803792505572,357.5,0.6,-30.0,100.0,45.0,10.0,-0.6397510146915967,14.65270724986725,-1.0370899457402696,-1.0370899457402698,-1.6768409604318664,13.61561730412698
0.5,-8.90963038923819,81.72664804831591,1000.5764551006687,357.0,0.6,-30.0,100.0,45.0,10.0,-0.7675940248965037,14.646566509733754,-1.0370899457402696,-1.0370899457402698,-1.8046839706367734,13.609476563993484
0.6,-10.842098914823026,95.3288684794297,1000.6725309507801,356.5,0.6,-30.0,100.0,45.0,10.0,-0.8953785798445666,14.639310376854052,-1.0370899457402696,-1.0370899457402698,-1.9324685255848362,13.602220431113782
0.7,-12.902283808810472,108.9227179375002,1000.7686068008916,356.0,0.6,-30.0,100.0,45.0,10.0,-1.0230949482471754,14.630939403810757,-1.0370899457402696,-1.0370899457402698,-2.060184893987445,13.593849458070487
0.7999999999999999,-15.09010715855913,122.50708221984581,1000.864682651003,355.5,0.6,-30.0,100.0,45.0,10.0,-1.150733404008389,14.621454228085879,-1.0370899457402696,-1.0370899457402698,-2.1878233497486583,13.584364282345609
0.8999999999999999,-17.405481331265054,136.08084784611782,1000.9607585011145,355.0,0.6,-30.0,100.0,45.0,10.0,-1.2782842269656545,14.610855572012271,-1.0370899457402696,-1.0370899457402698,-2.315374172705924,13.573765626272001
0.9999999999999999,-19.84830898063527,149.6429021430962,1001.0568343512259,354.5,0.6,-30.0,100.0,45.0,10.0,-1.4057377036299454,14.599144242718626,-1.0370899457402696,-1.0370899457402698,-2.442827649370215,13.562054296978356
1.0999999999999999,-22.418483054301134,163.19213332942394,1001.1529102013374,354.0,0.6,-30.0,100.0,45.0,10.0,-1.5330841279255958,14.586321132068012,-1.0370899457402696,-1.0370899457402698,-2.570174073665865,13.549231186327741
1.2,-25.115886801970706,176.72743060027364,1001.2489860514488,353.5,0.6,-30.0,100.0,45.0,10.0,-1.6603138019293022,14.572387216589952,-1.0370899457402696,-1.0370899457402698,-2.697403747669572,13.535297270849682
1.3,-27.940393784319816,190.24768421193943,1001.3450619015603,353.0,0.6,-30.0,100.0,45.0,10.0,-1.7874170366088384,14.557343557406059,-1.0370899457402696,-1.0370899457402698,-2.8245069823491082,13.520253611665789
1.4000000000000001,-30.891867882620843,203.7517855663484,1001.4411377516717,352.5,0.6,-30.0,100.0,45.0,10.0,-1.9143841525607577,14.541191300149222,-1.0370899457402696,-1.0370899457402698,-2.951474098301027,13.504101354408952
1.5000000000000002,-33.97016330910875,217.2386272954845,1001.5372136017832,352.0,0.6,-30.0,100.0,45.0,10.0,-2.0412054807476325,14.523931674876367,-1.0370899457402696,-1.0370899457402698,-3.078295426487902,13.486841729136097
1.6000000000000003,-37.175124618083316,230.70710334571902,1001.6332894518946,351.5,0.6,-30.0,100.0,45.0,10.0,-2.1678713632343,14.50556599597478,-1.0370899457402696,-1.0370899457402698,-3.2049613089745694,13.46847605023451
1.7000000000000004,-40.50658671774698,244.15610906204077,1001.729365302006,351.0,0.6,-30.0,100.0,45.0,10.0,-2.294372153923389,14.486095662062022,-1.0370899457402696,-1.0370899457402698,-3.3314620996636584,13.449005716321752
1.8000000000000005,-43.96437488277719,257.5845412721799,1001.8254411521175,350.5,0.6,-30.0,100.0,45.0,10.0,-2.420698219289947,14.465522155879396,-1.0370899457402696,-1.0370899457402698,-3.4577881650302165,13.428432210139126
1.9000000000000006,-47.548304767632445,270.99129837061867,1001.9215170022289,350.0,0.6,-30.0,100.0,45.0,10.0,-2.5468399391149785,14.443847044179053,-1.0370899457402696,-1.0370899457402698,-3.583929884855248,13.406757098438783
2.0000000000000004,-51.258182420590884,284.3752804024831,1002.0175928523404,349.5,0.6,-30.0,100.0,45.0,10.0,-2.672787707218168,14.421071977604669,-1.0370899457402696,-1.0370899457402698,-3.7098776529584376,13.383982031864399
2.1000000000000005,-55.093804298520475,297.7353891473086,1002.1136687024518,349.0,0.6,-30.0,100.0,45.0,10.0,-2.7985319321893214,14.397198690565741,-1.0370899457402696,-1.0370899457402698,-3.835621877929591,13.360108744825471
2.2000000000000006,-59.05495728237964,311.0705282026738,1002.2097445525633,348.5,0.6,-30.0,100.0,45.0,10.0,-2.924063038118894,14.372229001105504,-1.0370899457402696,-1.0370899457402698,-3.9611529838591637,13.335139055365234
2.3000000000000007,-63.14141869344705,324.37960306769605,1002.3058204026747,348.0,0.6,-30.0,100.0,45.0,10.0,-3.049371465327144,14.346164810762485,-1.0370899457402696,-1.0370899457402698,-4.086461411067414,13.309074865022215
2.400000000000001,-67.3529563102795,337.66152122638147,1002.4018962527862,347.5,0.6,-30.0,100.0,45.0,10.0,-3.1744476710921754,14.319008104425691,-1.0370899457402696,-1.0370899457402698,-4.2115376168324445,13.281918158685421
2.500000000000001,-71.68932838639645,350.91519223082463,1002.4979721028976,347.0,0.6,-30.0,100.0,45.0,10.0,-3.299282130376691,14.29076095018345,-1.0370899457402696,-1.0370899457402698,-4.336372076116961,13.25367100444318
2.600000000000001,-76.15028366869,364.1395277842503,1002.5940479530091,346.5,0.6,-30.0,100.0,45.0,10.0,-3.423865336553276,14.261425499165927,-1.0370899457402696,-1.0370899457402698,-4.460955282293545,13.224335553425657
2.700000000000001,-80.73556141655872,377.3334418238913,1002.6901238031205,346.0,0.6,-30.0,100.0,45.0,10.0,-3.5481878021284614,14.231003985381285,-1.0370899457402696,-1.0370899457402698,-4.585277747868731,13.193914039641015
2.800000000000001,-85.44489142176413,390.4958506036966,1002.786199653232,345.5,0.6,-30.0,100.0,45.0,10.0,-3.6722400594651345,14.199498725545585,-1.0370899457402696,-1.0370899457402698,-4.709330005205404,13.162408779805315
2.9000000000000012,-90.27799402900803,403.6256727768627,1002.8822755033434,345.0,0.6,-30.0,100.0,45.0,10.0,-3.7960126615036365,14.166912118906339,-1.0370899457402696,-1.0370899457402698,-4.833102607243906,13.129822173166069
3.0000000000000013,-95.2345801572294,416.72182947818226,1002.9783513534549,344.5,0.6,-30.0,100.0,45.0,10.0,-3.9194961824811045,14.133246647059806,-1.0370899457402696,-1.0370899457402698,-4.956586128221375,13.096156701319536
3.1000000000000014,-100.31435132161899,429.783244406204,1003.0744272035663,344.0,0.6,-30.0,100.0,45.0,10.0,-4.042681218649318,14.098504873762014,-1.0370899457402696,-1.0370899457402698,-5.079771164389587,13.061414928021744
3.2000000000000015,-105.51699965635011,442.80884390519725,1003.1705030536777,343.5,0.6,-30.0,100.0,45.0,10.0,-4.165558388990866,14.0626894447335,-1.0370899457402696,-1.0370899457402698,-5.202648334731135,13.02559949899323
3.3000000000000016,-110.84220793802385,455.79755704691485,1003.2665789037892,343.0,0.6,-30.0,100.0,45.0,10.0,-4.288118335933478,14.025803087457854,-1.0370899457402696,-1.0370899457402698,-5.325208281673747,12.988713141717584
3.4000000000000017,-116.2896496098268,468.74831571214855,1003.3626547539006,342.5,0.6,-30.0,100.0,45.0,10.0,-4.410351726062683,13.987848610973995,-1.0370899457402696,-1.0370899457402698,-5.447441671802952,12.950758665233725
3.5000000000000018,-121.85898880639962,481.66005467207054,1003.4587306040121,342.0,0.6,-30.0,100.0,45.0,10.0,-4.532249250832566,13.948828905662255,-1.0370899457402696,-1.0370899457402698,-5.569339196572836,12.911738959921985
3.600000000000002,-127.54988037941457,494.53171166935454,1003.5548064541235,341.5,0.6,-30.0,100.0,45.0,10.0,-4.653801627274693,13.908746943024259,-1.0370899457402696,-1.0370899457402698,-5.690891573014962,12.871656997283988
3.700000000000002,-133.3619699238598,507.3622274990709,1003.650882304235,341.0,0.6,-30.0,100.0,45.0,10.0,-4.774999598704965,13.86760577545665,-1.0370899457402696,-1.0370899457402698,-5.812089544445234,12.83051582971638
3.800000000000002,-139.2948938050287,520.1505460893493,1003.7469581543464,340.5,0.6,-30.0,100.0,45.0,10.0,-4.895833935428646,13.825408536018617,-1.0370899457402696,-1.0370899457402698,-5.932923881168916,12.788318590278347
3.900000000000002,-145.3482791862121,532.8956145818023,1003.8430340044579,340.0,0.6,-30.0,100.0,45.0,10.0,-5.016295435443152,13.782158438193322,-1.0370899457402696,-1.0370899457402698,-6.053385381183421,12.745068492453052
4.000000000000002,-151.5217440570912,545.5963834117052,1003.9391098545693,339.5,0.6,-30.0,100.0,45.0,10.0,-5.136374925138859,13.737858775643167,-1.0370899457402696,-1.0370899457402698,-6.173464870879128,12.700768829902897
4.100000000000001,-157.81489726282922,558.2518063879239,1004.0351857046808,339.0,0.6,-30.0,100.0,45.0,10.0,-5.256063259997745,13.69251292195896,-1.0370899457402696,-1.0370899457402698,-6.293153205738015,12.65542297621869
4.200000000000001,-164.22733853385918,570.8608407725867,1004.1312615547922,338.5,0.6,-30.0,100.0,45.0,10.0,-5.375351325289693,13.64612433040303,-1.0370899457402696,-1.0370899457402698,-6.412441271029962,12.60903438466276
4.300000000000001,-170.75865851636615,583.4224473604927,1004.2273374049037,338.0,0.6,-30.0,100.0,45.0,10.0,-5.494230036766715,13.598696533646217,-1.0370899457402696,-1.0370899457402698,-6.531319982506984,12.561606587905947
4.4,-177.40843880346108,595.9355905582513,1004.3234132550151,337.5,0.6,-30.0,100.0,45.0,10.0,-5.61269034135466,13.550233143498872,-1.0370899457402696,-1.0370899457402698,-6.649780287094929,12.513143197758602
4.5,-184.17625196704404,608.3992384631468,1004.4194891051266,337.0,0.6,-30.0,100.0,45.0,10.0,-5.730723217842684,13.500737850635794,-1.0370899457402696,-1.0370899457402698,-6.767813163582954,12.463647904895524
4.6,-191.0616615903546,620.8123629417217,1004.515564955238,336.5,0.6,-30.0,100.0,45.0,10.0,-5.848319677570284,13.450214424315153,-1.0370899457402696,-1.0370899457402698,-6.885409623310554,12.413124478574883
4.699999999999999,-198.0642223012066,633.173939708073,1004.6116408053495,336.0,0.6,-30.0,100.0,45.0,10.0,-5.965470765111736,13.398666712091483,-1.0370899457402696,-1.0370899457402698,-7.002560710852006,12.361576766351213
4.799999999999999,-205.18347980590505,645.4829484018554,1004.7077166554609,335.5,0.6,-30.0,100.0,45.0,10.0,-6.082167558958177,13.346098639522635,-1.0370899457402696,-1.0370899457402698,-7.119257504698446,12.309008693782365
4.899999999999999,-212.41897092384224,657.738372665986,1004.8037925055723,335.0,0.6,-30.0,100.0,45.0,10.0,-6.198401172196922,13.29251420987087,-1.0370899457402696,-1.0370899457402698,-7.235491117937192,12.2554242641306
4.999999999999998,-219.77022362277083,669.9392002240437,1004.8998683556838,334.5,0.6,-30.0,100.0,45.0,10.0,-6.31416275318833,13.23791750379796,-1.0370899457402696,-1.0370899457402698,-7.351252698928599,12.20082755805769
5.099999999999998,-227.2367570547509,682.0844229573579,1004.9959442057952,334.0,0.6,-30.0,100.0,45.0,10.0,-6.429443486239808,13.18231267905445,-1.0370899457402696,-1.0370899457402698,-7.4665334319800785,12.14522273331418
5.1999999999999975,-234.81808159276838,694.1730369817807,1005.0920200559067,333.5,0.6,-30.0,100.0,45.0,10.0,-6.544234592277195,13.125703970163038,-1.0370899457402696,-1.0370899457402698,-7.581324538017464,12.088614024422768
5.299999999999997,-242.513698868022,706.2040427241365,1005.1880959060181,333.0,0.6,-30.0,100.0,45.0,10.0,-6.6585273295133565,13.068095688096063,-1.0370899457402696,-1.0370899457402698,-7.6956172752536265,12.031005742355793
5.399999999999997,-250.3231018078761,718.1764449983434,1005.2841717561296,332.5,0.6,-30.0,100.0,45.0,10.0,-6.772312994113827,13.009492219947257,-1.0370899457402696,-1.0370899457402698,-7.809402939854097,11.972402274206987
5.4999999999999964,-258.2457746744761,730.0892530812007,1005.380247606241,332.0,0.6,-30.0,100.0,45.0,10.0,-6.885582920859733,12.949898028597598,-1.0370899457402696,-1.0370899457402698,-7.922672866600003,11.912808082857328
5.599999999999996,-266.28119310402394,741.9414807878359,1005.4763234563525,331.5,0.6,-30.0,100.0,45.0,10.0,-6.998328483807596,12.889317652375492,-1.0370899457402696,-1.0370899457402698,-8.035418429547866,11.852227706635222
5.699999999999996,-274.4288241467105,753.7321465468067,1005.5723993064639,331.0,0.6,-30.0,100.0,45.0,10.0,-7.110541096946286,12.827755704711137,-1.0370899457402696,-1.0370899457402698,-8.147631042686555,11.790665758970867
5.799999999999995,-282.6881263073016,765.4602734748516,1005.6684751565754,330.5,0.6,-30.0,100.0,45.0,10.0,-7.222212214850854,12.765216873785196,-1.0370899457402696,-1.0370899457402698,-8.259302160591124,11.728126928044926
5.899999999999995,-291.0585495863752,777.1248894512831,1005.7645510066868,330.0,0.6,-30.0,100.0,45.0,10.0,-7.333333333333341,12.701705922171767,-1.0370899457402696,-1.0370899457402698,-8.370423279073611,11.664615976431497
5.999999999999995,-299.5395355222058,788.7250271920186,1005.8606268567983,329.5,0.6,-30.0,100.0,45.0,10.0,-7.44389599009034,12.637227686475708,-1.0370899457402696,-1.0370899457402698,-8.48098593583061,11.600137740735438
6.099999999999994,-308.1305172332936,800.2597243232426,1005.9567027069097,329.0,0.6,-30.0,100.0,45.0,10.0,-7.553891765347467,12.571787076964313,-1.0370899457402696,-1.0370899457402698,-8.590981711087737,11.534697131224043
6.199999999999994,-316.83091946153445,811.7280234546957,1006.0527785570212,328.5,0.6,-30.0,100.0,45.0,10.0,-7.663312282500592,12.50538907719335,-1.0370899457402696,-1.0370899457402698,-8.700402228240861,11.46829913145308
6.299999999999994,-325.6401586160284,823.128972252583,1006.1488544071326,328.0,0.6,-30.0,100.0,45.0,10.0,-7.772149208753675,12.438038743627583,-1.0370899457402696,-1.0370899457402698,-8.809239154493945,11.400948797887313
6.399999999999993,-334.55764281752204,834.4616235120984,1006.244930257244,327.5,0.6,-30.0,100.0,45.0,10.0,-7.880394255753424,12.369741205255657,-1.0370899457402696,-1.0370899457402698,-8.917484201493693,11.332651259515387
6.499999999999993,-343.5827719434827,845.7250352295578,1006.3410061073555,327.0,0.6,-30.0,100.0,45.0,10.0,-7.988039180220397,12.300501663199555,-1.0370899457402696,-1.0370899457402698,-9.025129125960667,11.263411717459284
6.5999999999999925,-352.71493767379985,856.918270674136,1006.437081957467,326.5,0.6,-30.0,100.0,45.0,10.0,-8.095075784576858,12.230325390318468,-1.0370899457402696,-1.0370899457402698,-9.132165730317128,11.193235444578198
6.699999999999992,-361.9535235371111,868.0403984592031,1006.5331578075784,326.0,0.6,-30.0,100.0,45.0,10.0,-8.201495917570961,12.159217730807276,-1.0370899457402696,-1.0370899457402698,-9.238585863311231,11.122127785067006
6.799999999999992,-371.2979049577489,879.0904926132523,1006.6292336576898,325.5,0.6,-30.0,100.0,45.0,10.0,-8.30729147489755,12.087184099789566,-1.0370899457402696,-1.0370899457402698,-9.34438142063782,11.050094154049296
6.8999999999999915,-380.74744930330456,890.0676326504173,1006.7253095078013,325.0,0.6,-30.0,100.0,45.0,10.0,-8.41245439981535,12.014229982905212,-1.0370899457402696,-1.0370899457402698,-9.44954434555562,10.977140037164942
6.999999999999991,-390.3015159328053,900.9709036405698,1006.8213853579127,324.5,0.6,-30.0,100.0,45.0,10.0,-8.516976683760449,11.940360935892686,-1.0370899457402696,-1.0370899457402698,-9.554066629500719,10.903270990152416
7.099999999999991,-399.9594562455018,911.7993962789953,1006.9174612080242,324.0,0.6,-30.0,100.0,45.0,10.0,-8.620850366956276,11.865582584165896,-1.0370899457402696,-1.0370899457402698,-9.657940312696546,10.828492638425626
7.19999999999999,-409.72061373026173,922.5522069556409,1007.0135370581356,323.5,0.6,-30.0,100.0,45.0,10.0,-8.724067539019668,11.789900622385861,-1.0370899457402696,-1.0370899457402698,-9.761157484759938,10.752810676645591
7.29999999999999,-419.58432401556536,933.2284378239276,1007.1096129082471,323.0,0.6,-30.0,100.0,45.0,10.0,-8.826620339563377,11.713320814026964,-1.0370899457402696,-1.0370899457402698,-9.863710285303647,10.676230868286694
7.39999999999999,-429.5499149201002,943.8271968691255,1007.2056887583585,322.5,0.6,-30.0,100.0,45.0,10.0,-8.928500958794574,11.635848990938115,-1.0370899457402696,-1.0370899457402698,-9.965590904534844,10.598759045197845
7.499999999999989,-439.6167065039501,954.3475979762839,1007.30176460847,322.0,0.6,-30.0,100.0,45.0,10.0,-9.029701638109653,11.557491052898593,-1.0370899457402696,-1.0370899457402698,-10.066791583849923,10.520401107158323
7.599999999999989,-449.78401112037545,964.7887609977123,1007.3978404585814,321.5,0.6,-30.0,100.0,45.0,10.0,-9.13021467068509,11.478252967168737,-1.0370899457402696,-1.0370899457402698,-10.16730461642536,10.441163021428467
7.699999999999989,-460.05113346818,975.1498118200076,1007.4939163086929,321.0,0.6,-30.0,100.0,45.0,10.0,-9.230032402064278,11.398140768035578,-1.0370899457402696,-1.0370899457402698,-10.267122347804548,10.361050822295308
7.799999999999988,-470.4173706446608,985.4298824306205,1007.5899921588043,320.5,0.6,-30.0,100.0,45.0,10.0,-9.32914723074055,11.31716055635322,-1.0370899457402696,-1.0370899457402698,-10.36623717648082,10.28007061061295
7.899999999999988,-480.882012199137,995.6281109839585,1007.6860680089158,320.0,0.6,-30.0,100.0,45.0,10.0,-9.427551608735914,11.235318499078344,-1.0370899457402696,-1.0370899457402698,-10.464641554476184,10.198228553338074
7.999999999999988,-491.44434018705334,1005.7436418670187,1007.7821438590272,319.5,0.6,-30.0,100.0,45.0,10.0,-9.525238042176035,11.152620828800451,-1.0370899457402696,-1.0370899457402698,-10.562327987916305,10.115530883060181
8.099999999999987,-502.1036292246544,1015.7756257645458,1007.8782197091386,319.0,0.6,-30.0,100.0,45.0,10.0,-9.622199091860782,11.06907384326732,-1.0370899457402696,-1.0370899457402698,-10.659289037601052,10.03198389752705
8.199999999999987,-512.8591465442255,1025.7232197237108,1007.9742955592501,318.5,0.6,-30.0,100.0,45.0,10.0,-9.718427373830822,10.984683904905364,-1.0370899457402696,-1.0370899457402698,-10.755517319571092,9.947593959165093
8.299999999999986,-523.7101520498957,1035.5855872183056,1008.0703714093615,318.0,0.6,-30.0,100.0,45.0,10.0,-9.813915559929926,10.899457440335114,-1.0370899457402696,-1.0370899457402698,-10.851005505670196,9.862367494594844
8.399999999999986,-534.655898373999,1045.3618982124472,1008.166447259473,317.5,0.6,-30.0,100.0,45.0,10.0,-9.90865637836302,10.81340093988182,-1.0370899457402696,-1.0370899457402698,-10.94574632410329,9.77631099414155
8.499999999999986,-545.6956309339893,1055.0513292237881,1008.2625231095844,317.0,0.6,-30.0,100.0,45.0,10.0,-10.00264261424998,10.726520957081169,-1.0370899457402696,-1.0370899457402698,-11.03973255999025,9.689431011340899
8.599999999999985,-556.8285879899046,1064.653063386228,1008.3585989596959,316.5,0.6,-30.0,100.0,45.0,10.0,-10.095867110175064,10.638824108180216,-1.0370899457402696,-1.0370899457402698,-11.132957055915334,9.601734162439946
8.699999999999985,-568.0540007023768,1074.1662905121213,1008.4546748098073,316.0,0.6,-30.0,100.0,45.0,10.0,-10.188322766731964,10.550317071633549,-1.0370899457402696,-1.0370899457402698,-11.225412712472234,9.513227125893279
8.799999999999985,-579.3710931911816,1083.5902071539758,1008.5507506599188,315.5,0.6,-30.0,100.0,45.0,10.0,-10.280002543064485,10.461006587594662,-1.0370899457402696,-1.0370899457402698,-11.317092488804755,9.423916641854392
8.899999999999984,-590.7790825943246,1092.9240166656382,1008.6468265100302,315.0,0.6,-30.0,100.0,45.0,10.0,-10.370899457402702,10.370899457402698,-1.0370899457402696,-1.0370899457402698,-11.407989403142972,9.333809511662428
8.999999999999984,-602.2771791276595,1102.1669292629624,1008.7429023601417,314.5,0.6,-30.0,100.0,45.0,10.0,-10.461006587594667,10.280002543064482,-1.0370899457402696,-1.0370899457402698,-11.498096533334937,9.242912597324212
9.099999999999984,-613.8645861450333,1111.3181620839541,1008.8389782102531,314.0,0.6,-30.0,100.0,45.0,10.0,-10.550317071633552,10.188322766731963,-1.0370899457402696,-1.0370899457402698,-11.587407017373822,9.151232820991693
9.199999999999983,-625.5405001989537,1120.376939248389,1008.9350540603646,313.5,0.6,-30.0,100.0,45.0,10.0,-10.63882410818022,10.095867110175062,-1.0370899457402696,-1.0370899457402698,-11.67591405392049,9.058777164434792
9.299999999999983,-637.3041111017752,1129.3424919168986,1009.031129910476,313.0,0.6,-30.0,100.0,45.0,10.0,-10.72652095708117,10.002642614249979,-1.0370899457402696,-1.0370899457402698,-11.76361090282144,8.965552668509709
9.399999999999983,-649.1546019873973,1138.2140583495213,1009.1272057605875,312.5,0.6,-30.0,100.0,45.0,10.0,-10.813400939881822,9.908656378363018,-1.0370899457402696,-1.0370899457402698,-11.850490885622092,8.871566432622748
9.499999999999982,-661.0911493734727,1146.990883963711,1009.2232816106989,312.0,0.6,-30.0,100.0,45.0,10.0,-10.899457440335118,9.813915559929923,-1.0370899457402696,-1.0370899457402698,-11.936547386075388,8.776825614189653
9.599999999999982,-673.1129232241184,1155.6722213918015,1009.3193574608104,311.5,0.6,-30.0,100.0,45.0,10.0,-10.984683904905365,9.71842737383082,-1.0370899457402696,-1.0370899457402698,-12.021773850645635,8.68133742809055
9.699999999999982,-685.219087013126,1164.257330537922,1009.4154333109218,311.0,0.6,-30.0,100.0,45.0,10.0,-11.069073843267324,9.622199091860777,-1.0370899457402696,-1.0370899457402698,-12.106163789007594,8.585109146120507
9.799999999999981,-697.4087977876667,1172.7454786343576,1009.5115091610332,310.5,0.6,-30.0,100.0,45.0,10.0,-11.152620828800453,9.525238042176031,-1.0370899457402696,-1.0370899457402698,-12.189710774540723,8.488148096435761
9.89999999999998,-709.6812062324854,1181.1359402973533,1009.6075850111447,310.0,0.6,-30.0,100.0,45.0,10.0,-11.235318499078348,9.42755160873591,-1.0370899457402696,-1.0370899457402698,-12.272408444818618,8.39046166299564
9.99999999999998,-722.0354567345788,1189.4279975823536,1009.7036608612561,309.5,0.6,-30.0,100.0,45.0,10.0,-11.31716055635323,9.32914723074054,-1.0370899457402696,-1.0370899457402698,-12.3542505020935,8.29205728500027
10.09999999999998,-734.4706874483546,1197.6209400386776,1009.7997367113676,309.0,0.6,-30.0,100.0,45.0,10.0,-11.398140768035578,9.230032402064282,-1.0370899457402696,-1.0370899457402698,-12.435230713775848,8.192942456324012
10.19999999999998,-746.9860303612636,1205.7140647636224,1009.895812561479,308.5,0.6,-30.0,100.0,45.0,10.0,-11.478252967168746,9.130214670685081,-1.0370899457402696,-1.0370899457402698,-12.515342912909016,8.093124724944811
10.29999999999998,-759.5806113599025,1213.7066764559918,1009.9918884115905,308.0,0.6,-30.0,100.0,45.0,10.0,-11.557491052898595,9.02970163810965,-1.0370899457402696,-1.0370899457402698,-12.594580998638865,7.99261169236938
10.399999999999979,-772.2535502965809,1221.598087469046,1010.0879642617019,307.5,0.6,-30.0,100.0,45.0,10.0,-11.635848990938122,8.928500958794567,-1.0370899457402696,-1.0370899457402698,-12.672938936678392,7.891411013054297
10.499999999999979,-785.0039610563481,1229.387617862869,1010.1840401118134,307.0,0.6,-30.0,100.0,45.0,10.0,-11.713320814026966,8.826620339563373,-1.0370899457402696,-1.0370899457402698,-12.750410759767236,7.789530393823103
10.599999999999978,-797.8309516244742,1237.0745954561485,1010.2801159619248,306.5,0.6,-30.0,100.0,45.0,10.0,-11.78990062238586,8.72406753901967,-1.0370899457402696,-1.0370899457402698,-12.82699056812613,7.6869775932794
10.699999999999978,-810.7336241543803,1244.6583558773646,1010.3761918120363,306.0,0.6,-30.0,100.0,45.0,10.0,-11.865582584165898,8.620850366956272,-1.0370899457402696,-1.0370899457402698,-12.902672529906168,7.583760421216002
10.799999999999978,-823.7110750360133,1252.1382426153848,1010.4722676621477,305.5,0.6,-30.0,100.0,45.0,10.0,-11.940360935892684,8.516976683760452,-1.0370899457402696,-1.0370899457402698,-12.977450881632954,7.479886738020182
10.899999999999977,-836.7623949646588,1259.5136070694598,1010.5683435122592,305.0,0.6,-30.0,100.0,45.0,10.0,-12.014229982905219,8.41245439981534,-1.0370899457402696,-1.0370899457402698,-13.051319928645489,7.37536445407507
10.999999999999977,-849.8866690101886,1266.783808598617,1010.6644193623706,304.5,0.6,-30.0,100.0,45.0,10.0,-12.087184099789567,8.307291474897546,-1.0370899457402696,-1.0370899457402698,-13.124274045529837,7.270201529157276
11.099999999999977,-863.0829766867362,1273.9482145704478,1010.760495212482,304.0,0.6,-30.0,100.0,45.0,10.0,-12.159217730807283,8.201495917570954,-1.0370899457402696,-1.0370899457402698,-13.196307676547553,7.164405971830684
11.199999999999976,-876.350392022795,1281.0062004092845,1010.8565710625935,303.5,0.6,-30.0,100.0,45.0,10.0,-12.23032539031847,8.095075784576855,-1.0370899457402696,-1.0370899457402698,-13.26741533605874,7.057985838836585
11.299999999999976,-889.6879836317348,1287.9571496437645,1010.952646912705,303.0,0.6,-30.0,100.0,45.0,10.0,-12.300501663199555,7.988039180220399,-1.0370899457402696,-1.0370899457402698,-13.337591608939825,6.950949234480129
11.399999999999975,-903.0948147827307,1294.8004539537776,1011.0487227628164,302.5,0.6,-30.0,100.0,45.0,10.0,-12.369741205255657,7.880394255753418,-1.0370899457402696,-1.0370899457402698,-13.406831150995927,6.843304310013148
11.499999999999975,-916.5699434720985,1301.535513216791,1011.1447986129278,302.0,0.6,-30.0,100.0,45.0,10.0,-12.438038743627585,7.772149208753672,-1.0370899457402696,-1.0370899457402698,-13.475128689367855,6.735059263013402
11.599999999999975,-930.1124224950322,1308.1617355535514,1011.2408744630393,301.5,0.6,-30.0,100.0,45.0,10.0,-12.505389077193357,7.663312282500582,-1.0370899457402696,-1.0370899457402698,-13.542479022933627,6.626222336760312
11.699999999999974,-943.7212995177368,1314.6785373731586,1011.3369503131507,301.0,0.6,-30.0,100.0,45.0,10.0,-12.571787076964316,7.553891765347463,-1.0370899457402696,-1.0370899457402698,-13.608877022704586,6.516801819607193
11.799999999999974,-957.3956171499528,1321.0853434175087,1011.4330261632622,300.5,0.6,-30.0,100.0,45.0,10.0,-12.637227686475713,7.44389599009033,-1.0370899457402696,-1.0370899457402698,-13.674317632215983,6.40680604435006
11.899999999999974,-971.1344130178649,1327.3815868051017,1011.5291020133736,300.0,0.6,-30.0,100.0,45.0,10.0,-12.701705922171769,7.333333333333337,-1.0370899457402696,-1.0370899457402698,-13.738795867912039,6.296243387593067
11.999999999999973,-984.9367198373903,1333.5667090742122,1011.6251778634851,299.5,0.6,-30.0,100.0,45.0,10.0,-12.765216873785196,7.222212214850855,-1.0370899457402696,-1.0370899457402698,-13.802306819525466,6.185122269110585
12.099999999999973,-998.8015654878418,1339.6401602254182,1011.7212537135965,299.0,0.6,-30.0,100.0,45.0,10.0,-12.827755704711139,7.110541096946283,-1.0370899457402696,-1.0370899457402698,-13.864845650451409,6.0734511512060125
12.199999999999973,-1012.7279730859575,1345.6013987634856,1011.817329563708,298.5,0.6,-30.0,100.0,45.0,10.0,-12.889317652375494,6.998328483807591,-1.0370899457402696,-1.0370899457402698,-13.926407598115764,5.961238538067321
12.299999999999972,-1026.7149610602953,1351.449891738605,1011.9134054138194,298.0,0.6,-30.0,100.0,45.0,10.0,-12.9498980285976,6.885582920859728,-1.0370899457402696,-1.0370899457402698,-13.98698797433787,5.848492975119458
12.399999999999972,-1040.761543225983,1357.1851147869786,1012.0094812639309,297.5,0.6,-30.0,100.0,45.0,10.0,-13.009492219947257,6.77231299411383,-1.0370899457402696,-1.0370899457402698,-14.046582165687527,5.73522304837356
12.499999999999972,-1054.8667288598192,1362.8065521707517,1012.1055571140423,297.0,0.6,-30.0,100.0,45.0,10.0,-13.068095688096069,6.658527329513347,-1.0370899457402696,-1.0370899457402698,-14.105185633836339,5.621437383773077
12.599999999999971,-1069.0295227757224,1368.3136968172887,1012.2016329641538,296.5,0.6,-30.0,100.0,45.0,10.0,-13.12570397016304,6.544234592277191,-1.0370899457402696,-1.0370899457402698,-14.16279391590331,5.507144646536921
12.69999999999997,-1083.248925400517,1373.7060503577882,1012.2977088142652,296.0,0.6,-30.0,100.0,45.0,10.0,-13.182312679054455,6.429443486239799,-1.0370899457402696,-1.0370899457402698,-14.219402624794725,5.392353540499529
12.79999999999997,-1097.5239328500552,1378.9831231652363,1012.3937846643767,295.5,0.6,-30.0,100.0,45.0,10.0,-13.237917503797961,6.314162753188326,-1.0370899457402696,-1.0370899457402698,-14.275007449538231,5.277072807448056
12.89999999999997,-1111.8535370056663,1384.144434391693,1012.4898605144881,295.0,0.6,-30.0,100.0,45.0,10.0,-13.29251420987087,6.198401172196924,-1.0370899457402696,-1.0370899457402698,-14.32960415561114,5.161311226456654
12.99999999999997,-1126.2367255909292,1389.189512004911,1012.5859363645995,294.5,0.6,-30.0,100.0,45.0,10.0,-13.346098639522637,6.082167558958173,-1.0370899457402696,-1.0370899457402698,-14.383188585262907,5.045077613217903
13.09999999999997,-1140.6724822487608,1394.1178928242825,1012.682012214711,294.0,0.6,-30.0,100.0,45.0,10.0,-13.398666712091485,5.965470765111732,-1.0370899457402696,-1.0370899457402698,-14.435756657831755,4.928380819371462
13.199999999999969,-1155.1597866188163,1398.9291225561126,1012.7780880648224,293.5,0.6,-30.0,100.0,45.0,10.0,-13.450214424315156,5.848319677570275,-1.0370899457402696,-1.0370899457402698,-14.487304370055426,4.811229731830005
13.299999999999969,-1169.6976144151922,1403.622755828215,1012.8741639149339,293.0,0.6,-30.0,100.0,45.0,10.0,-13.500737850635796,5.73072321784268,-1.0370899457402696,-1.0370899457402698,-14.537827796376066,4.69363327210241
13.399999999999968,-1184.2849375044314,1408.1983562238295,1012.9702397650453,292.5,0.6,-30.0,100.0,45.0,10.0,-13.550233143498877,5.61269034135465,-1.0370899457402696,-1.0370899457402698,-14.587323089239147,4.57560039561438
13.499999999999968,-1198.9207239838179,1412.655496314856,1013.0663156151568,292.0,0.6,-30.0,100.0,45.0,10.0,-13.598696533646219,5.4942300367667105,-1.0370899457402696,-1.0370899457402698,-14.63578647938649,4.4571400910264405
13.599999999999968,-1213.603938259961,1416.9937576944055,1013.1623914652682,291.5,0.6,-30.0,100.0,45.0,10.0,-13.646124330403028,5.375351325289696,-1.0370899457402696,-1.0370899457402698,-14.683214276143298,4.338261379549426
13.699999999999967,-1228.3335411276603,1421.212731008663,1013.2584673153797,291.0,0.6,-30.0,100.0,45.0,10.0,-13.692512921958961,5.256063259997741,-1.0370899457402696,-1.0370899457402698,-14.729602867699231,4.218973314257471
13.799999999999967,-1243.1084898490437,1425.3120159880616,1013.3545431654911,290.5,0.6,-30.0,100.0,45.0,10.0,-13.737858775643168,5.136374925138854,-1.0370899457402696,-1.0370899457402698,-14.774948721383439,4.099284979398584
13.899999999999967,-1257.9277382329774,1429.2912214777646,1013.4506190156026,290.0,0.6,-30.0,100.0,45.0,10.0,-13.782158438193326,5.0162954354431415,-1.0370899457402696,-1.0370899457402698,-14.819248383933596,3.9792054897028715
13.999999999999966,-1272.7902367147362,1433.149965467453,1013.546694865714,289.5,0.6,-30.0,100.0,45.0,10.0,-13.82540853601862,4.895833935428642,-1.0370899457402696,-1.0370899457402698,-14.86249848175889,3.8587439896883717
14.099999999999966,-1287.6949324359332,1436.8878751204177,1013.6427707158255,289.0,0.6,-30.0,100.0,45.0,10.0,-13.867605775456648,4.774999598704967,-1.0370899457402696,-1.0370899457402698,-14.904695721196918,3.7379096529646967
14.199999999999966,-1302.6407693246977,1440.5045868019522,1013.7388465659369,288.5,0.6,-30.0,100.0,45.0,10.0,-13.908746943024259,4.653801627274688,-1.0370899457402696,-1.0370899457402698,-14.945836888764529,3.616711681534418
14.299999999999965,-1317.6266881761003,1443.9997461070445,1013.8349224160484,288.0,0.6,-30.0,100.0,45.0,10.0,-13.948828905662255,4.532249250832567,-1.0370899457402696,-1.0370899457402698,-14.985918851402525,3.4951593050922973
14.399999999999965,-1332.6516267328145,1447.3730078873668,1013.9309982661598,287.5,0.6,-30.0,100.0,45.0,10.0,-13.987848610973998,4.410351726062673,-1.0370899457402696,-1.0370899457402698,-15.024938556714268,3.3732617803224025
14.499999999999964,-1347.7145197660127,1450.62403627756,1014.0270741162713,287.0,0.6,-30.0,100.0,45.0,10.0,-14.025803087457856,4.288118335933474,-1.0370899457402696,-1.0370899457402698,-15.062893033198126,3.2510283901932038
14.599999999999964,-1362.8142991564864,1453.7525047208105,1014.1231499663827,286.5,0.6,-30.0,100.0,45.0,10.0,-14.062689444733502,4.1655583889908625,-1.0370899457402696,-1.0370899457402698,-15.099779390473772,3.1284684432505925
14.699999999999964,-1377.9498939759887,1456.7580959937195,1014.2192258164941,286.0,0.6,-30.0,100.0,45.0,10.0,-14.098504873762016,4.042681218649314,-1.0370899457402696,-1.0370899457402698,-15.135594819502286,3.0055912729090437
14.799999999999963,-1393.1202305687889,1459.6405022304602,1014.3153016666056,285.5,0.6,-30.0,100.0,45.0,10.0,-14.13324664705981,3.919496182481094,-1.0370899457402696,-1.0370899457402698,-15.17033659280008,2.882406236740824
14.899999999999963,-1408.3242326334355,1462.3994249462237,1014.411377516717,285.0,0.6,-30.0,100.0,45.0,10.0,-14.166912118906339,3.7960126615036325,-1.0370899457402696,-1.0370899457402698,-15.204002064646609,2.7589227157633625
14.999999999999963,-1423.5608213047212,1465.0345750599486,1014.5074533668285,284.5,0.6,-30.0,100.0,45.0,10.0,-14.199498725545585,3.672240059465137,-1.0370899457402696,-1.0370899457402698,-15.236588671285855,2.635150113724867
15.099999999999962,-1438.8289152358427,1467.5456729163368,1014.6035292169399,284.0,0.6,-30.0,100.0,45.0,10.0,-14.231003985381285,3.5481878021284574,-1.0370899457402696,-1.0370899457402698,-15.268093931121555,2.5110978563881874
15.199999999999962,-1454.1274306807488,1469.9324483071498,1014.6996050670514,283.5,0.6,-30.0,100.0,45.0,10.0,-14.261425499165927,3.4238653365532783,-1.0370899457402696,-1.0370899457402698,-15.298515444906197,2.3867753908130087
15.299999999999962,-1469.4552815766726,1472.1946404917862,1014.7956809171628,283.0,0.6,-30.0,100.0,45.0,10.0,-14.290760950183452,3.299282130376687,-1.0370899457402696,-1.0370899457402698,-15.327850895923723,2.262192184636417
15.399999999999961,-1484.8113796268385,1474.331998217138,1014.8917567672743,282.5,0.6,-30.0,100.0,45.0,10.0,-14.319008104425693,3.174447671092171,-1.0370899457402696,-1.0370899457402698,-15.356098050165963,2.137357725351901
15.499999999999961,-1500.1946343833413,1476.344279736725,1014.9878326173857,282.0,0.6,-30.0,100.0,45.0,10.0,-14.346164810762486,3.0493714653271335,-1.0370899457402696,-1.0370899457402698,-15.383254756502756,2.012281519586864
15.59999999999996,-1515.603953330187,1478.2312528291036,1015.0839084674972,281.5,0.6,-30.0,100.0,45.0,10.0,-14.372229001105506,2.9240630381188897,-1.0370899457402696,-1.0370899457402698,-15.409318946845776,1.8869730923786199
15.69999999999996,-1531.0382419664932,1479.9926948155526,1015.1799843176086,281.0,0.6,-30.0,100.0,45.0,10.0,-14.397198690565741,2.798531932189323,-1.0370899457402696,-1.0370899457402698,-15.434288636306011,1.7614419864490534
15.79999999999996,-1546.4964038898381,1481.6283925770306,1015.2760601677201,280.5,0.6,-30.0,100.0,45.0,10.0,-14.42107197760467,2.6727877072181636,-1.0370899457402696,-1.0370899457402698,-15.45816192334494,1.6356977614778938
15.89999999999996,-1561.9773408797575,1483.1381425704053,1015.3721360178315,280.0,0.6,-30.0,100.0,45.0,10.0,-14.443847044179053,2.5468399391149807,-1.0370899457402696,-1.0370899457402698,-15.480936989919323,1.509749993374711
15.99999999999996,-1577.4799529813772,1484.521750843955,1015.468211867943,279.5,0.6,-30.0,100.0,45.0,10.0,-14.465522155879396,2.4206982192899362,-1.0370899457402696,-1.0370899457402698,-15.502612101619667,1.3836082735496664
16.09999999999996,-1593.0031385891796,1485.7790330521382,1015.5642877180544,279.0,0.6,-30.0,100.0,45.0,10.0,-14.486095662062024,2.2943721539233843,-1.0370899457402696,-1.0370899457402698,-15.523185607802294,1.2572822081831145
16.19999999999996,-1608.5457945308947,1486.9098144696322,1015.6603635681658,278.5,0.6,-30.0,100.0,45.0,10.0,-14.505565995974782,2.167871363234289,-1.0370899457402696,-1.0370899457402698,-15.542655941715052,1.1307814174940194
16.29999999999996,-1624.1068161515113,1487.9139300046395,1015.7564394182773,278.0,0.6,-30.0,100.0,45.0,10.0,-14.523931674876367,2.041205480747628,-1.0370899457402696,-1.0370899457402698,-15.561021620616637,1.0041155350073583
16.399999999999963,-1639.6850973974008,1488.79122421146,1015.8525152683887,277.5,0.6,-30.0,100.0,45.0,10.0,-14.541191300149222,1.9143841525607597,-1.0370899457402696,-1.0370899457402698,-15.578281245889492,0.8772942068204899
16.499999999999964,-1655.2795309005471,1489.5415513023286,1015.9485911185002,277.0,0.6,-30.0,100.0,45.0,10.0,-14.557343557406059,1.787417036608834,-1.0370899457402696,-1.0370899457402698,-15.594433503146329,0.7503270908685642
16.599999999999966,-1670.8890080628773,1490.1647751585176,1016.0446669686116,276.5,0.6,-30.0,100.0,45.0,10.0,-14.572387216589952,1.6603138019293042,-1.0370899457402696,-1.0370899457402698,-15.609477162330222,0.6232238561890344
16.699999999999967,-1686.5124191406856,1490.660769340703,1016.1407428187231,276.0,0.6,-30.0,100.0,45.0,10.0,-14.586321132068012,1.533084127925585,-1.0370899457402696,-1.0370899457402698,-15.623411077808282,0.4959941821853151
16.79999999999997,-1702.1486533291445,1491.0294170985926,1016.2368186688345,275.5,0.6,-30.0,100.0,45.0,10.0,-14.599144242718626,1.4057377036299474,-1.0370899457402696,-1.0370899457402698,-15.636234188458896,0.36864775788967763
16.89999999999997,-1717.796598846897,1491.270611379818,1016.332894518946,275.0,0.6,-30.0,100.0,45.0,10.0,-14.610855572012271,1.27828422696565,-1.0370899457402696,-1.0370899457402698,-15.647945517752541,0.24119428122538022
16.99999999999997,-1733.4551430207232,1491.3842548380862,1016.4289703690574,274.5,0.6,-30.0,100.0,45.0,10.0,-14.62145422808588,1.1507334040083843,-1.0370899457402696,-1.0370899457402698,-15.65854417382615,0.1136434582681145
17.099999999999973,-1749.1231723702742,1491.3702598405932,1016.5250462191689,274.0,0.6,-30.0,100.0,45.0,10.0,-14.630939403810759,1.0230949482471643,-1.0370899457402696,-1.0370899457402698,-15.668029349551029,-0.01399499749310551
17.199999999999974,-1764.7995726928687,1491.2285484746976,1016.6211220692803,273.5,0.6,-30.0,100.0,45.0,10.0,-14.639310376854052,0.8953785798445622,-1.0370899457402696,-1.0370899457402698,-15.676400322594322,-0.14171136589570765
17.299999999999976,-1780.4832291483426,1490.9590525538538,1016.7171979193918,273.0,0.6,-30.0,100.0,45.0,10.0,-14.646566509733752,0.7675940248965057,-1.0370899457402696,-1.0370899457402698,-15.683656455474022,-0.26949592084376406
17.399999999999977,-1796.1730263439501,1490.5617136228052,1016.8132737695032,272.5,0.6,-30.0,100.0,45.0,10.0,-14.65270724986725,0.6397510146915922,-1.0370899457402696,-1.0370899457402698,-15.68979719560752,-0.39733893104867757
17.49999999999998,-1811.8678484193038,1490.036482962035,1016.9093496196147,272.0,0.6,-30.0,100.0,45.0,10.0,-14.657732129613407,0.5118592849700133,-1.0370899457402696,-1.0370899457402698,-15.694822075353677,-0.5252306607702565
17.59999999999998,-1827.5665791313522,1489.383321591477,1017.0054254697261,271.5,0.6,-30.0,100.0,45.0,10.0,-14.661640766308176,0.38392857518213347,-1.0370899457402696,-1.0370899457402698,-15.698730712048446,-0.6531613705581363
17.69999999999998,-1843.2681019393863,1488.6022002734835,1017.1015013198376,271.0,0.6,-30.0,100.0,45.0,10.0,-14.664432862293742,0.2559686277468202,-1.0370899457402696,-1.0370899457402698,-15.701522808034012,-0.7811213179934495
17.799999999999983,-1858.9713000900676,1487.6930995150526,1017.197577169949,270.5,0.6,-30.0,100.0,45.0,10.0,-14.666108204941182,0.12798918730948114,-1.0370899457402696,-1.0370899457402698,-15.703198150681452,-0.9091007584307886
17.899999999999984,-1874.6750567024746,1486.6560095693123,1017.2936530200604,270.0,0.6,-30.0,100.0,45.0,10.0,-14.66666666666667,-1.7961486387494516E-15,-1.0370899457402696,-1.0370899457402698,-15.70375661240694,-1.0370899457402716
17.999999999999986,-1890.378254853156,1485.4909304362625,1017.3897288701719,269.5,0.6,-30.0,100.0,45.0,10.0,-14.666108204941182,-0.12798918730948475,-1.0370899457402696,-1.0370899457402698,-15.703198150681452,-1.1650791330497545
18.099999999999987,-1906.07977766119,1484.1978718627754,1017.4858047202833,269.0,0.6,-30.0,100.0,45.0,10.0,-14.664432862293742,-0.25596862774682383,-1.0370899457402696,-1.0370899457402698,-15.701522808034012,-1.2930585734870936
18.19999999999999,-1921.7785083732385,1482.776853341853,1017.5818805703948,268.5,0.6,-30.0,100.0,45.0,10.0,-14.661640766308176,-0.3839285751821371,-1.0370899457402696,-1.0370899457402698,-15.698730712048446,-1.4210185209224069
18.29999999999999,-1937.4733304485922,1481.2279041111426,1017.6779564205062,268.0,0.6,-30.0,100.0,45.0,10.0,-14.657732129613407,-0.5118592849700169,-1.0370899457402696,-1.0370899457402698,-15.694822075353677,-1.5489492307102868
18.39999999999999,-1953.1631276441997,1479.5510631507107,1017.7740322706177,267.5,0.6,-30.0,100.0,45.0,10.0,-14.65270724986725,-0.6397510146915958,-1.0370899457402696,-1.0370899457402698,-15.68979719560752,-1.6768409604318655
18.499999999999993,-1968.8467840996736,1477.746379180074,1017.8701081207291,267.0,0.6,-30.0,100.0,45.0,10.0,-14.646566509733752,-0.7675940248965158,-1.0370899457402696,-1.0370899457402698,-15.683656455474022,-1.8046839706367857
18.599999999999994,-1984.523184422268,1475.813910654489,1017.9661839708406,266.5,0.6,-30.0,100.0,45.0,10.0,-14.63931037685405,-0.8953785798445724,-1.0370899457402696,-1.0370899457402698,-15.67640032259432,-1.9324685255848422
18.699999999999996,-2000.191213771819,1473.7537257605015,1018.062259820952,266.0,0.6,-30.0,100.0,45.0,10.0,-14.630939403810757,-1.0230949482471745,-1.0370899457402696,-1.0370899457402698,-15.668029349551027,-2.0601848939874445
18.799999999999997,-2015.8497579456453,1471.5659024107529,1018.1583356710635,265.5,0.6,-30.0,100.0,45.0,10.0,-14.621454228085879,-1.1507334040083945,-1.0370899457402696,-1.0370899457402698,-15.658544173826149,-2.1878233497486645
18.9,-2031.4977034633978,1469.2505282380469,1018.2544115211749,265.0,0.6,-30.0,100.0,45.0,10.0,-14.610855572012271,-1.2782842269656538,-1.0370899457402696,-1.0370899457402698,-15.647945517752541,-2.3153741727059236
19.0,-2047.1339376518567,1466.8077005886767,1018.3504873712864,264.5,0.6,-30.0,100.0,45.0,10.0,-14.599144242718626,-1.405737703629951,-1.0370899457402696,-1.0370899457402698,-15.636234188458896,-2.442827649370221
19.1,-2062.757348729665,1464.2375265150108,1018.4465632213978,264.0,0.6,-30.0,100.0,45.0,10.0,-14.586321132068012,-1.5330841279255885,-1.0370899457402696,-1.0370899457402698,-15.623411077808282,-2.570174073665858
19.200000000000003,-2078.366825891995,1461.5401227673412,1018.5426390715093,263.5,0.6,-30.0,100.0,45.0,10.0,-14.572387216589952,-1.6603138019293013,-1.0370899457402696,-1.0370899457402698,-15.609477162330222,-2.697403747669571
19.300000000000004,-2093.9612593951415,1458.7156157849922,1018.6387149216207,263.0,0.6,-30.0,100.0,45.0,10.0,-14.557343557406059,-1.7874170366088311,-1.0370899457402696,-1.0370899457402698,-15.594433503146329,-2.824506982349101
19.400000000000006,-2109.539540641031,1455.7641416866911,1018.7347907717322,262.5,0.6,-30.0,100.0,45.0,10.0,-14.541191300149222,-1.9143841525607568,-1.0370899457402696,-1.0370899457402698,-15.578281245889492,-2.9514740983010266
19.500000000000007,-2125.1005622616476,1452.6858462602033,1018.8308666218436,262.0,0.6,-30.0,100.0,45.0,10.0,-14.523931674876367,-2.0412054807476254,-1.0370899457402696,-1.0370899457402698,-15.561021620616637,-3.0782954264878954
19.60000000000001,-2140.6432182033627,1449.4808849512287,1018.926942471955,261.5,0.6,-30.0,100.0,45.0,10.0,-14.505565995974782,-2.1678713632342923,-1.0370899457402696,-1.0370899457402698,-15.542655941715052,-3.2049613089745623
19.70000000000001,-2156.166403811165,1446.149422851565,1019.0230183220665,261.0,0.6,-30.0,100.0,45.0,10.0,-14.486095662062022,-2.2943721539233883,-1.0370899457402696,-1.0370899457402698,-15.523185607802292,-3.331462099663658
19.80000000000001,-2171.6690159127843,1442.6916346865348,1019.1190941721779,260.5,0.6,-30.0,100.0,45.0,10.0,-14.465522155879396,-2.4206982192899393,-1.0370899457402696,-1.0370899457402698,-15.502612101619667,-3.457788165030209
19.900000000000013,-2187.1499529027037,1439.1077048016796,1019.2151700222894,260.0,0.6,-30.0,100.0,45.0,10.0,-14.443847044179053,-2.5468399391149843,-1.0370899457402696,-1.0370899457402698,-15.480936989919323,-3.5839298848552543
20.000000000000014,-2202.6081148260487,1435.397827148721,1019.3112458724008,259.5,0.6,-30.0,100.0,45.0,10.0,-14.421071977604669,-2.672787707218167,-1.0370899457402696,-1.0370899457402698,-15.458161923344939,-3.709877652958437
20.100000000000016,-2218.0424034623547,1431.5622052707915,1019.4073217225123,259.0,0.6,-30.0,100.0,45.0,10.0,-14.397198690565741,-2.7985319321893267,-1.0370899457402696,-1.0370899457402698,-15.434288636306011,-3.8356218779295963
20.200000000000017,-2233.4517224092006,1427.6010522869324,1019.5033975726237,258.5,0.6,-30.0,100.0,45.0,10.0,-14.372229001105504,-2.9240630381188937,-1.0370899457402696,-1.0370899457402698,-15.409318946845774,-3.9611529838591633
20.30000000000002,-2248.834977165703,1423.514590875865,1019.5994734227352,258.0,0.6,-30.0,100.0,45.0,10.0,-14.346164810762486,-3.049371465327137,-1.0370899457402696,-1.0370899457402698,-15.383254756502756,-4.086461411067407
20.40000000000002,-2264.191075215869,1419.3030532590326,1019.6955492728466,257.5,0.6,-30.0,100.0,45.0,10.0,-14.319008104425691,-3.174447671092174,-1.0370899457402696,-1.0370899457402698,-15.356098050165961,-4.211537616832444
20.50000000000002,-2279.518926111793,1414.9666811829156,1019.7916251229581,257.0,0.6,-30.0,100.0,45.0,10.0,-14.29076095018345,-3.29928213037669,-1.0370899457402696,-1.0370899457402698,-15.32785089592372,-4.33637207611696
20.600000000000023,-2294.817441556699,1410.505725900622,1019.8877009730695,256.5,0.6,-30.0,100.0,45.0,10.0,-14.261425499165926,-3.423865336553282,-1.0370899457402696,-1.0370899457402698,-15.298515444906196,-4.460955282293551
20.700000000000024,-2310.085535487821,1405.9204481527534,1019.983776823181,256.0,0.6,-30.0,100.0,45.0,10.0,-14.231003985381285,-3.548187802128461,-1.0370899457402696,-1.0370899457402698,-15.268093931121555,-4.585277747868731
20.800000000000026,-2325.322124159107,1401.211118147548,1020.0798526732924,255.5,0.6,-30.0,100.0,45.0,10.0,-14.199498725545581,-3.672240059465147,-1.0370899457402696,-1.0370899457402698,-15.236588671285851,-4.709330005205417
20.900000000000027,-2340.526126223753,1396.378015540304,1020.1759285234039,255.0,0.6,-30.0,100.0,45.0,10.0,-14.166912118906337,-3.7960126615036422,-1.0370899457402696,-1.0370899457402698,-15.204002064646607,-4.833102607243912
21.00000000000003,-2355.6964628165533,1391.4214294120827,1020.2720043735153,254.5,0.6,-30.0,100.0,45.0,10.0,-14.133246647059806,-3.9194961824811037,-1.0370899457402696,-1.0370899457402698,-15.170336592800076,-4.956586128221374
21.10000000000003,-2370.8320576360557,1386.3416582476932,1020.3680802236267,254.0,0.6,-30.0,100.0,45.0,10.0,-14.098504873762014,-4.042681218649323,-1.0370899457402696,-1.0370899457402698,-15.135594819502284,-5.079771164389593
21.20000000000003,-2385.9318370265296,1381.1390099129621,1020.4641560737382,253.5,0.6,-30.0,100.0,45.0,10.0,-14.0626894447335,-4.165558388990865,-1.0370899457402696,-1.0370899457402698,-15.09977939047377,-5.202648334731135
21.300000000000033,-2400.9947300597278,1375.8138016312885,1020.5602319238496,253.0,0.6,-30.0,100.0,45.0,10.0,-14.025803087457856,-4.288118335933477,-1.0370899457402696,-1.0370899457402698,-15.062893033198126,-5.325208281673747
21.400000000000034,-2416.0196686164422,1370.3663599594856,1020.6563077739611,252.5,0.6,-30.0,100.0,45.0,10.0,-13.987848610973996,-4.410351726062677,-1.0370899457402696,-1.0370899457402698,-15.024938556714266,-5.447441671802947
21.500000000000036,-2431.0055874678446,1364.7970207629128,1020.7523836240725,252.0,0.6,-30.0,100.0,45.0,10.0,-13.948828905662255,-4.532249250832565,-1.0370899457402696,-1.0370899457402698,-14.985918851402525,-5.569339196572835
21.600000000000037,-2445.951424356609,1359.1061291898977,1020.848459474184,251.5,0.6,-30.0,100.0,45.0,10.0,-13.90874694302426,-4.653801627274686,-1.0370899457402696,-1.0370899457402698,-14.94583688876453,-5.690891573014956
21.70000000000004,-2460.856120077806,1353.2940396454526,1020.9445353242954,251.0,0.6,-30.0,100.0,45.0,10.0,-13.86760577545665,-4.774999598704964,-1.0370899457402696,-1.0370899457402698,-14.90469572119692,-5.812089544445234
21.80000000000004,-2475.7186185595647,1347.3611157642838,1021.0406111744069,250.5,0.6,-30.0,100.0,45.0,10.0,-13.82540853601862,-4.895833935428638,-1.0370899457402696,-1.0370899457402698,-14.86249848175889,-5.932923881168908
21.90000000000004,-2490.537866943498,1341.3077303831003,1021.1366870245183,250.0,0.6,-30.0,100.0,45.0,10.0,-13.782158438193324,-5.016295435443144,-1.0370899457402696,-1.0370899457402698,-14.819248383933594,-6.053385381183414
22.000000000000043,-2505.3128156648813,1335.1342655122212,1021.2327628746298,249.5,0.6,-30.0,100.0,45.0,10.0,-13.737858775643167,-5.136374925138858,-1.0370899457402696,-1.0370899457402698,-14.774948721383437,-6.173464870879128
22.100000000000044,-2520.0424185325805,1328.8411123064832,1021.3288387247412,249.0,0.6,-30.0,100.0,45.0,10.0,-13.69251292195896,-5.256063259997744,-1.0370899457402696,-1.0370899457402698,-14.72960286769923,-6.293153205738014
22.200000000000045,-2534.7256328087237,1322.4286710354531,1021.4249145748527,248.5,0.6,-30.0,100.0,45.0,10.0,-13.646124330403028,-5.3753513252896985,-1.0370899457402696,-1.0370899457402698,-14.683214276143298,-6.4124412710299685
22.300000000000047,-2549.36141928811,1315.897351052946,1021.5209904249641,248.0,0.6,-30.0,100.0,45.0,10.0,-13.598696533646217,-5.494230036766714,-1.0370899457402696,-1.0370899457402698,-14.635786479386487,-6.531319982506984
22.40000000000005,-2563.9487423773494,1309.2475707658512,1021.6170662750756,247.5,0.6,-30.0,100.0,45.0,10.0,-13.550233143498875,-5.612690341354653,-1.0370899457402696,-1.0370899457402698,-14.587323089239145,-6.649780287094923
22.50000000000005,-2578.4865701737253,1302.4797576022681,1021.713142125187,247.0,0.6,-30.0,100.0,45.0,10.0,-13.500737850635796,-5.730723217842683,-1.0370899457402696,-1.0370899457402698,-14.537827796376066,-6.767813163582953
22.60000000000005,-2592.9738745437808,1295.5943479789576,1021.8092179752985,246.5,0.6,-30.0,100.0,45.0,10.0,-13.450214424315156,-5.848319677570278,-1.0370899457402696,-1.0370899457402698,-14.487304370055426,-6.885409623310548
22.700000000000053,-2607.4096312016127,1288.5917872681055,1021.9052938254099,246.0,0.6,-30.0,100.0,45.0,10.0,-13.398666712091483,-5.965470765111736,-1.0370899457402696,-1.0370899457402698,-14.435756657831753,-7.002560710852006
22.800000000000054,-2621.7928197868755,1281.472529763407,1022.0013696755213,245.5,0.6,-30.0,100.0,45.0,10.0,-13.346098639522635,-6.082167558958176,-1.0370899457402696,-1.0370899457402698,-14.383188585262905,-7.119257504698446
22.900000000000055,-2636.1224239424864,1274.2370386454697,1022.0974455256328,245.0,0.6,-30.0,100.0,45.0,10.0,-13.292514209870868,-6.198401172196927,-1.0370899457402696,-1.0370899457402698,-14.329604155611138,-7.2354911179371975
23.000000000000057,-2650.397431392025,1266.885785946541,1022.1935213757442,244.5,0.6,-30.0,100.0,45.0,10.0,-13.237917503797956,-6.314162753188335,-1.0370899457402696,-1.0370899457402698,-14.275007449538226,-7.351252698928605
23.10000000000006,-2664.6168340168197,1259.419252514561,1022.2895972258557,244.0,0.6,-30.0,100.0,45.0,10.0,-13.18231267905445,-6.4294434862398075,-1.0370899457402696,-1.0370899457402698,-14.21940262479472,-7.466533431980078
23.20000000000006,-2678.779627932723,1251.8379279765436,1022.3856730759671,243.5,0.6,-30.0,100.0,45.0,10.0,-13.125703970163036,-6.5442345922772,-1.0370899457402696,-1.0370899457402698,-14.162793915903306,-7.58132453801747
23.30000000000006,-2692.8848135665594,1244.14231070129,1022.4817489260786,243.0,0.6,-30.0,100.0,45.0,10.0,-13.068095688096063,-6.658527329513356,-1.0370899457402696,-1.0370899457402698,-14.105185633836333,-7.695617275253626
23.400000000000063,-2706.931395732247,1236.3329077614358,1022.57782477619,242.5,0.6,-30.0,100.0,45.0,10.0,-13.009492219947255,-6.7723129941138325,-1.0370899457402696,-1.0370899457402698,-14.046582165687525,-7.8094029398541025
23.500000000000064,-2720.918383706585,1228.4102348948359,1022.6739006263015,242.0,0.6,-30.0,100.0,45.0,10.0,-12.949898028597598,-6.885582920859732,-1.0370899457402696,-1.0370899457402698,-13.986987974337868,-7.922672866600002
23.600000000000065,-2734.8447913047007,1220.374816465288,1022.7699764764129,241.5,0.6,-30.0,100.0,45.0,10.0,-12.889317652375492,-6.998328483807595,-1.0370899457402696,-1.0370899457402698,-13.926407598115762,-8.035418429547864
23.700000000000067,-2748.7096369551523,1212.2271854226015,1022.8660523265244,241.0,0.6,-30.0,100.0,45.0,10.0,-12.82775570471114,-7.11054109694628,-1.0370899457402696,-1.0370899457402698,-13.86484565045141,-8.14763104268655
23.800000000000068,-2762.5119437746775,1203.9678832620104,1022.9621281766358,240.5,0.6,-30.0,100.0,45.0,10.0,-12.765216873785198,-7.222212214850853,-1.0370899457402696,-1.0370899457402698,-13.802306819525468,-8.259302160591123
23.90000000000007,-2776.2507396425895,1195.597459982937,1023.0582040267473,240.0,0.6,-30.0,100.0,45.0,10.0,-12.70170592217177,-7.333333333333334,-1.0370899457402696,-1.0370899457402698,-13.73879586791204,-8.370423279073604
24.00000000000007,-2789.9250572748056,1187.1164740471063,1023.1542798768587,239.5,0.6,-30.0,100.0,45.0,10.0,-12.637227686475715,-7.443895990090328,-1.0370899457402696,-1.0370899457402698,-13.674317632215985,-8.480985935830597
24.100000000000072,-2803.5339342975103,1178.5254923360185,1023.2503557269702,239.0,0.6,-30.0,100.0,45.0,10.0,-12.571787076964315,-7.5538917653474655,-1.0370899457402696,-1.0370899457402698,-13.608877022704585,-8.590981711087736
24.200000000000074,-2817.076413320444,1169.8250901077777,1023.3464315770816,238.5,0.6,-30.0,100.0,45.0,10.0,-12.505389077193355,-7.663312282500586,-1.0370899457402696,-1.0370899457402698,-13.542479022933625,-8.700402228240856
24.300000000000075,-2830.551542009812,1161.0158509532837,1023.442507427193,238.0,0.6,-30.0,100.0,45.0,10.0,-12.438038743627583,-7.772149208753674,-1.0370899457402696,-1.0370899457402698,-13.475128689367853,-8.809239154493943
24.400000000000077,-2843.9583731608077,1152.09836675179,1023.5385832773045,237.5,0.6,-30.0,100.0,45.0,10.0,-12.369741205255657,-7.880394255753422,-1.0370899457402696,-1.0370899457402698,-13.406831150995927,-8.917484201493691
24.500000000000078,-2857.2959647697476,1143.0732376258295,1023.634659127416,237.0,0.6,-30.0,100.0,45.0,10.0,-12.300501663199553,-7.988039180220402,-1.0370899457402696,-1.0370899457402698,-13.337591608939823,-9.025129125960671
24.60000000000008,-2870.563380105806,1133.9410718955123,1023.7307349775274,236.5,0.6,-30.0,100.0,45.0,10.0,-12.230325390318468,-8.095075784576856,-1.0370899457402696,-1.0370899457402698,-13.267415336058738,-9.132165730317126
24.70000000000008,-2883.7596877823535,1124.702486032201,1023.8268108276388,236.0,0.6,-30.0,100.0,45.0,10.0,-12.15921773080728,-8.201495917570956,-1.0370899457402696,-1.0370899457402698,-13.19630767654755,-9.238585863311226
24.800000000000082,-2896.8839618278835,1115.3581046115632,1023.9228866777503,235.5,0.6,-30.0,100.0,45.0,10.0,-12.087184099789566,-8.30729147489755,-1.0370899457402696,-1.0370899457402698,-13.124274045529836,-9.34438142063782
24.900000000000084,-2909.935281756529,1105.9085602660077,1024.0189625278617,235.0,0.6,-30.0,100.0,45.0,10.0,-12.014229982905217,-8.412454399815342,-1.0370899457402696,-1.0370899457402698,-13.051319928645487,-9.449544345555612
25.000000000000085,-2922.912732638162,1096.354493636507,1024.1150383779732,234.5,0.6,-30.0,100.0,45.0,10.0,-11.940360935892683,-8.516976683760454,-1.0370899457402696,-1.0370899457402698,-12.977450881632953,-9.554066629500724
25.100000000000087,-2935.8154051680685,1086.6965533238103,1024.2111142280846,234.0,0.6,-30.0,100.0,45.0,10.0,-11.865582584165896,-8.620850366956276,-1.0370899457402696,-1.0370899457402698,-12.902672529906166,-9.657940312696546
25.200000000000088,-2948.6423957361944,1076.9353958390504,1024.307190078196,233.5,0.6,-30.0,100.0,45.0,10.0,-11.789900622385856,-8.724067539019673,-1.0370899457402696,-1.0370899457402698,-12.826990568126126,-9.761157484759943
25.30000000000009,-2961.392806495962,1067.0716855537469,1024.4032659283075,233.0,0.6,-30.0,100.0,45.0,10.0,-11.713320814026961,-8.826620339563382,-1.0370899457402696,-1.0370899457402698,-12.750410759767231,-9.863710285303652
25.40000000000009,-2974.06574543264,1057.106094649212,1024.499341778419,232.5,0.6,-30.0,100.0,45.0,10.0,-11.635848990938117,-8.928500958794574,-1.0370899457402696,-1.0370899457402698,-12.672938936678387,-9.965590904534844
25.500000000000092,-2986.660326431279,1047.0393030653622,1024.5954176285304,232.0,0.6,-30.0,100.0,45.0,10.0,-11.557491052898591,-9.029701638109659,-1.0370899457402696,-1.0370899457402698,-12.594580998638861,-10.066791583849929
25.600000000000094,-2999.175669344188,1036.871998448937,1024.6914934786419,231.5,0.6,-30.0,100.0,45.0,10.0,-11.47825296716874,-9.13021467068509,-1.0370899457402696,-1.0370899457402698,-12.51534291290901,-10.16730461642536
25.700000000000095,-3011.610900057964,1026.6048761011323,1024.7875693287533,231.0,0.6,-30.0,100.0,45.0,10.0,-11.398140768035576,-9.230032402064284,-1.0370899457402696,-1.0370899457402698,-12.435230713775846,-10.267122347804554
25.800000000000097,-3023.9651505600577,1016.2386389246515,1024.8836451788648,230.5,0.6,-30.0,100.0,45.0,10.0,-11.317160556353226,-9.329147230740544,-1.0370899457402696,-1.0370899457402698,-12.354250502093496,-10.366237176480814
25.900000000000098,-3036.2375590048764,1005.7739973701753,1024.9797210289762,230.0,0.6,-30.0,100.0,45.0,10.0,-11.235318499078344,-9.427551608735914,-1.0370899457402696,-1.0370899457402698,-12.272408444818614,-10.464641554476184
26.0000000000001,-3048.427269779417,995.211669382259,1025.0757968790876,229.5,0.6,-30.0,100.0,45.0,10.0,-11.152620828800455,-9.52523804217603,-1.0370899457402696,-1.0370899457402698,-12.189710774540725,-10.5623279879163
26.1000000000001,-3060.5334335684247,984.5523803446579,1025.171872729199,229.0,0.6,-30.0,100.0,45.0,10.0,-11.069073843267326,-9.622199091860775,-1.0370899457402696,-1.0370899457402698,-12.106163789007596,-10.659289037601045
26.200000000000102,-3072.5552074190705,973.7968630250869,1025.2679485793105,228.5,0.6,-30.0,100.0,45.0,10.0,-10.984683904905367,-9.718427373830817,-1.0370899457402696,-1.0370899457402698,-12.021773850645637,-10.755517319571087
26.300000000000104,-3084.491754805146,962.9458575194167,1025.364024429422,228.0,0.6,-30.0,100.0,45.0,10.0,-10.89945744033512,-9.813915559929919,-1.0370899457402696,-1.0370899457402698,-11.93654738607539,-10.851005505670189
26.400000000000105,-3096.342245690768,952.0001111953134,1025.4601002795334,227.5,0.6,-30.0,100.0,45.0,10.0,-10.81340093988182,-9.90865637836302,-1.0370899457402696,-1.0370899457402698,-11.85049088562209,-10.94574632410329
26.500000000000107,-3108.105856593589,940.9603786353231,1025.5561761296449,227.0,0.6,-30.0,100.0,45.0,10.0,-10.726520957081169,-10.00264261424998,-1.0370899457402696,-1.0370899457402698,-11.763610902821439,-11.03973255999025
26.600000000000108,-3119.78177064751,929.8274215794078,1025.6522519797563,226.5,0.6,-30.0,100.0,45.0,10.0,-10.638824108180218,-10.095867110175064,-1.0370899457402696,-1.0370899457402698,-11.675914053920488,-11.132957055915334
26.70000000000011,-3131.3691776648834,918.6020088669355,1025.7483278298678,226.0,0.6,-30.0,100.0,45.0,10.0,-10.55031707163355,-10.188322766731964,-1.0370899457402696,-1.0370899457402698,-11.58740701737382,-11.225412712472234
