time,x,y,altitude,yaw,pitch,roll,speed,wind_dir,wind_spd,dx,dy,wind_dx,wind_dy,vmg_dx,vmg_dy
0.0,0.06399459365474192,7.333054102470591,999.95,0.49999999999999994,0.0,30.0,50.0,0.0,0.0,0.06399459365474192,7.333054102470591,0.0,-0.0,0.06399459365474192,7.333054102470591
0.1,0.191978907528155,14.665270533617463,999.9000000000001,0.9999999999999999,0.0,30.0,50.0,0.0,0.0,0.12798431387341308,7.332216431146871,0.0,-0.0,0.12798431387341308,7.332216431146871
0.2,0.38394319511922637,21.99609091677155,999.8500000000001,1.4999999999999998,0.0,30.0,50.0,0.0,0.0,0.19196428759107134,7.330820383154088,0.0,-0.0,0.19196428759107134,7.330820383154088
0.30000000000000004,0.6398728376042344,29.324956981578254,999.8000000000002,1.9999999999999998,0.0,30.0,50.0,0.0,0.0,0.255929642485008,7.328866064806704,0.0,-0.0,0.255929642485008,7.328866064806704
0.4,0.9597483449500319,36.65131060651188,999.7500000000002,2.4999999999999996,0.0,30.0,50.0,0.0,0.0,0.31987550734579745,7.326353624933625,0.0,-0.0,0.31987550734579745,7.326353624933625
0.5,1.3435453573982876,43.97459386137875,999.7000000000003,2.9999999999999996,0.0,30.0,50.0,0.0,0.0,0.3837970124482558,7.323283254866876,0.0,-0.0,0.3837970124482558,7.323283254866876
0.6,1.7912346473205716,51.29424904980578,999.6500000000003,3.4999999999999996,0.0,30.0,50.0,0.0,0.0,0.4476892899222841,7.319655188427025,0.0,-0.0,0.4476892899222841,7.319655188427025
0.7,2.3027821214441566,58.609718751711156,999.6000000000004,3.9999999999999996,0.0,30.0,50.0,0.0,0.0,0.5115474741235851,7.3154697019053785,0.0,-0.0,0.5115474741235851,7.3154697019053785
0.7999999999999999,2.8781488234483534,65.92044586575409,999.5500000000004,4.499999999999999,0.0,30.0,50.0,0.0,0.0,0.5753667020041968,7.3107271140429395,0.0,-0.0,0.5753667020041968,7.3107271140429395
0.8999999999999999,3.5172909369311816,73.22587365176022,999.5000000000005,4.999999999999999,0.0,30.0,50.0,0.0,0.0,0.6391421134828281,7.305427786006136,0.0,-0.0,0.6391421134828281,7.305427786006136
0.9999999999999999,4.220159788746158,80.52544577311954,999.4500000000005,5.499999999999999,0.0,30.0,50.0,0.0,0.0,0.7028688518149767,7.299572121359313,0.0,-0.0,0.7028688518149767,7.299572121359313
1.0999999999999999,4.98670185270895,87.81860633915355,999.4000000000005,5.999999999999999,0.0,30.0,50.0,0.0,0.0,0.7665420639627921,7.293160566034006,0.0,-0.0,0.7665420639627921,7.293160566034006
1.2,5.8168587536736,95.10479994744853,999.3500000000006,6.499999999999999,0.0,30.0,50.0,0.0,0.0,0.8301569009646502,7.286193608294976,0.0,-0.0,0.8301569009646502,7.286193608294976
1.3,6.7105672719780145,102.38347172615156,999.3000000000006,6.999999999999999,0.0,30.0,50.0,0.0,0.0,0.8937085183044151,7.278671778703029,0.0,-0.0,0.8937085183044151,7.278671778703029
1.4000000000000001,7.667759348258394,109.65406737622617,999.2500000000007,7.499999999999999,0.0,30.0,50.0,0.0,0.0,0.9571920762803794,7.270595650074611,0.0,-0.0,0.9571920762803794,7.270595650074611
1.5000000000000002,8.688362088632207,116.91603321366435,999.2000000000007,7.999999999999999,0.0,30.0,50.0,0.0,0.0,1.0206027403738136,7.261965837438184,0.0,-0.0,1.0206027403738136,7.261965837438184
1.6000000000000003,9.772297770249352,124.16881621165174,999.1500000000008,8.499999999999998,0.0,30.0,50.0,0.0,0.0,1.083935681617146,7.252782997987391,0.0,-0.0,1.083935681617146,7.252782997987391
1.7000000000000004,10.919483847211046,131.41186404268277,999.1000000000008,8.999999999999998,0.0,30.0,50.0,0.0,0.0,1.1471860769616937,7.243047831031012,0.0,-0.0,1.1471860769616937,7.243047831031012
1.8000000000000005,12.129832956856015,138.64462512062246,999.0500000000009,9.499999999999998,0.0,30.0,50.0,0.0,0.0,1.2103491096449692,7.232761077939698,0.0,-0.0,1.2103491096449692,7.232761077939698
1.9000000000000006,13.403252926413504,145.866548642712,999.0000000000009,9.999999999999998,0.0,30.0,50.0,0.0,0.0,1.27341996955749,7.221923522089527,0.0,-0.0,1.27341996955749,7.221923522089527
2.0000000000000004,14.739646780022587,153.0770846315143,998.950000000001,10.499999999999998,0.0,30.0,50.0,0.0,0.0,1.3363938536090831,7.210535988802334,0.0,-0.0,1.3363938536090831,7.210535988802334
2.1000000000000005,16.13891274611725,160.27568397679718,998.900000000001,10.999999999999998,0.0,30.0,50.0,0.0,0.0,1.399265966094663,7.1985993452828705,0.0,-0.0,1.399265966094663,7.1985993452828705
2.2000000000000006,17.600944265176697,167.46179847734993,998.850000000001,11.499999999999998,0.0,30.0,50.0,0.0,0.0,1.4620315190594464,7.186114500552752,0.0,-0.0,1.4620315190594464,7.186114500552752
2.3000000000000007,19.125629997840264,174.63488088273118,998.8000000000011,11.999999999999998,0.0,30.0,50.0,0.0,0.0,1.524685732663568,7.173082405381243,0.0,-0.0,1.524685732663568,7.173082405381243
2.400000000000001,20.71285383338635,181.79438493494402,998.7500000000011,12.499999999999998,0.0,30.0,50.0,0.0,0.0,1.5872238355460884,7.159504052212846,0.0,-0.0,1.5872238355460884,7.159504052212846
2.500000000000001,22.362494898574695,188.93976541003573,998.7000000000012,12.999999999999998,0.0,30.0,50.0,0.0,0.0,1.6496410651883446,7.145380475091726,0.0,-0.0,1.6496410651883446,7.145380475091726
2.600000000000001,24.074427566851337,196.0704781596187,998.6500000000012,13.499999999999998,0.0,30.0,50.0,0.0,0.0,1.7119326682766405,7.130712749582963,0.0,-0.0,1.7119326682766405,7.130712749582963
2.700000000000001,25.848521467915567,203.18598015230933,998.6000000000013,13.999999999999998,0.0,30.0,50.0,0.0,0.0,1.77409390106423,7.115501992690643,0.0,-0.0,1.77409390106423,7.115501992690643
2.800000000000001,27.684641497648137,210.28572951508212,998.5500000000013,14.499999999999998,0.0,30.0,50.0,0.0,0.0,1.8361200297325713,7.0997493627727915,0.0,-0.0,1.8361200297325713,7.0997493627727915
2.9000000000000012,29.582647828399956,217.3691855745353,998.5000000000014,14.999999999999998,0.0,30.0,50.0,0.0,0.0,1.8980063307518191,7.0834560594531695,0.0,-0.0,1.8980063307518191,7.0834560594531695
3.0000000000000013,31.54239591964051,224.4358088980652,998.4500000000014,15.499999999999998,0.0,30.0,50.0,0.0,0.0,1.9597480912405514,7.066623323529903,0.0,-0.0,1.9597480912405514,7.066623323529903
3.1000000000000014,33.56373652896517,231.4850613349462,998.4000000000015,15.999999999999998,0.0,30.0,50.0,0.0,0.0,2.021340609324661,7.049252436881007,0.0,-0.0,2.021340609324661,7.049252436881007
3.2000000000000015,35.64651572346061,238.51640605731296,998.3500000000015,16.499999999999996,0.0,30.0,50.0,0.0,0.0,2.082779194495434,7.03134472236675,0.0,-0.0,2.082779194495434,7.03134472236675
3.3000000000000016,37.79057489142735,245.5293076010419,998.3000000000015,16.999999999999996,0.0,30.0,50.0,0.0,0.0,2.144059167966737,7.012901543728928,0.0,-0.0,2.144059167966737,7.012901543728928
3.4000000000000017,39.99575075445868,252.5232319065289,998.2500000000016,17.499999999999996,0.0,30.0,50.0,0.0,0.0,2.2051758630313363,6.993924305486999,0.0,-0.0,2.2051758630313363,6.993924305486999
3.5000000000000018,42.261875379874965,259.49764635936003,998.2000000000016,17.999999999999996,0.0,30.0,50.0,0.0,0.0,2.266124625416282,6.974414452831128,0.0,-0.0,2.266124625416282,6.974414452831128
3.600000000000002,44.58877619351231,266.4520198308722,998.1500000000017,18.499999999999996,0.0,30.0,50.0,0.0,0.0,2.326900813637344,6.95437347151213,0.0,-0.0,2.326900813637344,6.95437347151213
3.700000000000002,46.97627599286479,273.38582271860054,998.1000000000017,18.999999999999996,0.0,30.0,50.0,0.0,0.0,2.3874997993524834,6.933802887728324,0.0,-0.0,2.3874997993524834,6.933802887728324
3.800000000000002,49.42419296057911,280.29852698660983,998.0500000000018,19.499999999999996,0.0,30.0,50.0,0.0,0.0,2.4479169677143204,6.91270426800931,0.0,-0.0,2.4479169677143204,6.91270426800931
3.900000000000002,51.93234067830068,287.18960620570647,998.0000000000018,19.999999999999996,0.0,30.0,50.0,0.0,0.0,2.508147717721572,6.891079219096662,0.0,-0.0,2.508147717721572,6.891079219096662
4.000000000000002,54.50052814087011,294.05853559352806,997.9500000000019,20.499999999999996,0.0,30.0,50.0,0.0,0.0,2.5681874625694285,6.868929387821583,0.0,-0.0,2.5681874625694285,6.868929387821583
4.100000000000001,57.128559770868975,300.90479205450754,997.9000000000019,20.999999999999996,0.0,30.0,50.0,0.0,0.0,2.628031629998868,6.846256460979481,0.0,-0.0,2.628031629998868,6.846256460979481
4.200000000000001,59.816235433513825,307.72785421970906,997.850000000002,21.499999999999996,0.0,30.0,50.0,0.0,0.0,2.6876756626448475,6.823062165201515,0.0,-0.0,2.6876756626448475,6.823062165201515
4.300000000000001,62.56335045189718,314.5272024865322,997.800000000002,21.999999999999996,0.0,30.0,50.0,0.0,0.0,2.7471150183833566,6.799348266823109,0.0,-0.0,2.7471150183833566,6.799348266823109
4.4,65.36969562257451,321.3023190582816,997.750000000002,22.499999999999996,0.0,30.0,50.0,0.0,0.0,2.806345170677326,6.775116571749438,0.0,-0.0,2.806345170677326,6.775116571749438
4.5,68.23505723149586,328.0526879835995,997.7000000000021,22.999999999999996,0.0,30.0,50.0,0.0,0.0,2.865361608921341,6.750368925317898,0.0,-0.0,2.865361608921341,6.750368925317898
4.6,71.159217070281,334.7777951957571,997.6500000000021,23.499999999999996,0.0,30.0,50.0,0.0,0.0,2.92415983878514,6.725107212157578,0.0,-0.0,2.92415983878514,6.725107212157578
4.699999999999999,74.14195245283688,341.4771285518028,997.6000000000022,23.999999999999996,0.0,30.0,50.0,0.0,0.0,2.98273538255587,6.699333356045741,0.0,-0.0,2.98273538255587,6.699333356045741
4.799999999999999,77.18303623231596,348.15017787156415,997.5500000000022,24.499999999999996,0.0,30.0,50.0,0.0,0.0,3.0410837794790875,6.6730493197613185,0.0,-0.0,3.0410837794790875,6.6730493197613185
4.899999999999999,80.28223681841442,354.7964349764996,997.5000000000023,24.999999999999996,0.0,30.0,50.0,0.0,0.0,3.0992005860984633,6.646257104935434,0.0,-0.0,3.0992005860984633,6.646257104935434
4.999999999999998,83.43931819500858,361.41539372839856,997.4500000000023,25.499999999999996,0.0,30.0,50.0,0.0,0.0,3.157081376594166,6.618958751898979,0.0,-0.0,3.157081376594166,6.618958751898979
5.099999999999998,86.65403993812848,368.0065500679258,997.4000000000024,25.999999999999996,0.0,30.0,50.0,0.0,0.0,3.214721743119902,6.591156339527227,0.0,-0.0,3.214721743119902,6.591156339527227
5.1999999999999975,89.92615723426708,374.5694020530073,997.3500000000024,26.499999999999996,0.0,30.0,50.0,0.0,0.0,3.272117296138598,6.562851985081519,0.0,-0.0,3.272117296138598,6.562851985081519
5.299999999999997,93.25542089902376,381.1034498970553,997.3000000000025,26.999999999999996,0.0,30.0,50.0,0.0,0.0,3.329263664756678,6.534047844048032,0.0,-0.0,3.329263664756678,6.534047844048032
5.399999999999997,96.64157739608068,387.60819600702894,997.2500000000025,27.499999999999996,0.0,30.0,50.0,0.0,0.0,3.386156497056917,6.504746109973627,0.0,-0.0,3.386156497056917,6.504746109973627
5.4999999999999964,100.08436885651055,394.0831450213277,997.2000000000025,27.999999999999996,0.0,30.0,50.0,0.0,0.0,3.442791460429867,6.474949014298798,0.0,-0.0,3.442791460429867,6.474949014298798
5.599999999999996,103.58353309841435,400.52780384751543,997.1500000000026,28.499999999999996,0.0,30.0,50.0,0.0,0.0,3.4991642419037956,6.444658826187747,0.0,-0.0,3.4991642419037956,6.444658826187747
5.699999999999996,107.1388036468875,406.941681699871,997.1000000000026,28.999999999999996,0.0,30.0,50.0,0.0,0.0,3.5552705484731395,6.41387785235557,0.0,-0.0,3.5552705484731395,6.41387785235557
5.799999999999995,110.74990975431292,413.32429013676364,997.0500000000027,29.499999999999996,0.0,30.0,50.0,0.0,0.0,3.6111061074254263,6.382608436892599,0.0,-0.0,3.6111061074254263,6.382608436892599
5.899999999999995,114.4165764209796,419.6751430978495,997.0000000000027,29.999999999999996,0.0,30.0,50.0,0.0,0.0,3.6666666666666683,6.350852961085884,0.0,-0.0,3.6666666666666683,6.350852961085884
5.999999999999995,118.13852441602477,425.9937569410874,996.9500000000028,30.499999999999996,0.0,30.0,50.0,0.0,0.0,3.721947995045165,6.3186138432378565,0.0,-0.0,3.721947995045165,6.3186138432378565
6.099999999999994,121.9154702986985,432.27965047956957,996.9000000000028,30.999999999999996,0.0,30.0,50.0,0.0,0.0,3.7769458826737328,6.285893538482157,0.0,-0.0,3.7769458826737328,6.285893538482157
6.199999999999994,125.74712643994879,438.53234501816627,996.8500000000029,31.499999999999996,0.0,30.0,50.0,0.0,0.0,3.831656141250293,6.2526945385966775,0.0,-0.0,3.831656141250293,6.2526945385966775
6.299999999999994,129.63320104432563,444.75136438998004,996.8000000000029,31.999999999999996,0.0,30.0,50.0,0.0,0.0,3.886074604376837,6.2190193718137925,0.0,-0.0,3.886074604376837,6.2190193718137925
6.399999999999993,133.57339817220233,450.93623499260787,996.750000000003,32.49999999999999,0.0,30.0,50.0,0.0,0.0,3.940197127876708,6.18487060262783,0.0,-0.0,3.940197127876708,6.18487060262783
6.499999999999993,137.56741776231254,457.08648582420767,996.700000000003,32.99999999999999,0.0,30.0,50.0,0.0,0.0,3.9940195901101996,6.150250831599777,0.0,-0.0,3.9940195901101996,6.150250831599777
6.5999999999999925,141.61495565460098,463.2016485193669,996.650000000003,33.49999999999999,0.0,30.0,50.0,0.0,0.0,4.047537892288426,6.115162695159235,0.0,-0.0,4.047537892288426,6.115162695159235
6.699999999999992,145.71570361338647,469.2812573847706,996.6000000000031,33.99999999999999,0.0,30.0,50.0,0.0,0.0,4.100747958785477,6.079608865403641,0.0,-0.0,4.100747958785477,6.079608865403641
6.799999999999992,149.86934935083525,475.32484943466534,996.5500000000031,34.49999999999999,0.0,30.0,50.0,0.0,0.0,4.153645737448775,6.043592049894783,0.0,-0.0,4.153645737448775,6.043592049894783
6.8999999999999915,154.0755765507429,481.33196442611796,996.5000000000032,34.99999999999999,0.0,30.0,50.0,0.0,0.0,4.206227199907672,6.007114991452608,0.0,-0.0,4.206227199907672,6.007114991452608
6.999999999999991,158.33406489262313,487.3021448940643,996.4500000000032,35.49999999999999,0.0,30.0,50.0,0.0,0.0,4.258488341880225,5.970180467946342,0.0,-0.0,4.258488341880225,5.970180467946342
7.099999999999991,162.64449007610128,493.23493618614725,996.4000000000033,35.99999999999999,0.0,30.0,50.0,0.0,0.0,4.310425183478136,5.932791292082949,0.0,-0.0,4.310425183478136,5.932791292082949
7.19999999999999,167.00652384561113,499.1298864973402,996.3500000000033,36.49999999999999,0.0,30.0,50.0,0.0,0.0,4.362033769509836,5.894950311192929,0.0,-0.0,4.362033769509836,5.894950311192929
7.29999999999999,171.4198340153928,504.98654690435365,996.3000000000034,36.99999999999999,0.0,30.0,50.0,0.0,0.0,4.413310169781687,5.856660407013483,0.0,-0.0,4.413310169781687,5.856660407013483
7.39999999999999,175.8840844947901,510.8044713998227,996.2500000000034,37.49999999999999,0.0,30.0,50.0,0.0,0.0,4.464250479397286,5.817924495469059,0.0,-0.0,4.464250479397286,5.817924495469059
7.499999999999989,180.39893531384493,516.583216926272,996.2000000000035,37.99999999999999,0.0,30.0,50.0,0.0,0.0,4.514850819054828,5.7787455264492955,0.0,-0.0,4.514850819054828,5.7787455264492955
7.599999999999989,184.96404264918746,522.3223434098564,996.1500000000035,38.49999999999999,0.0,30.0,50.0,0.0,0.0,4.565107335342543,5.7391264835843705,0.0,-0.0,4.565107335342543,5.7391264835843705
7.699999999999989,189.5790588502196,528.0214137938742,996.1000000000035,38.99999999999999,0.0,30.0,50.0,0.0,0.0,4.615016201032142,5.699070384017788,0.0,-0.0,4.615016201032142,5.699070384017788
7.799999999999988,194.24363246558988,533.6799940720508,996.0500000000036,39.49999999999999,0.0,30.0,50.0,0.0,0.0,4.664573615370269,5.658580278176615,0.0,-0.0,4.664573615370269,5.658580278176615
7.899999999999988,198.95740826995785,539.29765332159,996.0000000000036,39.99999999999999,0.0,30.0,50.0,0.0,0.0,4.713775804367956,5.617659249539173,0.0,-0.0,4.713775804367956,5.617659249539173
7.999999999999988,203.72002729104588,544.8739637359903,995.9500000000037,40.49999999999999,0.0,30.0,50.0,0.0,0.0,4.762619021088014,5.576310414400229,0.0,-0.0,4.762619021088014,5.576310414400229
8.099999999999987,208.53112683697626,550.4085006576239,995.9000000000037,40.99999999999999,0.0,30.0,50.0,0.0,0.0,4.811099545930388,5.534536921633663,0.0,-0.0,4.811099545930388,5.534536921633663
8.199999999999987,213.39034052389167,555.9008426100766,995.8500000000038,41.49999999999999,0.0,30.0,50.0,0.0,0.0,4.859213686915409,5.4923419524526835,0.0,-0.0,4.859213686915409,5.4923419524526835
8.299999999999986,218.29729830385662,561.3505713302441,995.8000000000038,41.99999999999999,0.0,30.0,50.0,0.0,0.0,4.90695777996496,5.44972872016756,0.0,-0.0,4.90695777996496,5.44972872016756
8.399999999999986,223.25162649303812,566.757271800185,995.7500000000039,42.49999999999999,0.0,30.0,50.0,0.0,0.0,4.954328189181509,5.406700469940911,0.0,-0.0,4.954328189181509,5.406700469940911
8.499999999999986,228.2529478001631,572.1205322787256,995.7000000000039,42.99999999999999,0.0,30.0,50.0,0.0,0.0,5.00132130712499,5.363260478540584,0.0,-0.0,5.00132130712499,5.363260478540584
8.599999999999985,233.30088135525062,577.4399443328157,995.650000000004,43.49999999999999,0.0,30.0,50.0,0.0,0.0,5.047933555087529,5.31941205409011,0.0,-0.0,5.047933555087529,5.31941205409011
8.699999999999985,238.3950427386166,582.7151028686325,995.600000000004,43.99999999999999,0.0,30.0,50.0,0.0,0.0,5.0941613833659805,5.275158535816776,0.0,-0.0,5.0941613833659805,5.275158535816776
8.799999999999985,243.53504401014885,587.9456061624298,995.550000000004,44.49999999999999,0.0,30.0,50.0,0.0,0.0,5.140001271532241,5.230503293797334,0.0,-0.0,5.140001271532241,5.230503293797334
8.899999999999984,248.7204937388502,593.1310558911312,995.5000000000041,44.99999999999999,0.0,30.0,50.0,0.0,0.0,5.185449728701348,5.185449728701351,0.0,-0.0,5.185449728701348,5.185449728701351
8.999999999999984,253.95099703264754,598.2710571626634,995.4500000000041,45.49999999999999,0.0,30.0,50.0,0.0,0.0,5.230503293797333,5.140001271532241,0.0,-0.0,5.230503293797333,5.140001271532241
9.099999999999984,259.2261555684643,603.3652185460294,995.4000000000042,45.99999999999999,0.0,30.0,50.0,0.0,0.0,5.275158535816775,5.094161383365981,0.0,-0.0,5.275158535816775,5.094161383365981
9.199999999999983,264.5455676225544,608.4131521011169,995.3500000000042,46.49999999999999,0.0,30.0,50.0,0.0,0.0,5.31941205409011,5.04793355508753,0.0,-0.0,5.31941205409011,5.04793355508753
9.299999999999983,269.908828101095,613.4144734082419,995.3000000000043,46.99999999999999,0.0,30.0,50.0,0.0,0.0,5.3632604785405835,5.00132130712499,0.0,-0.0,5.3632604785405835,5.00132130712499
9.399999999999983,275.31552857103594,618.3688015974234,995.2500000000043,47.49999999999999,0.0,30.0,50.0,0.0,0.0,5.40670046994091,4.95432818918151,0.0,-0.0,5.40670046994091,4.95432818918151
9.499999999999982,280.7652572912035,623.2757593773883,995.2000000000044,47.99999999999999,0.0,30.0,50.0,0.0,0.0,5.449728720167558,4.906957779964962,0.0,-0.0,5.449728720167558,4.906957779964962
9.599999999999982,286.2575992436562,628.1349730643037,995.1500000000044,48.49999999999999,0.0,30.0,50.0,0.0,0.0,5.492341952452683,4.85921368691541,0.0,-0.0,5.492341952452683,4.85921368691541
9.699999999999982,291.7921361652899,632.9460726102341,995.1000000000045,48.99999999999999,0.0,30.0,50.0,0.0,0.0,5.534536921633662,4.8110995459303885,0.0,-0.0,5.534536921633662,4.8110995459303885
9.799999999999981,297.3684465796901,637.708691631322,995.0500000000045,49.49999999999999,0.0,30.0,50.0,0.0,0.0,5.576310414400228,4.762619021088015,0.0,-0.0,5.576310414400228,4.762619021088015
9.89999999999998,302.98610582922925,642.42246743569,995.0000000000045,49.99999999999999,0.0,30.0,50.0,0.0,0.0,5.617659249539173,4.713775804367956,0.0,-0.0,5.617659249539173,4.713775804367956
9.99999999999998,308.64468610740585,647.0870410510603,994.9500000000046,50.49999999999999,0.0,30.0,50.0,0.0,0.0,5.658580278176614,4.664573615370271,0.0,-0.0,5.658580278176614,4.664573615370271
10.09999999999998,314.3437564914236,651.7020572520925,994.9000000000046,50.99999999999999,0.0,30.0,50.0,0.0,0.0,5.699070384017788,4.615016201032143,0.0,-0.0,5.699070384017788,4.615016201032143
10.19999999999998,320.082882975008,656.267164587435,994.8500000000047,51.49999999999999,0.0,30.0,50.0,0.0,0.0,5.739126483584369,4.565107335342545,0.0,-0.0,5.739126483584369,4.565107335342545
10.29999999999998,325.8616285014573,660.7820154064898,994.8000000000047,51.99999999999999,0.0,30.0,50.0,0.0,0.0,5.7787455264492955,4.514850819054828,0.0,-0.0,5.7787455264492955,4.514850819054828
10.399999999999979,331.67955299692636,665.246265885887,994.7500000000048,52.49999999999999,0.0,30.0,50.0,0.0,0.0,5.817924495469058,4.464250479397286,0.0,-0.0,5.817924495469058,4.464250479397286
10.499999999999979,337.5362134039398,669.6595760556687,994.7000000000048,52.99999999999999,0.0,30.0,50.0,0.0,0.0,5.856660407013482,4.413310169781689,0.0,-0.0,5.856660407013482,4.413310169781689
10.599999999999978,343.43116371513275,674.0216098251785,994.6500000000049,53.49999999999999,0.0,30.0,50.0,0.0,0.0,5.894950311192928,4.3620337695098375,0.0,-0.0,5.894950311192928,4.3620337695098375
10.699999999999978,349.3639550072157,678.3320350086567,994.6000000000049,53.99999999999999,0.0,30.0,50.0,0.0,0.0,5.932791292082948,4.310425183478138,0.0,-0.0,5.932791292082948,4.310425183478138
10.799999999999978,355.33413547516204,682.590523350537,994.550000000005,54.49999999999999,0.0,30.0,50.0,0.0,0.0,5.970180467946341,4.258488341880226,0.0,-0.0,5.970180467946341,4.258488341880226
10.899999999999977,361.34125046661467,686.7967505504446,994.500000000005,54.99999999999999,0.0,30.0,50.0,0.0,0.0,6.007114991452608,4.206227199907673,0.0,-0.0,6.007114991452608,4.206227199907673
10.999999999999977,367.3848425165094,690.9503962878933,994.450000000005,55.49999999999999,0.0,30.0,50.0,0.0,0.0,6.043592049894782,4.153645737448775,0.0,-0.0,6.043592049894782,4.153645737448775
11.099999999999977,373.4644513819131,695.0511442466789,994.4000000000051,55.99999999999999,0.0,30.0,50.0,0.0,0.0,6.07960886540364,4.100747958785478,0.0,-0.0,6.07960886540364,4.100747958785478
11.199999999999976,379.57961407707234,699.0986821389673,994.3500000000051,56.49999999999999,0.0,30.0,50.0,0.0,0.0,6.115162695159235,4.047537892288427,0.0,-0.0,6.115162695159235,4.047537892288427
11.299999999999976,385.7298649086721,703.0927017290775,994.3000000000052,56.99999999999999,0.0,30.0,50.0,0.0,0.0,6.150250831599776,3.9940195901102,0.0,-0.0,6.150250831599776,3.9940195901102
11.399999999999975,391.9147355112999,707.0328988569541,994.2500000000052,57.49999999999999,0.0,30.0,50.0,0.0,0.0,6.184870602627829,3.940197127876709,0.0,-0.0,6.184870602627829,3.940197127876709
11.499999999999975,398.1337548831137,710.918973461331,994.2000000000053,57.99999999999999,0.0,30.0,50.0,0.0,0.0,6.219019371813792,3.8860746043768377,0.0,-0.0,6.219019371813792,3.8860746043768377
11.599999999999975,404.3864494217104,714.7506296025813,994.1500000000053,58.49999999999999,0.0,30.0,50.0,0.0,0.0,6.2526945385966775,3.831656141250293,0.0,-0.0,6.2526945385966775,3.831656141250293
11.699999999999974,410.67234296019257,718.527575485255,994.1000000000054,58.99999999999999,0.0,30.0,50.0,0.0,0.0,6.285893538482157,3.776945882673732,0.0,-0.0,6.285893538482157,3.776945882673732
11.799999999999974,416.99095680343044,722.2495234803002,994.0500000000054,59.49999999999999,0.0,30.0,50.0,0.0,0.0,6.3186138432378565,3.721947995045165,0.0,-0.0,6.3186138432378565,3.721947995045165
11.899999999999974,423.3418097645163,725.9161901469669,994.0000000000055,59.99999999999999,0.0,30.0,50.0,0.0,0.0,6.350852961085884,3.6666666666666683,0.0,-0.0,6.350852961085884,3.6666666666666683
11.999999999999973,429.7244182014089,729.5272962543922,993.9500000000055,60.49999999999999,0.0,30.0,50.0,0.0,0.0,6.382608436892599,3.6111061074254267,0.0,-0.0,6.382608436892599,3.6111061074254267
12.099999999999973,436.1382960537645,733.0825668028654,993.9000000000055,60.99999999999999,0.0,30.0,50.0,0.0,0.0,6.41387785235557,3.55527054847314,0.0,-0.0,6.41387785235557,3.55527054847314
12.199999999999973,442.58295487995224,736.5817310447692,993.8500000000056,61.49999999999999,0.0,30.0,50.0,0.0,0.0,6.444658826187746,3.4991642419037965,0.0,-0.0,6.444658826187746,3.4991642419037965
12.299999999999972,449.057903894251,740.024522505199,993.8000000000056,61.99999999999999,0.0,30.0,50.0,0.0,0.0,6.474949014298798,3.4427914604298664,0.0,-0.0,6.474949014298798,3.4427914604298664
12.399999999999972,455.5626500042246,743.410679002256,993.7500000000057,62.49999999999999,0.0,30.0,50.0,0.0,0.0,6.504746109973627,3.3861564970569167,0.0,-0.0,6.504746109973627,3.3861564970569167
12.499999999999972,462.09669784827264,746.7399426670127,993.7000000000057,62.99999999999999,0.0,30.0,50.0,0.0,0.0,6.534047844048032,3.3292636647566782,0.0,-0.0,6.534047844048032,3.3292636647566782
12.599999999999971,468.65954983335416,750.0120599631513,993.6500000000058,63.49999999999999,0.0,30.0,50.0,0.0,0.0,6.562851985081518,3.272117296138599,0.0,-0.0,6.562851985081518,3.272117296138599
12.69999999999997,475.2507061728814,753.2267817062711,993.6000000000058,63.99999999999999,0.0,30.0,50.0,0.0,0.0,6.591156339527226,3.2147217431199024,0.0,-0.0,6.591156339527226,3.2147217431199024
12.79999999999997,481.86966492478035,756.3838630828653,993.5500000000059,64.49999999999999,0.0,30.0,50.0,0.0,0.0,6.618958751898979,3.1570813765941668,0.0,-0.0,6.618958751898979,3.1570813765941668
12.89999999999997,488.5159220297158,759.4830636689638,993.5000000000059,64.99999999999999,0.0,30.0,50.0,0.0,0.0,6.646257104935433,3.0992005860984646,0.0,-0.0,6.646257104935433,3.0992005860984646
12.99999999999997,495.18897134947713,762.5241474484429,993.450000000006,65.49999999999999,0.0,30.0,50.0,0.0,0.0,6.673049319761318,3.0410837794790884,0.0,-0.0,6.673049319761318,3.0410837794790884
13.09999999999997,501.88830470552284,765.5068828309988,993.400000000006,65.99999999999999,0.0,30.0,50.0,0.0,0.0,6.699333356045741,2.9827353825558705,0.0,-0.0,6.699333356045741,2.9827353825558705
13.199999999999969,508.6134119176804,768.431042669784,993.350000000006,66.49999999999999,0.0,30.0,50.0,0.0,0.0,6.725107212157577,2.9241598387851413,0.0,-0.0,6.725107212157577,2.9241598387851413
13.299999999999969,515.3637808429983,771.2964042787054,993.3000000000061,66.99999999999999,0.0,30.0,50.0,0.0,0.0,6.750368925317897,2.8653616089213427,0.0,-0.0,6.750368925317897,2.8653616089213427
13.399999999999968,522.1388974147477,774.1027494493827,993.2500000000061,67.49999999999999,0.0,30.0,50.0,0.0,0.0,6.775116571749437,2.8063451706773272,0.0,-0.0,6.775116571749437,2.8063451706773272
13.499999999999968,528.9382456815708,776.8498644677661,993.2000000000062,67.99999999999999,0.0,30.0,50.0,0.0,0.0,6.799348266823109,2.7471150183833575,0.0,-0.0,6.799348266823109,2.7471150183833575
13.599999999999968,535.7613078467723,779.537540130411,993.1500000000062,68.49999999999999,0.0,30.0,50.0,0.0,0.0,6.823062165201514,2.6876756626448493,0.0,-0.0,6.823062165201514,2.6876756626448493
13.699999999999967,542.6075643077518,782.1655717604099,993.1000000000063,68.99999999999999,0.0,30.0,50.0,0.0,0.0,6.84625646097948,2.628031629998871,0.0,-0.0,6.84625646097948,2.628031629998871
13.799999999999967,549.4764936955734,784.7337592229793,993.0500000000063,69.49999999999999,0.0,30.0,50.0,0.0,0.0,6.868929387821583,2.56818746256943,0.0,-0.0,6.868929387821583,2.56818746256943
13.899999999999967,556.3675729146701,787.2419069407009,993.0000000000064,69.99999999999999,0.0,30.0,50.0,0.0,0.0,6.891079219096662,2.5081477177215725,0.0,-0.0,6.891079219096662,2.5081477177215725
13.999999999999966,563.2802771826794,789.6898239084153,992.9500000000064,70.49999999999999,0.0,30.0,50.0,0.0,0.0,6.912704268009309,2.447916967714322,0.0,-0.0,6.912704268009309,2.447916967714322
14.099999999999966,570.2140800704077,792.0773237077677,992.9000000000065,70.99999999999999,0.0,30.0,50.0,0.0,0.0,6.933802887728324,2.3874997993524842,0.0,-0.0,6.933802887728324,2.3874997993524842
14.199999999999966,577.1684535419198,794.4042245214051,992.8500000000065,71.49999999999999,0.0,30.0,50.0,0.0,0.0,6.954373471512129,2.3269008136373444,0.0,-0.0,6.954373471512129,2.3269008136373444
14.299999999999965,584.142867994751,796.6703491468214,992.8000000000065,71.99999999999999,0.0,30.0,50.0,0.0,0.0,6.974414452831128,2.266124625416283,0.0,-0.0,6.974414452831128,2.266124625416283
14.399999999999965,591.136792300238,798.8755250098527,992.7500000000066,72.49999999999999,0.0,30.0,50.0,0.0,0.0,6.993924305486998,2.2051758630313385,0.0,-0.0,6.993924305486998,2.2051758630313385
14.499999999999964,598.1496938439669,801.0195841778194,992.7000000000066,72.99999999999999,0.0,30.0,50.0,0.0,0.0,7.012901543728928,2.144059167966738,0.0,-0.0,7.012901543728928,2.144059167966738
14.599999999999964,605.1810385663337,803.1023633723148,992.6500000000067,73.49999999999999,0.0,30.0,50.0,0.0,0.0,7.031344722366749,2.0827791944954344,0.0,-0.0,7.031344722366749,2.0827791944954344
14.699999999999964,612.2302910032147,805.1237039816394,992.6000000000067,73.99999999999999,0.0,30.0,50.0,0.0,0.0,7.049252436881006,2.0213406093246626,0.0,-0.0,7.049252436881006,2.0213406093246626
14.799999999999963,619.2969143267446,807.0834520728799,992.5500000000068,74.49999999999999,0.0,30.0,50.0,0.0,0.0,7.066623323529903,1.9597480912405527,0.0,-0.0,7.066623323529903,1.9597480912405527
14.899999999999963,626.3803703861978,808.9814584036318,992.5000000000068,74.99999999999999,0.0,30.0,50.0,0.0,0.0,7.083456059453169,1.8980063307518211,0.0,-0.0,7.083456059453169,1.8980063307518211
14.999999999999963,633.4801197489705,810.8175784333644,992.4500000000069,75.49999999999999,0.0,30.0,50.0,0.0,0.0,7.0997493627727915,1.8361200297325726,0.0,-0.0,7.0997493627727915,1.8361200297325726
15.099999999999962,640.5956217416611,812.5916723344286,992.4000000000069,75.99999999999999,0.0,30.0,50.0,0.0,0.0,7.115501992690642,1.7740939010642323,0.0,-0.0,7.115501992690642,1.7740939010642323
15.199999999999962,647.7263344912441,814.3036050027052,992.350000000007,76.49999999999999,0.0,30.0,50.0,0.0,0.0,7.130712749582963,1.7119326682766418,0.0,-0.0,7.130712749582963,1.7119326682766418
15.299999999999962,654.8717149663358,815.9532460678936,992.300000000007,76.99999999999999,0.0,30.0,50.0,0.0,0.0,7.145380475091725,1.6496410651883453,0.0,-0.0,7.145380475091725,1.6496410651883453
15.399999999999961,662.0312190185487,817.5404699034397,992.250000000007,77.49999999999999,0.0,30.0,50.0,0.0,0.0,7.159504052212846,1.5872238355460897,0.0,-0.0,7.159504052212846,1.5872238355460897
15.499999999999961,669.2043014239299,819.0651556361032,992.2000000000071,77.99999999999999,0.0,30.0,50.0,0.0,0.0,7.173082405381242,1.5246857326635705,0.0,-0.0,7.173082405381242,1.5246857326635705
15.59999999999996,676.3904159244827,820.5271871551627,992.1500000000071,78.49999999999999,0.0,30.0,50.0,0.0,0.0,7.186114500552752,1.462031519059448,0.0,-0.0,7.186114500552752,1.462031519059448
15.69999999999996,683.5890152697656,821.9264531212573,992.1000000000072,78.99999999999999,0.0,30.0,50.0,0.0,0.0,7.19859934528287,1.399265966094664,0.0,-0.0,7.19859934528287,1.399265966094664
15.79999999999996,690.7995512585679,823.2628469748664,992.0500000000072,79.49999999999999,0.0,30.0,50.0,0.0,0.0,7.210535988802334,1.3363938536090831,0.0,-0.0,7.210535988802334,1.3363938536090831
15.89999999999996,698.0214747806575,824.5362669444239,992.0000000000073,79.99999999999999,0.0,30.0,50.0,0.0,0.0,7.221923522089527,1.2734199695574913,0.0,-0.0,7.221923522089527,1.2734199695574913
15.99999999999996,705.2542358585972,825.7466160540689,991.9500000000073,80.49999999999999,0.0,30.0,50.0,0.0,0.0,7.232761077939698,1.2103491096449714,0.0,-0.0,7.232761077939698,1.2103491096449714
16.09999999999996,712.4972836896283,826.8938021310306,991.9000000000074,80.99999999999999,0.0,30.0,50.0,0.0,0.0,7.243047831031011,1.147186076961695,0.0,-0.0,7.243047831031011,1.147186076961695
16.19999999999996,719.7500666876157,827.9777378126478,991.8500000000074,81.49999999999999,0.0,30.0,50.0,0.0,0.0,7.252782997987391,1.0839356816171466,0.0,-0.0,7.252782997987391,1.0839356816171466
16.29999999999996,727.0120325250539,828.9983405530215,991.8000000000075,81.99999999999999,0.0,30.0,50.0,0.0,0.0,7.261965837438184,1.0206027403738152,0.0,-0.0,7.261965837438184,1.0206027403738152
16.399999999999963,734.2826281751285,829.955532629302,991.7500000000075,82.49999999999999,0.0,30.0,50.0,0.0,0.0,7.270595650074611,0.9571920762803803,0.0,-0.0,7.270595650074611,0.9571920762803803
16.499999999999964,741.5612999538315,830.8492411476063,991.7000000000075,82.99999999999999,0.0,30.0,50.0,0.0,0.0,7.278671778703029,0.8937085183044168,0.0,-0.0,7.278671778703029,0.8937085183044168
16.599999999999966,748.8474935621265,831.679398048571,991.6500000000076,83.49999999999999,0.0,30.0,50.0,0.0,0.0,7.286193608294976,0.8301569009646513,0.0,-0.0,7.286193608294976,0.8301569009646513
16.699999999999967,756.1406541281605,832.4459401125338,991.6000000000076,83.99999999999999,0.0,30.0,50.0,0.0,0.0,7.293160566034006,0.766542063962794,0.0,-0.0,7.293160566034006,0.766542063962794
16.79999999999997,763.4402262495198,833.1488089643487,991.5500000000077,84.49999999999999,0.0,30.0,50.0,0.0,0.0,7.299572121359312,0.7028688518149778,0.0,-0.0,7.299572121359312,0.7028688518149778
16.89999999999997,770.745654035526,833.7879510778316,991.5000000000077,84.99999999999999,0.0,30.0,50.0,0.0,0.0,7.305427786006136,0.6391421134828285,0.0,-0.0,7.305427786006136,0.6391421134828285
16.99999999999997,778.0563811495689,834.3633177798358,991.4500000000078,85.49999999999999,0.0,30.0,50.0,0.0,0.0,7.3107271140429395,0.5753667020041981,0.0,-0.0,7.3107271140429395,0.5753667020041981
17.099999999999973,785.3718508514743,834.8748652539595,991.4000000000078,85.99999999999999,0.0,30.0,50.0,0.0,0.0,7.3154697019053785,0.5115474741235875,0.0,-0.0,7.3154697019053785,0.5115474741235875
17.199999999999974,792.6915060399014,835.3225545438818,991.3500000000079,86.49999999999999,0.0,30.0,50.0,0.0,0.0,7.319655188427025,0.4476892899222857,0.0,-0.0,7.319655188427025,0.4476892899222857
17.299999999999976,800.0147892947682,835.70635155633,991.3000000000079,86.99999999999999,0.0,30.0,50.0,0.0,0.0,7.323283254866876,0.38379701244825665,0.0,-0.0,7.323283254866876,0.38379701244825665
17.399999999999977,807.3411429197018,836.0262270636758,991.250000000008,87.49999999999999,0.0,30.0,50.0,0.0,0.0,7.326353624933625,0.3198755073457992,0.0,-0.0,7.326353624933625,0.3198755073457992
17.49999999999998,814.6700089845085,836.2821567061609,991.200000000008,87.99999999999999,0.0,30.0,50.0,0.0,0.0,7.328866064806704,0.25592964248500893,0.0,-0.0,7.328866064806704,0.25592964248500893
17.59999999999998,822.0008293676626,836.474120993752,991.150000000008,88.49999999999999,0.0,30.0,50.0,0.0,0.0,7.330820383154088,0.19196428759107162,0.0,-0.0,7.330820383154088,0.19196428759107162
17.69999999999998,829.3330457988095,836.6021053076254,991.1000000000081,88.99999999999999,0.0,30.0,50.0,0.0,0.0,7.332216431146871,0.12798431387341427,0.0,-0.0,7.332216431146871,0.12798431387341427
17.799999999999983,836.6660999012801,836.6660999012802,991.0500000000081,89.49999999999999,0.0,30.0,50.0,0.0,0.0,7.333054102470591,0.06399459365474403,0.0,-0.0,7.333054102470591,0.06399459365474403
17.899999999999984,843.9994332346134,836.6660999012802,991.0000000000082,89.99999999999999,0.0,30.0,50.0,0.0,0.0,7.333333333333335,1.8188588315541313E-15,0.0,-0.0,7.333333333333335,1.8188588315541313E-15
17.999999999999986,851.332487337084,836.6021053076255,990.9500000000082,90.49999999999999,0.0,30.0,50.0,0.0,0.0,7.333054102470591,-0.06399459365474038,0.0,-0.0,7.333054102470591,-0.06399459365474038
18.099999999999987,858.6647037682309,836.4741209937521,990.9000000000083,90.99999999999999,0.0,30.0,50.0,0.0,0.0,7.332216431146871,-0.12798431387341064,0.0,-0.0,7.332216431146871,-0.12798431387341064
18.19999999999999,865.995524151385,836.282156706161,990.8500000000083,91.49999999999999,0.0,30.0,50.0,0.0,0.0,7.330820383154088,-0.191964287591068,0.0,-0.0,7.330820383154088,-0.191964287591068
18.29999999999999,873.3243902161917,836.026227063676,990.8000000000084,91.99999999999999,0.0,30.0,50.0,0.0,0.0,7.328866064806704,-0.2559296424850053,0.0,-0.0,7.328866064806704,-0.2559296424850053
18.39999999999999,880.6507438411253,835.7063515563301,990.7500000000084,92.49999999999999,0.0,30.0,50.0,0.0,0.0,7.326353624933625,-0.31987550734579556,0.0,-0.0,7.326353624933625,-0.31987550734579556
18.499999999999993,887.9740270959921,835.3225545438819,990.7000000000085,92.99999999999999,0.0,30.0,50.0,0.0,0.0,7.323283254866876,-0.383797012448253,0.0,-0.0,7.323283254866876,-0.383797012448253
18.599999999999994,895.2936822844192,834.8748652539596,990.6500000000085,93.49999999999999,0.0,30.0,50.0,0.0,0.0,7.319655188427026,-0.447689289922282,0.0,-0.0,7.319655188427026,-0.447689289922282
18.699999999999996,902.6091519863246,834.3633177798359,990.6000000000085,93.99999999999999,0.0,30.0,50.0,0.0,0.0,7.315469701905379,-0.5115474741235838,0.0,-0.0,7.315469701905379,-0.5115474741235838
18.799999999999997,909.9198791003676,833.7879510778317,990.5500000000086,94.49999999999999,0.0,30.0,50.0,0.0,0.0,7.3107271140429395,-0.5753667020041945,0.0,-0.0,7.3107271140429395,-0.5753667020041945
18.9,917.2253068863737,833.1488089643489,990.5000000000086,94.99999999999999,0.0,30.0,50.0,0.0,0.0,7.305427786006136,-0.6391421134828248,0.0,-0.0,7.305427786006136,-0.6391421134828248
19.0,924.524879007733,832.4459401125339,990.4500000000087,95.49999999999999,0.0,30.0,50.0,0.0,0.0,7.299572121359313,-0.7028688518149743,0.0,-0.0,7.299572121359313,-0.7028688518149743
19.1,931.818039573767,831.6793980485711,990.4000000000087,95.99999999999999,0.0,30.0,50.0,0.0,0.0,7.293160566034007,-0.7665420639627906,0.0,-0.0,7.293160566034007,-0.7665420639627906
19.200000000000003,939.104233182062,830.8492411476064,990.3500000000088,96.49999999999999,0.0,30.0,50.0,0.0,0.0,7.286193608294977,-0.8301569009646476,0.0,-0.0,7.286193608294977,-0.8301569009646476
19.300000000000004,946.382904960765,829.9555326293021,990.3000000000088,96.99999999999999,0.0,30.0,50.0,0.0,0.0,7.27867177870303,-0.8937085183044132,0.0,-0.0,7.27867177870303,-0.8937085183044132
19.400000000000006,953.6535006108396,828.9983405530216,990.2500000000089,97.49999999999999,0.0,30.0,50.0,0.0,0.0,7.270595650074612,-0.9571920762803766,0.0,-0.0,7.270595650074612,-0.9571920762803766
19.500000000000007,960.9154664482778,827.9777378126479,990.2000000000089,97.99999999999999,0.0,30.0,50.0,0.0,0.0,7.261965837438184,-1.0206027403738116,0.0,-0.0,7.261965837438184,-1.0206027403738116
19.60000000000001,968.1682494462652,826.8938021310307,990.150000000009,98.49999999999999,0.0,30.0,50.0,0.0,0.0,7.252782997987391,-1.083935681617143,0.0,-0.0,7.252782997987391,-1.083935681617143
19.70000000000001,975.4112972772963,825.746616054069,990.100000000009,98.99999999999999,0.0,30.0,50.0,0.0,0.0,7.243047831031012,-1.1471860769616915,0.0,-0.0,7.243047831031012,-1.1471860769616915
19.80000000000001,982.644058355236,824.536266944424,990.050000000009,99.49999999999999,0.0,30.0,50.0,0.0,0.0,7.232761077939698,-1.210349109644968,0.0,-0.0,7.232761077939698,-1.210349109644968
19.900000000000013,989.8659818773256,823.2628469748665,990.0000000000091,99.99999999999999,0.0,30.0,50.0,0.0,0.0,7.2219235220895275,-1.2734199695574875,0.0,-0.0,7.2219235220895275,-1.2734199695574875
20.000000000000014,997.0765178661279,821.9264531212575,989.9500000000091,100.49999999999999,0.0,30.0,50.0,0.0,0.0,7.210535988802335,-1.3363938536090796,0.0,-0.0,7.210535988802335,-1.3363938536090796
20.100000000000016,1004.2751172114108,820.5271871551629,989.9000000000092,100.99999999999999,0.0,30.0,50.0,0.0,0.0,7.1985993452828705,-1.3992659660946603,0.0,-0.0,7.1985993452828705,-1.3992659660946603
20.200000000000017,1011.4612317119636,819.0651556361034,989.8500000000092,101.49999999999999,0.0,30.0,50.0,0.0,0.0,7.186114500552753,-1.4620315190594446,0.0,-0.0,7.186114500552753,-1.4620315190594446
20.30000000000002,1018.6343141173448,817.5404699034399,989.8000000000093,101.99999999999999,0.0,30.0,50.0,0.0,0.0,7.173082405381243,-1.5246857326635668,0.0,-0.0,7.173082405381243,-1.5246857326635668
20.40000000000002,1025.7938181695577,815.9532460678938,989.7500000000093,102.49999999999999,0.0,30.0,50.0,0.0,0.0,7.159504052212847,-1.5872238355460861,0.0,-0.0,7.159504052212847,-1.5872238355460861
20.50000000000002,1032.9391986446494,814.3036050027055,989.7000000000094,102.99999999999999,0.0,30.0,50.0,0.0,0.0,7.145380475091726,-1.6496410651883417,0.0,-0.0,7.145380475091726,-1.6496410651883417
20.600000000000023,1040.0699113942323,812.5916723344288,989.6500000000094,103.49999999999999,0.0,30.0,50.0,0.0,0.0,7.130712749582964,-1.7119326682766385,0.0,-0.0,7.130712749582964,-1.7119326682766385
20.700000000000024,1047.185413386923,810.8175784333646,989.6000000000095,103.99999999999999,0.0,30.0,50.0,0.0,0.0,7.115501992690643,-1.7740939010642283,0.0,-0.0,7.115501992690643,-1.7740939010642283
20.800000000000026,1054.285162749696,808.981458403632,989.5500000000095,104.49999999999999,0.0,30.0,50.0,0.0,0.0,7.099749362772792,-1.8361200297325688,0.0,-0.0,7.099749362772792,-1.8361200297325688
20.900000000000027,1061.3686188091492,807.0834520728802,989.5000000000095,104.99999999999999,0.0,30.0,50.0,0.0,0.0,7.0834560594531695,-1.8980063307518176,0.0,-0.0,7.0834560594531695,-1.8980063307518176
21.00000000000003,1068.4352421326792,805.1237039816397,989.4500000000096,105.49999999999999,0.0,30.0,50.0,0.0,0.0,7.066623323529904,-1.9597480912405485,0.0,-0.0,7.066623323529904,-1.9597480912405485
21.10000000000003,1075.4844945695602,803.102363372315,989.4000000000096,105.99999999999999,0.0,30.0,50.0,0.0,0.0,7.049252436881007,-2.0213406093246595,0.0,-0.0,7.049252436881007,-2.0213406093246595
21.20000000000003,1082.515839291927,801.0195841778196,989.3500000000097,106.49999999999999,0.0,30.0,50.0,0.0,0.0,7.031344722366751,-2.0827791944954313,0.0,-0.0,7.031344722366751,-2.0827791944954313
21.300000000000033,1089.528740835656,798.8755250098529,989.3000000000097,106.99999999999999,0.0,30.0,50.0,0.0,0.0,7.012901543728929,-2.1440591679667347,0.0,-0.0,7.012901543728929,-2.1440591679667347
21.400000000000034,1096.522665141143,796.6703491468216,989.2500000000098,107.49999999999999,0.0,30.0,50.0,0.0,0.0,6.993924305487,-2.205175863031335,0.0,-0.0,6.993924305487,-2.205175863031335
21.500000000000036,1103.4970795939741,794.4042245214054,989.2000000000098,107.99999999999999,0.0,30.0,50.0,0.0,0.0,6.9744144528311285,-2.2661246254162797,0.0,-0.0,6.9744144528311285,-2.2661246254162797
21.600000000000037,1110.4514530654862,792.077323707768,989.1500000000099,108.49999999999999,0.0,30.0,50.0,0.0,0.0,6.95437347151213,-2.3269008136373412,0.0,-0.0,6.95437347151213,-2.3269008136373412
21.70000000000004,1117.3852559532145,789.6898239084155,989.1000000000099,108.99999999999999,0.0,30.0,50.0,0.0,0.0,6.933802887728325,-2.387499799352481,0.0,-0.0,6.933802887728325,-2.387499799352481
21.80000000000004,1124.2979602212238,787.2419069407013,989.05000000001,109.49999999999999,0.0,30.0,50.0,0.0,0.0,6.91270426800931,-2.4479169677143187,0.0,-0.0,6.91270426800931,-2.4479169677143187
21.90000000000004,1131.1890394403204,784.7337592229796,989.00000000001,109.99999999999999,0.0,30.0,50.0,0.0,0.0,6.891079219096663,-2.5081477177215694,0.0,-0.0,6.891079219096663,-2.5081477177215694
22.000000000000043,1138.0579688281418,782.1655717604102,988.95000000001,110.49999999999999,0.0,30.0,50.0,0.0,0.0,6.868929387821584,-2.5681874625694268,0.0,-0.0,6.868929387821584,-2.5681874625694268
22.100000000000044,1144.9042252891213,779.5375401304113,988.9000000000101,110.99999999999999,0.0,30.0,50.0,0.0,0.0,6.846256460979482,-2.6280316299988673,0.0,-0.0,6.846256460979482,-2.6280316299988673
22.200000000000045,1151.7272874543228,776.8498644677665,988.8500000000101,111.49999999999999,0.0,30.0,50.0,0.0,0.0,6.823062165201515,-2.6876756626448453,0.0,-0.0,6.823062165201515,-2.6876756626448453
22.300000000000047,1158.5266357211458,774.102749449383,988.8000000000102,111.99999999999999,0.0,30.0,50.0,0.0,0.0,6.7993482668231096,-2.7471150183833535,0.0,-0.0,6.7993482668231096,-2.7471150183833535
22.40000000000005,1165.3017522928953,771.2964042787057,988.7500000000102,112.49999999999999,0.0,30.0,50.0,0.0,0.0,6.775116571749439,-2.8063451706773237,0.0,-0.0,6.775116571749439,-2.8063451706773237
22.50000000000005,1172.0521212182132,768.4310426697843,988.7000000000103,112.99999999999999,0.0,30.0,50.0,0.0,0.0,6.750368925317898,-2.86536160892134,0.0,-0.0,6.750368925317898,-2.86536160892134
22.60000000000005,1178.7772284303708,765.5068828309992,988.6500000000103,113.49999999999999,0.0,30.0,50.0,0.0,0.0,6.725107212157578,-2.9241598387851377,0.0,-0.0,6.725107212157578,-2.9241598387851377
22.700000000000053,1185.4765617864166,762.5241474484433,988.6000000000104,113.99999999999999,0.0,30.0,50.0,0.0,0.0,6.6993333560457415,-2.9827353825558673,0.0,-0.0,6.6993333560457415,-2.9827353825558673
22.800000000000054,1192.1496111061779,759.4830636689642,988.5500000000104,114.49999999999999,0.0,30.0,50.0,0.0,0.0,6.673049319761319,-3.0410837794790853,0.0,-0.0,6.673049319761319,-3.0410837794790853
22.900000000000055,1198.7958682111132,756.3838630828657,988.5000000000105,114.99999999999999,0.0,30.0,50.0,0.0,0.0,6.646257104935435,-3.0992005860984615,0.0,-0.0,6.646257104935435,-3.0992005860984615
23.000000000000057,1205.4148269630123,753.2267817062715,988.4500000000105,115.49999999999999,0.0,30.0,50.0,0.0,0.0,6.6189587518989805,-3.157081376594163,0.0,-0.0,6.6189587518989805,-3.157081376594163
23.10000000000006,1212.0059833025396,750.0120599631516,988.4000000000106,115.99999999999999,0.0,30.0,50.0,0.0,0.0,6.591156339527227,-3.2147217431199,0.0,-0.0,6.591156339527227,-3.2147217431199
23.20000000000006,1218.5688352876211,746.739942667013,988.3500000000106,116.49999999999999,0.0,30.0,50.0,0.0,0.0,6.56285198508152,-3.2721172961385965,0.0,-0.0,6.56285198508152,-3.2721172961385965
23.30000000000006,1225.1028831316692,743.4106790022563,988.3000000000106,116.99999999999999,0.0,30.0,50.0,0.0,0.0,6.534047844048033,-3.329263664756675,0.0,-0.0,6.534047844048033,-3.329263664756675
23.400000000000063,1231.6076292416428,740.0245225051993,988.2500000000107,117.49999999999999,0.0,30.0,50.0,0.0,0.0,6.504746109973628,-3.386156497056915,0.0,-0.0,6.504746109973628,-3.386156497056915
23.500000000000064,1238.0825782559416,736.5817310447695,988.2000000000107,117.99999999999999,0.0,30.0,50.0,0.0,0.0,6.4749490142988,-3.4427914604298646,0.0,-0.0,6.4749490142988,-3.4427914604298646
23.600000000000065,1244.5272370821294,733.0825668028657,988.1500000000108,118.49999999999999,0.0,30.0,50.0,0.0,0.0,6.444658826187748,-3.499164241903794,0.0,-0.0,6.444658826187748,-3.499164241903794
23.700000000000067,1250.941114934485,729.5272962543926,988.1000000000108,118.99999999999999,0.0,30.0,50.0,0.0,0.0,6.413877852355571,-3.5552705484731373,0.0,-0.0,6.413877852355571,-3.5552705484731373
23.800000000000068,1257.3237233713776,725.9161901469672,988.0500000000109,119.49999999999999,0.0,30.0,50.0,0.0,0.0,6.3826084368926,-3.6111061074254245,0.0,-0.0,6.3826084368926,-3.6111061074254245
23.90000000000007,1263.6745763324634,722.2495234803006,988.0000000000109,119.99999999999999,0.0,30.0,50.0,0.0,0.0,6.350852961085886,-3.6666666666666656,0.0,-0.0,6.350852961085886,-3.6666666666666656
24.00000000000007,1269.9931901757013,718.5275754852554,987.950000000011,120.49999999999999,0.0,30.0,50.0,0.0,0.0,6.318613843237858,-3.7219479950451633,0.0,-0.0,6.318613843237858,-3.7219479950451633
24.100000000000072,1276.2790837141836,714.7506296025816,987.900000000011,120.99999999999999,0.0,30.0,50.0,0.0,0.0,6.285893538482159,-3.7769458826737305,0.0,-0.0,6.285893538482159,-3.7769458826737305
24.200000000000074,1282.5317782527802,710.9189734613313,987.850000000011,121.49999999999999,0.0,30.0,50.0,0.0,0.0,6.252694538596679,-3.831656141250291,0.0,-0.0,6.252694538596679,-3.831656141250291
24.300000000000075,1288.750797624594,707.0328988569545,987.8000000000111,121.99999999999999,0.0,30.0,50.0,0.0,0.0,6.2190193718137925,-3.886074604376836,0.0,-0.0,6.2190193718137925,-3.886074604376836
24.400000000000077,1294.9356682272219,703.0927017290778,987.7500000000111,122.49999999999999,0.0,30.0,50.0,0.0,0.0,6.18487060262783,-3.940197127876707,0.0,-0.0,6.18487060262783,-3.940197127876707
24.500000000000078,1301.0859190588217,699.0986821389677,987.7000000000112,122.99999999999999,0.0,30.0,50.0,0.0,0.0,6.150250831599778,-3.994019590110198,0.0,-0.0,6.150250831599778,-3.994019590110198
24.60000000000008,1307.2010817539808,695.0511442466792,987.6500000000112,123.49999999999999,0.0,30.0,50.0,0.0,0.0,6.115162695159236,-4.0475378922884255,0.0,-0.0,6.115162695159236,-4.0475378922884255
24.70000000000008,1313.2806906193844,690.9503962878937,987.6000000000113,123.99999999999999,0.0,30.0,50.0,0.0,0.0,6.0796088654036415,-4.100747958785476,0.0,-0.0,6.0796088654036415,-4.100747958785476
24.800000000000082,1319.3242826692792,686.7967505504449,987.5500000000113,124.49999999999999,0.0,30.0,50.0,0.0,0.0,6.043592049894784,-4.153645737448773,0.0,-0.0,6.043592049894784,-4.153645737448773
24.900000000000084,1325.331397660732,682.5905233505373,987.5000000000114,124.99999999999999,0.0,30.0,50.0,0.0,0.0,6.0071149914526085,-4.20622719990767,0.0,-0.0,6.0071149914526085,-4.20622719990767
25.000000000000085,1331.3015781286783,678.332035008657,987.4500000000114,125.49999999999999,0.0,30.0,50.0,0.0,0.0,5.970180467946343,-4.258488341880224,0.0,-0.0,5.970180467946343,-4.258488341880224
25.100000000000087,1337.2343694207614,674.0216098251789,987.4000000000115,125.99999999999999,0.0,30.0,50.0,0.0,0.0,5.93279129208295,-4.310425183478135,0.0,-0.0,5.93279129208295,-4.310425183478135
25.200000000000088,1343.1293197319544,669.659576055669,987.3500000000115,126.49999999999999,0.0,30.0,50.0,0.0,0.0,5.89495031119293,-4.362033769509836,0.0,-0.0,5.89495031119293,-4.362033769509836
25.30000000000009,1348.985980138968,665.2462658858874,987.3000000000116,126.99999999999999,0.0,30.0,50.0,0.0,0.0,5.856660407013483,-4.4133101697816866,0.0,-0.0,5.856660407013483,-4.4133101697816866
25.40000000000009,1354.803904634437,660.7820154064901,987.2500000000116,127.49999999999999,0.0,30.0,50.0,0.0,0.0,5.81792449546906,-4.464250479397284,0.0,-0.0,5.81792449546906,-4.464250479397284
25.500000000000092,1360.5826501608863,656.2671645874353,987.2000000000116,127.99999999999999,0.0,30.0,50.0,0.0,0.0,5.778745526449296,-4.514850819054827,0.0,-0.0,5.778745526449296,-4.514850819054827
25.600000000000094,1366.3217766444707,651.7020572520928,987.1500000000117,128.49999999999997,0.0,30.0,50.0,0.0,0.0,5.739126483584372,-4.5651073353425415,0.0,-0.0,5.739126483584372,-4.5651073353425415
25.700000000000095,1372.0208470284886,647.0870410510606,987.1000000000117,128.99999999999997,0.0,30.0,50.0,0.0,0.0,5.69907038401779,-4.615016201032139,0.0,-0.0,5.69907038401779,-4.615016201032139
25.800000000000097,1377.6794273066653,642.4224674356904,987.0500000000118,129.49999999999997,0.0,30.0,50.0,0.0,0.0,5.658580278176617,-4.664573615370267,0.0,-0.0,5.658580278176617,-4.664573615370267
25.900000000000098,1383.2970865562045,637.7086916313224,987.0000000000118,129.99999999999997,0.0,30.0,50.0,0.0,0.0,5.617659249539176,-4.713775804367953,0.0,-0.0,5.617659249539176,-4.713775804367953
26.0000000000001,1388.8733969706047,632.9460726102344,986.9500000000119,130.49999999999997,0.0,30.0,50.0,0.0,0.0,5.57631041440023,-4.762619021088011,0.0,-0.0,5.57631041440023,-4.762619021088011
26.1000000000001,1394.4079338922384,628.1349730643041,986.9000000000119,130.99999999999997,0.0,30.0,50.0,0.0,0.0,5.534536921633665,-4.811099545930384,0.0,-0.0,5.534536921633665,-4.811099545930384
26.200000000000102,1399.9002758446911,623.2757593773887,986.850000000012,131.49999999999997,0.0,30.0,50.0,0.0,0.0,5.492341952452686,-4.859213686915406,0.0,-0.0,5.492341952452686,-4.859213686915406
26.300000000000104,1405.3500045648586,618.3688015974237,986.800000000012,131.99999999999997,0.0,30.0,50.0,0.0,0.0,5.4497287201675615,-4.906957779964958,0.0,-0.0,5.4497287201675615,-4.906957779964958
26.400000000000105,1410.7567050347996,613.4144734082422,986.750000000012,132.49999999999997,0.0,30.0,50.0,0.0,0.0,5.406700469940914,-4.954328189181506,0.0,-0.0,5.406700469940914,-4.954328189181506
26.500000000000107,1416.11996551334,608.4131521011172,986.7000000000121,132.99999999999997,0.0,30.0,50.0,0.0,0.0,5.363260478540587,-5.001321307124988,0.0,-0.0,5.363260478540587,-5.001321307124988
26.600000000000108,1421.4393775674303,603.3652185460297,986.6500000000121,133.49999999999997,0.0,30.0,50.0,0.0,0.0,5.319412054090113,-5.0479335550875275,0.0,-0.0,5.319412054090113,-5.0479335550875275
26.70000000000011,1426.714536103247,598.2710571626637,986.6000000000122,133.99999999999997,0.0,30.0,50.0,0.0,0.0,5.275158535816779,-5.094161383365979,0.0,-0.0,5.275158535816779,-5.094161383365979
26.80000000000011,1431.9450393970442,593.1310558911315,986.5500000000122,134.49999999999997,0.0,30.0,50.0,0.0,0.0,5.230503293797335,-5.140001271532238,0.0,-0.0,5.230503293797335,-5.140001271532238
26.900000000000112,1437.1304891257455,587.9456061624302,986.5000000000123,134.99999999999997,0.0,30.0,50.0,0.0,0.0,5.185449728701353,-5.185449728701347,0.0,-0.0,5.185449728701353,-5.185449728701347
27.000000000000114,1442.2704903972779,582.7151028686328,986.4500000000123,135.49999999999997,0.0,30.0,50.0,0.0,0.0,5.1400012715322445,-5.230503293797329,0.0,-0.0,5.1400012715322445,-5.230503293797329
27.100000000000115,1447.3646517806437,577.439944332816,986.4000000000124,135.99999999999997,0.0,30.0,50.0,0.0,0.0,5.094161383365983,-5.275158535816774,0.0,-0.0,5.094161383365983,-5.275158535816774
27.200000000000117,1452.4125853357314,572.1205322787259,986.3500000000124,136.49999999999997,0.0,30.0,50.0,0.0,0.0,5.047933555087532,-5.319412054090108,0.0,-0.0,5.047933555087532,-5.319412054090108
27.300000000000118,1457.4139066428563,566.7572718001853,986.3000000000125,136.99999999999997,0.0,30.0,50.0,0.0,0.0,5.001321307124993,-5.363260478540582,0.0,-0.0,5.001321307124993,-5.363260478540582
27.40000000000012,1462.3682348320378,561.3505713302444,986.2500000000125,137.49999999999997,0.0,30.0,50.0,0.0,0.0,4.954328189181512,-5.406700469940907,0.0,-0.0,4.954328189181512,-5.406700469940907
27.50000000000012,1467.275192612003,555.9008426100769,986.2000000000126,137.99999999999997,0.0,30.0,50.0,0.0,0.0,4.906957779964964,-5.449728720167556,0.0,-0.0,4.906957779964964,-5.449728720167556
27.600000000000122,1472.1344062989183,550.4085006576242,986.1500000000126,138.49999999999997,0.0,30.0,50.0,0.0,0.0,4.859213686915413,-5.492341952452681,0.0,-0.0,4.859213686915413,-5.492341952452681
27.700000000000124,1476.9455058448486,544.8739637359906,986.1000000000126,138.99999999999997,0.0,30.0,50.0,0.0,0.0,4.81109954593039,-5.53453692163366,0.0,-0.0,4.81109954593039,-5.53453692163366
27.800000000000125,1481.7081248659367,539.2976533215904,986.0500000000127,139.49999999999997,0.0,30.0,50.0,0.0,0.0,4.762619021088017,-5.576310414400226,0.0,-0.0,4.762619021088017,-5.576310414400226
27.900000000000126,1486.4219006703047,533.6799940720512,986.0000000000127,139.99999999999997,0.0,30.0,50.0,0.0,0.0,4.713775804367959,-5.61765924953917,0.0,-0.0,4.713775804367959,-5.61765924953917
28.000000000000128,1491.086474285675,528.0214137938746,985.9500000000128,140.49999999999997,0.0,30.0,50.0,0.0,0.0,4.664573615370273,-5.658580278176611,0.0,-0.0,4.664573615370273,-5.658580278176611
28.10000000000013,1495.7014904867071,522.3223434098568,985.9000000000128,140.99999999999997,0.0,30.0,50.0,0.0,0.0,4.615016201032145,-5.699070384017785,0.0,-0.0,4.615016201032145,-5.699070384017785
28.20000000000013,1500.2665978220498,516.5832169262724,985.8500000000129,141.49999999999997,0.0,30.0,50.0,0.0,0.0,4.565107335342548,-5.739126483584367,0.0,-0.0,4.565107335342548,-5.739126483584367
28.300000000000132,1504.7814486411046,510.80447139982306,985.8000000000129,141.99999999999997,0.0,30.0,50.0,0.0,0.0,4.514850819054831,-5.778745526449294,0.0,-0.0,4.514850819054831,-5.778745526449294
28.400000000000134,1509.245699120502,504.986546904354,985.750000000013,142.49999999999997,0.0,30.0,50.0,0.0,0.0,4.464250479397289,-5.8179244954690565,0.0,-0.0,4.464250479397289,-5.8179244954690565
28.500000000000135,1513.6590092902836,499.1298864973405,985.700000000013,142.99999999999997,0.0,30.0,50.0,0.0,0.0,4.413310169781692,-5.85666040701348,0.0,-0.0,4.413310169781692,-5.85666040701348
28.600000000000136,1518.0210430597936,493.2349361861476,985.650000000013,143.49999999999997,0.0,30.0,50.0,0.0,0.0,4.362033769509841,-5.894950311192925,0.0,-0.0,4.362033769509841,-5.894950311192925
28.700000000000138,1522.3314682432717,487.30214489406467,985.6000000000131,143.99999999999997,0.0,30.0,50.0,0.0,0.0,4.310425183478141,-5.932791292082947,0.0,-0.0,4.310425183478141,-5.932791292082947
28.80000000000014,1526.5899565851519,481.3319644261183,985.5500000000131,144.49999999999997,0.0,30.0,50.0,0.0,0.0,4.258488341880228,-5.9701804679463395,0.0,-0.0,4.258488341880228,-5.9701804679463395
28.90000000000014,1530.7961837850596,475.3248494346657,985.5000000000132,144.99999999999997,0.0,30.0,50.0,0.0,0.0,4.2062271999076755,-6.007114991452606,0.0,-0.0,4.2062271999076755,-6.007114991452606
29.000000000000142,1534.9498295225085,469.2812573847709,985.4500000000132,145.49999999999997,0.0,30.0,50.0,0.0,0.0,4.1536457374487785,-6.04359204989478,0.0,-0.0,4.1536457374487785,-6.04359204989478
29.100000000000144,1539.0505774812939,463.20164851936727,985.4000000000133,145.99999999999997,0.0,30.0,50.0,0.0,0.0,4.1007479587854805,-6.079608865403638,0.0,-0.0,4.1007479587854805,-6.079608865403638
29.200000000000145,1543.0981153735822,457.086485824208,985.3500000000133,146.49999999999997,0.0,30.0,50.0,0.0,0.0,4.047537892288431,-6.115162695159232,0.0,-0.0,4.047537892288431,-6.115162695159232
29.300000000000146,1547.0921349636924,450.93623499260826,985.3000000000134,146.99999999999997,0.0,30.0,50.0,0.0,0.0,3.9940195901102036,-6.1502508315997755,0.0,-0.0,3.9940195901102036,-6.1502508315997755
29.400000000000148,1551.032332091569,444.75136438998044,985.2500000000134,147.49999999999997,0.0,30.0,50.0,0.0,0.0,3.940197127876712,-6.184870602627828,0.0,-0.0,3.940197127876712,-6.184870602627828
29.50000000000015,1554.9184066959458,438.53234501816667,985.2000000000135,147.99999999999997,0.0,30.0,50.0,0.0,0.0,3.886074604376841,-6.219019371813789,0.0,-0.0,3.886074604376841,-6.219019371813789
29.60000000000015,1558.750062837196,432.27965047956997,985.1500000000135,148.49999999999997,0.0,30.0,50.0,0.0,0.0,3.831656141250295,-6.252694538596676,0.0,-0.0,3.831656141250295,-6.252694538596676
29.700000000000152,1562.5270087198699,425.9937569410878,985.1000000000136,148.99999999999997,0.0,30.0,50.0,0.0,0.0,3.7769458826737354,-6.285893538482156,0.0,-0.0,3.7769458826737354,-6.285893538482156
29.800000000000153,1566.248956714915,419.6751430978499,985.0500000000136,149.49999999999997,0.0,30.0,50.0,0.0,0.0,3.721947995045169,-6.318613843237854,0.0,-0.0,3.721947995045169,-6.318613843237854
29.900000000000155,1569.9156233815818,413.32429013676403,985.0000000000136,149.99999999999997,0.0,30.0,50.0,0.0,0.0,3.6666666666666705,-6.350852961085883,0.0,-0.0,3.6666666666666705,-6.350852961085883
30.000000000000156,1573.5267294890073,406.9416816998714,984.9500000000137,150.49999999999997,0.0,30.0,50.0,0.0,0.0,3.611106107425429,-6.382608436892597,0.0,-0.0,3.611106107425429,-6.382608436892597
30.100000000000158,1577.0820000374804,400.5278038475159,984.9000000000137,150.99999999999997,0.0,30.0,50.0,0.0,0.0,3.5552705484731426,-6.413877852355569,0.0,-0.0,3.5552705484731426,-6.413877852355569
30.20000000000016,1580.5811642793842,394.08314502132816,984.8500000000138,151.49999999999997,0.0,30.0,50.0,0.0,0.0,3.4991642419037996,-6.444658826187745,0.0,-0.0,3.4991642419037996,-6.444658826187745
30.30000000000016,1584.023955739814,387.6081960070294,984.8000000000138,151.99999999999997,0.0,30.0,50.0,0.0,0.0,3.44279146042987,-6.474949014298796,0.0,-0.0,3.44279146042987,-6.474949014298796
30.400000000000162,1587.4101122368709,381.1034498970558,984.7500000000139,152.49999999999997,0.0,30.0,50.0,0.0,0.0,3.3861564970569202,-6.504746109973625,0.0,-0.0,3.3861564970569202,-6.504746109973625
30.500000000000163,1590.7393759016275,374.56940205300776,984.7000000000139,152.99999999999997,0.0,30.0,50.0,0.0,0.0,3.3292636647566805,-6.534047844048031,0.0,-0.0,3.3292636647566805,-6.534047844048031
