time,x,y,altitude,yaw,pitch,roll,speed,wind_dir,wind_spd,dx,dy,wind_dx,wind_dy,vmg_dx,vmg_dy
0.0,0.19198378096422572,21.99916230741177,999.95,0.49999999999999994,0.0,30.0,150.0,0.0,0.0,0.19198378096422572,21.99916230741177,0.0,-0.0,0.19198378096422572,21.99916230741177
0.1,0.5759367225844649,43.99581160085238,999.9000000000001,0.9999999999999999,0.0,30.0,150.0,0.0,0.0,0.3839529416202392,21.99664929344061,0.0,-0.0,0.3839529416202392,21.99664929344061
0.2,1.151829585357679,65.98827275031464,999.8500000000001,1.4999999999999998,0.0,30.0,150.0,0.0,0.0,0.5758928627732139,21.992461149462258,0.0,-0.0,0.5758928627732139,21.992461149462258
0.30000000000000004,1.9196185128127028,87.97487094473475,999.8000000000002,1.9999999999999998,0.0,30.0,150.0,0.0,0.0,0.7677889274550238,21.986598194420107,0.0,-0.0,0.7677889274550238,21.986598194420107
0.4,2.879245034850095,109.95393181953563,999.7500000000002,2.4999999999999996,0.0,30.0,150.0,0.0,0.0,0.9596265220373922,21.979060874800872,0.0,-0.0,0.9596265220373922,21.979060874800872
0.5,4.030636072194862,131.92378158413624,999.7000000000003,2.9999999999999996,0.0,30.0,150.0,0.0,0.0,1.1513910373447673,21.969849764600625,0.0,-0.0,1.1513910373447673,21.969849764600625
0.6,5.373703941961714,153.8827471494173,999.6500000000003,3.4999999999999996,0.0,30.0,150.0,0.0,0.0,1.3430678697668519,21.958965565281073,0.0,-0.0,1.3430678697668519,21.958965565281073
0.7,6.908346364332469,175.82915625513343,999.6000000000004,3.9999999999999996,0.0,30.0,150.0,0.0,0.0,1.534642422370755,21.946409105716132,0.0,-0.0,1.534642422370755,21.946409105716132
0.7999999999999999,8.63444647034506,197.76133759726224,999.5500000000004,4.499999999999999,0.0,30.0,150.0,0.0,0.0,1.72610010601259,21.932181342128814,0.0,-0.0,1.72610010601259,21.932181342128814
0.8999999999999999,10.551872810793544,219.67762095528064,999.5000000000005,4.999999999999999,0.0,30.0,150.0,0.0,0.0,1.917426340448484,21.9162833580184,0.0,-0.0,1.917426340448484,21.9162833580184
0.9999999999999999,12.660479366238473,241.57633731935857,999.4500000000005,5.499999999999999,0.0,30.0,150.0,0.0,0.0,2.1086065554449296,21.898716364077934,0.0,-0.0,2.1086065554449296,21.898716364077934
1.0999999999999999,14.960105558126848,263.4558190174606,999.4000000000005,5.999999999999999,0.0,30.0,150.0,0.0,0.0,2.2996261918883762,21.879481698102012,0.0,-0.0,2.2996261918883762,21.879481698102012
1.2,17.4505762610208,285.31439984234555,999.3500000000006,6.499999999999999,0.0,30.0,150.0,0.0,0.0,2.4904707028939503,21.858580824884925,0.0,-0.0,2.4904707028939503,21.858580824884925
1.3,20.131701815934044,307.15041517845464,999.3000000000006,6.999999999999999,0.0,30.0,150.0,0.0,0.0,2.681125554913245,21.836015336109085,0.0,-0.0,2.681125554913245,21.836015336109085
1.4000000000000001,23.003278044775183,328.9622021286785,999.2500000000007,7.499999999999999,0.0,30.0,150.0,0.0,0.0,2.8715762288411377,21.81178695022383,0.0,-0.0,2.8715762288411377,21.81178695022383
1.5000000000000002,26.065086265896625,350.748099640993,999.2000000000007,7.999999999999999,0.0,30.0,150.0,0.0,0.0,3.0618082211214404,21.78589751231455,0.0,-0.0,3.0618082211214404,21.78589751231455
1.6000000000000003,29.31689331074806,372.5064486349552,999.1500000000008,8.499999999999998,0.0,30.0,150.0,0.0,0.0,3.2518070448514367,21.75834899396217,0.0,-0.0,3.2518070448514367,21.75834899396217
1.7000000000000004,32.75845154163314,394.2355921280482,999.1000000000008,8.999999999999998,0.0,30.0,150.0,0.0,0.0,3.4415582308850805,21.72914349309303,0.0,-0.0,3.4415582308850805,21.72914349309303
1.8000000000000005,36.38949887056805,415.9338753618673,999.0500000000009,9.499999999999998,0.0,30.0,150.0,0.0,0.0,3.631047328934907,21.69828323381909,0.0,-0.0,3.631047328934907,21.69828323381909
1.9000000000000006,40.209758779240516,437.5996459281359,999.0000000000009,9.999999999999998,0.0,30.0,150.0,0.0,0.0,3.820259908672469,21.665770566268577,0.0,-0.0,3.820259908672469,21.665770566268577
2.0000000000000004,44.21894034006777,459.2312538945429,998.950000000001,10.499999999999998,0.0,30.0,150.0,0.0,0.0,4.0091815608272485,21.631607966407,0.0,-0.0,4.0091815608272485,21.631607966407
2.1000000000000005,48.416738238351755,480.82705193039146,998.900000000001,10.999999999999998,0.0,30.0,150.0,0.0,0.0,4.197797898283988,21.595798035848606,0.0,-0.0,4.197797898283988,21.595798035848606
2.2000000000000006,52.802832795530094,502.38539543204973,998.850000000001,11.499999999999998,0.0,30.0,150.0,0.0,0.0,4.386094557178338,21.55834350165825,0.0,-0.0,4.386094557178338,21.55834350165825
2.3000000000000007,57.3768899935208,523.9046426481934,998.8000000000011,11.999999999999998,0.0,30.0,150.0,0.0,0.0,4.574057197990703,21.519247216143725,0.0,-0.0,4.574057197990703,21.519247216143725
2.400000000000001,62.138561500159064,545.383154804832,998.7500000000011,12.499999999999998,0.0,30.0,150.0,0.0,0.0,4.7616715066382636,21.478512156638534,0.0,-0.0,4.7616715066382636,21.478512156638534
2.500000000000001,67.0874846957241,566.8192962301072,998.7000000000012,12.999999999999998,0.0,30.0,150.0,0.0,0.0,4.948923195565033,21.436141425275174,0.0,-0.0,4.948923195565033,21.436141425275174
2.600000000000001,72.22328270055402,588.2114344788561,998.6500000000012,13.499999999999998,0.0,30.0,150.0,0.0,0.0,5.135798004829921,21.392138248748886,0.0,-0.0,5.135798004829921,21.392138248748886
2.700000000000001,77.54556440374671,609.557940456928,998.6000000000013,13.999999999999998,0.0,30.0,150.0,0.0,0.0,5.322281703192689,21.34650597807192,0.0,-0.0,5.322281703192689,21.34650597807192
2.800000000000001,83.05392449294442,630.8571885452463,998.5500000000013,14.499999999999998,0.0,30.0,150.0,0.0,0.0,5.508360089197713,21.29924808831837,0.0,-0.0,5.508360089197713,21.29924808831837
2.9000000000000012,88.74794348519987,652.1075567236059,998.5000000000014,14.999999999999998,0.0,30.0,150.0,0.0,0.0,5.694018992255456,21.2503681783595,0.0,-0.0,5.694018992255456,21.2503681783595
3.0000000000000013,94.62718775892152,673.3074266941956,998.4500000000014,15.499999999999998,0.0,30.0,150.0,0.0,0.0,5.879244273721653,21.199869970589706,0.0,-0.0,5.879244273721653,21.199869970589706
3.1000000000000014,100.6912095868955,694.4551840048385,998.4000000000015,15.999999999999998,0.0,30.0,150.0,0.0,0.0,6.064021827973981,21.147757310643016,0.0,-0.0,6.064021827973981,21.147757310643016
3.2000000000000015,106.9395471703818,715.5492181719388,998.3500000000015,16.499999999999996,0.0,30.0,150.0,0.0,0.0,6.2483375834863,21.094034167100247,0.0,-0.0,6.2483375834863,21.094034167100247
3.3000000000000016,113.371724674282,736.5879228031256,998.3000000000015,16.999999999999996,0.0,30.0,150.0,0.0,0.0,6.432177503900209,21.03870463118678,0.0,-0.0,6.432177503900209,21.03870463118678
3.4000000000000017,119.987252263376,757.5696957195865,998.2500000000016,17.499999999999996,0.0,30.0,150.0,0.0,0.0,6.6155275890940075,20.981772916460994,0.0,-0.0,6.6155275890940075,20.981772916460994
3.5000000000000018,126.78562613962485,778.4929390780799,998.2000000000016,17.999999999999996,0.0,30.0,150.0,0.0,0.0,6.798373876248844,20.923243358493377,0.0,-0.0,6.798373876248844,20.923243358493377
3.600000000000002,133.76632858053688,799.3560594926163,998.1500000000017,18.499999999999996,0.0,30.0,150.0,0.0,0.0,6.980702440912031,20.863120414536386,0.0,-0.0,6.980702440912031,20.863120414536386
3.700000000000002,140.9288279785943,820.1574681558012,998.1000000000017,18.999999999999996,0.0,30.0,150.0,0.0,0.0,7.162499398057449,20.80140866318497,0.0,-0.0,7.162499398057449,20.80140866318497
3.800000000000002,148.27257888173727,840.8955809598291,998.0500000000018,19.499999999999996,0.0,30.0,150.0,0.0,0.0,7.3437509031429595,20.738112804027924,0.0,-0.0,7.3437509031429595,20.738112804027924
3.900000000000002,155.797022034902,861.5688186171191,998.0000000000018,19.999999999999996,0.0,30.0,150.0,0.0,0.0,7.5244431531647145,20.673237657289985,0.0,-0.0,7.5244431531647145,20.673237657289985
4.000000000000002,163.50158442261028,882.1756067805838,997.9500000000019,20.499999999999996,0.0,30.0,150.0,0.0,0.0,7.704562387708283,20.606788163464746,0.0,-0.0,7.704562387708283,20.606788163464746
4.100000000000001,171.3856793126069,902.7143761635223,997.9000000000019,20.999999999999996,0.0,30.0,150.0,0.0,0.0,7.884094889996604,20.538769382938437,0.0,-0.0,7.884094889996604,20.538769382938437
4.200000000000001,179.44870630054143,923.1835626591268,997.850000000002,21.499999999999996,0.0,30.0,150.0,0.0,0.0,8.06302698793454,20.46918649560454,0.0,-0.0,8.06302698793454,20.46918649560454
4.300000000000001,187.6900513556915,943.5816074595961,997.800000000002,21.999999999999996,0.0,30.0,150.0,0.0,0.0,8.241345055150068,20.39804480046932,0.0,-0.0,8.241345055150068,20.39804480046932
4.4,196.10908686772348,963.9069571748444,997.750000000002,22.499999999999996,0.0,30.0,150.0,0.0,0.0,8.419035512031977,20.325349715248308,0.0,-0.0,8.419035512031977,20.325349715248308
4.5,204.7051716944875,984.158063950798,997.7000000000021,22.999999999999996,0.0,30.0,150.0,0.0,0.0,8.596084826764022,20.251106775953687,0.0,-0.0,8.596084826764022,20.251106775953687
4.6,213.4776512108429,1004.3333855872708,997.6500000000021,23.499999999999996,0.0,30.0,150.0,0.0,0.0,8.772479516355418,20.17532163647273,0.0,-0.0,8.772479516355418,20.17532163647273
4.699999999999999,222.4258573585105,1024.431385655408,997.6000000000022,23.999999999999996,0.0,30.0,150.0,0.0,0.0,8.948206147667609,20.098000068137218,0.0,-0.0,8.948206147667609,20.098000068137218
4.799999999999999,231.54910869694777,1044.450533614692,997.5500000000022,24.499999999999996,0.0,30.0,150.0,0.0,0.0,9.12325133843726,20.019147959283952,0.0,-0.0,9.12325133843726,20.019147959283952
4.899999999999999,240.84671045524317,1064.3893049294982,997.5000000000023,24.999999999999996,0.0,30.0,150.0,0.0,0.0,9.297601758295388,19.9387713148063,0.0,-0.0,9.297601758295388,19.9387713148063
4.999999999999998,250.31795458502566,1084.2461811851952,997.4500000000023,25.499999999999996,0.0,30.0,150.0,0.0,0.0,9.471244129782495,19.856876255696932,0.0,-0.0,9.471244129782495,19.856876255696932
5.099999999999998,259.96211981438535,1104.0196502037768,997.4000000000024,25.999999999999996,0.0,30.0,150.0,0.0,0.0,9.644165229359704,19.773469018581675,0.0,-0.0,9.644165229359704,19.773469018581675
5.1999999999999975,269.77847170280114,1123.7082061590213,997.3500000000024,26.499999999999996,0.0,30.0,150.0,0.0,0.0,9.816351888415792,19.688555955244553,0.0,-0.0,9.816351888415792,19.688555955244553
5.299999999999997,279.76626269707117,1143.3103496911654,997.3000000000025,26.999999999999996,0.0,30.0,150.0,0.0,0.0,9.98779099427003,19.60214353214409,0.0,-0.0,9.98779099427003,19.60214353214409
5.399999999999997,289.92473218824193,1162.8245880210861,997.2500000000025,27.499999999999996,0.0,30.0,150.0,0.0,0.0,10.15846949117075,19.514238329920875,0.0,-0.0,10.15846949117075,19.514238329920875
5.4999999999999964,300.25310656953155,1182.2494350639824,997.2000000000025,27.999999999999996,0.0,30.0,150.0,0.0,0.0,10.3283743812896,19.424847042896392,0.0,-0.0,10.3283743812896,19.424847042896392
5.599999999999996,310.7505992952429,1201.5834115425457,997.1500000000026,28.499999999999996,0.0,30.0,150.0,0.0,0.0,10.497492725711385,19.333976478563237,0.0,-0.0,10.497492725711385,19.333976478563237
5.699999999999996,321.41641094066233,1220.8250450996125,997.1000000000026,28.999999999999996,0.0,30.0,150.0,0.0,0.0,10.665811645419417,19.241633557066706,0.0,-0.0,10.665811645419417,19.241633557066706
5.799999999999995,332.2497292629386,1239.9728704102902,997.0500000000027,29.499999999999996,0.0,30.0,150.0,0.0,0.0,10.833318322276277,19.147825310677792,0.0,-0.0,10.833318322276277,19.147825310677792
5.899999999999995,343.2497292629386,1259.0254292935479,997.0000000000027,29.999999999999996,0.0,30.0,150.0,0.0,0.0,11.000000000000002,19.05255888325765,0.0,-0.0,11.000000000000002,19.05255888325765
5.999999999999995,354.4155732480741,1277.9812708232614,996.9500000000028,30.499999999999996,0.0,30.0,150.0,0.0,0.0,11.165843985135492,18.955841529713567,0.0,-0.0,11.165843985135492,18.955841529713567
6.099999999999994,365.7464108960953,1296.838951438708,996.9000000000028,30.999999999999996,0.0,30.0,150.0,0.0,0.0,11.330837648021197,18.85768061544647,0.0,-0.0,11.330837648021197,18.85768061544647
6.199999999999994,377.2413793198462,1315.5970350544978,996.8500000000029,31.499999999999996,0.0,30.0,150.0,0.0,0.0,11.494968423750876,18.758083615790028,0.0,-0.0,11.494968423750876,18.758083615790028
6.299999999999994,388.8996031329767,1334.254093169939,996.8000000000029,31.999999999999996,0.0,30.0,150.0,0.0,0.0,11.658223813130508,18.657058115441373,0.0,-0.0,11.658223813130508,18.657058115441373
6.399999999999993,400.72019451660685,1352.8087049778226,996.750000000003,32.49999999999999,0.0,30.0,150.0,0.0,0.0,11.82059138363012,18.55461180788349,0.0,-0.0,11.82059138363012,18.55461180788349
6.499999999999993,412.70225328693743,1371.259457472622,996.700000000003,32.99999999999999,0.0,30.0,150.0,0.0,0.0,11.982058770330596,18.450752494799328,0.0,-0.0,11.982058770330596,18.450752494799328
6.5999999999999925,424.8448669638027,1389.6049455580996,996.650000000003,33.49999999999999,0.0,30.0,150.0,0.0,0.0,12.142613676865277,18.3454880854777,0.0,-0.0,12.142613676865277,18.3454880854777
6.699999999999992,437.14711084015914,1407.8437721543105,996.6000000000031,33.99999999999999,0.0,30.0,150.0,0.0,0.0,12.302243876356426,18.238826596210917,0.0,-0.0,12.302243876356426,18.238826596210917
6.799999999999992,449.60804805250547,1425.9745483039949,996.5500000000031,34.49999999999999,0.0,30.0,150.0,0.0,0.0,12.460937212346323,18.130776149684344,0.0,-0.0,12.460937212346323,18.130776149684344
6.8999999999999915,462.22672965222847,1443.9958932783527,996.5000000000032,34.99999999999999,0.0,30.0,150.0,0.0,0.0,12.618681599723013,18.02134497435782,0.0,-0.0,12.618681599723013,18.02134497435782
6.999999999999991,475.00219467786917,1461.9064346821917,996.4500000000032,35.49999999999999,0.0,30.0,150.0,0.0,0.0,12.775465025640672,17.910541403839023,0.0,-0.0,12.775465025640672,17.910541403839023
7.099999999999991,487.9334702283036,1479.7048085584406,996.4000000000033,35.99999999999999,0.0,30.0,150.0,0.0,0.0,12.931275550434407,17.798373876248846,0.0,-0.0,12.931275550434407,17.798373876248846
7.19999999999999,501.0195715368331,1497.3896594920193,996.3500000000033,36.49999999999999,0.0,30.0,150.0,0.0,0.0,13.086101308529505,17.684850933578783,0.0,-0.0,13.086101308529505,17.684850933578783
7.29999999999999,514.2595020461781,1514.9596407130598,996.3000000000034,36.99999999999999,0.0,30.0,150.0,0.0,0.0,13.23993050934506,17.569981221040443,0.0,-0.0,13.23993050934506,17.569981221040443
7.39999999999999,527.65225348437,1532.413414199467,996.2500000000034,37.49999999999999,0.0,30.0,150.0,0.0,0.0,13.392751438191855,17.453773486407172,0.0,-0.0,13.392751438191855,17.453773486407172
7.499999999999989,541.1968059415345,1549.749650778815,996.2000000000035,37.99999999999999,0.0,30.0,150.0,0.0,0.0,13.544552457164482,17.336236579347883,0.0,-0.0,13.544552457164482,17.336236579347883
7.599999999999989,554.8921279475621,1566.967030229568,996.1500000000035,38.49999999999999,0.0,30.0,150.0,0.0,0.0,13.695322006027627,17.217379450753107,0.0,-0.0,13.695322006027627,17.217379450753107
7.699999999999989,568.7371765506585,1584.0642413816215,996.1000000000035,38.99999999999999,0.0,30.0,150.0,0.0,0.0,13.845048603096423,17.09721115205336,0.0,-0.0,13.845048603096423,17.09721115205336
7.799999999999988,582.7308973967694,1601.0399822161514,996.0500000000036,39.49999999999999,0.0,30.0,150.0,0.0,0.0,13.993720846110804,16.97574083452984,0.0,-0.0,13.993720846110804,16.97574083452984
7.899999999999988,596.8722248098733,1617.892959964769,996.0000000000036,39.99999999999999,0.0,30.0,150.0,0.0,0.0,14.141327413103866,16.852977748617516,0.0,-0.0,14.141327413103866,16.852977748617516
7.999999999999988,611.1600818731373,1634.6218912079696,995.9500000000037,40.49999999999999,0.0,30.0,150.0,0.0,0.0,14.287857063264038,16.728931243200684,0.0,-0.0,14.287857063264038,16.728931243200684
8.099999999999987,625.5933805109285,1651.2255019728707,995.9000000000037,40.99999999999999,0.0,30.0,150.0,0.0,0.0,14.433298637791161,16.603610764900985,0.0,-0.0,14.433298637791161,16.603610764900985
8.199999999999987,640.1710215716747,1667.7025278302287,995.8500000000038,41.49999999999999,0.0,30.0,150.0,0.0,0.0,14.577641060746222,16.477025857358047,0.0,-0.0,14.577641060746222,16.477025857358047
8.299999999999986,654.8918949115696,1684.0517139907315,995.8000000000038,41.99999999999999,0.0,30.0,150.0,0.0,0.0,14.72087333989488,16.349186160502676,0.0,-0.0,14.72087333989488,16.349186160502676
8.399999999999986,669.7548794791142,1700.2718154005543,995.7500000000039,42.49999999999999,0.0,30.0,150.0,0.0,0.0,14.862984567544522,16.22010140982273,0.0,-0.0,14.862984567544522,16.22010140982273
8.499999999999986,684.7588434004891,1716.361596836176,995.7000000000039,42.99999999999999,0.0,30.0,150.0,0.0,0.0,15.003963921374966,16.08978143562175,0.0,-0.0,15.003963921374966,16.08978143562175
8.599999999999985,699.9026440657517,1732.3198329984464,995.650000000004,43.49999999999999,0.0,30.0,150.0,0.0,0.0,15.143800665262585,15.958236162270328,0.0,-0.0,15.143800665262585,15.958236162270328
8.699999999999985,715.1851282158497,1748.1453086058966,995.600000000004,43.99999999999999,0.0,30.0,150.0,0.0,0.0,15.28248415009794,15.825475607450326,0.0,-0.0,15.28248415009794,15.825475607450326
8.799999999999985,730.6051320304464,1763.8368184872886,995.550000000004,44.49999999999999,0.0,30.0,150.0,0.0,0.0,15.42000381459672,15.691509881391998,0.0,-0.0,15.42000381459672,15.691509881391998
8.899999999999984,746.1614812165504,1779.3931676733926,995.5000000000041,44.99999999999999,0.0,30.0,150.0,0.0,0.0,15.556349186104041,15.556349186104049,0.0,-0.0,15.556349186104041,15.556349186104049
8.999999999999984,761.8529910979424,1794.8131714879892,995.4500000000041,45.49999999999999,0.0,30.0,150.0,0.0,0.0,15.691509881391994,15.42000381459672,0.0,-0.0,15.691509881391994,15.42000381459672
9.099999999999984,777.6784667053928,1810.095655638087,995.4000000000042,45.99999999999999,0.0,30.0,150.0,0.0,0.0,15.825475607450322,15.282484150097941,0.0,-0.0,15.825475607450322,15.282484150097941
9.199999999999983,793.6367028676631,1825.2394563033497,995.3500000000042,46.49999999999999,0.0,30.0,150.0,0.0,0.0,15.958236162270328,15.143800665262589,0.0,-0.0,15.958236162270328,15.143800665262589
9.299999999999983,809.7264843032848,1840.2434202247246,995.3000000000043,46.99999999999999,0.0,30.0,150.0,0.0,0.0,16.08978143562175,15.003963921374968,0.0,-0.0,16.08978143562175,15.003963921374968
9.399999999999983,825.9465857131075,1855.1064047922691,995.2500000000043,47.49999999999999,0.0,30.0,150.0,0.0,0.0,16.22010140982273,14.862984567544528,0.0,-0.0,16.22010140982273,14.862984567544528
9.499999999999982,842.2957718736102,1869.827278132164,995.2000000000044,47.99999999999999,0.0,30.0,150.0,0.0,0.0,16.349186160502672,14.720873339894883,0.0,-0.0,16.349186160502672,14.720873339894883
9.599999999999982,858.7727977309683,1884.4049191929103,995.1500000000044,48.49999999999999,0.0,30.0,150.0,0.0,0.0,16.477025857358047,14.577641060746227,0.0,-0.0,16.477025857358047,14.577641060746227
9.699999999999982,875.3764084958692,1898.8382178307015,995.1000000000045,48.99999999999999,0.0,30.0,150.0,0.0,0.0,16.60361076490098,14.433298637791163,0.0,-0.0,16.60361076490098,14.433298637791163
9.799999999999981,892.1053397390699,1913.1260748939656,995.0500000000045,49.49999999999999,0.0,30.0,150.0,0.0,0.0,16.72893124320068,14.287857063264044,0.0,-0.0,16.72893124320068,14.287857063264044
9.89999999999998,908.9583174876874,1927.2674023070695,995.0000000000045,49.99999999999999,0.0,30.0,150.0,0.0,0.0,16.852977748617516,14.141327413103866,0.0,-0.0,16.852977748617516,14.141327413103866
9.99999999999998,925.9340583222172,1941.2611231531803,994.9500000000046,50.49999999999999,0.0,30.0,150.0,0.0,0.0,16.975740834529837,13.99372084611081,0.0,-0.0,16.975740834529837,13.99372084611081
10.09999999999998,943.0312694742705,1955.1061717562768,994.9000000000046,50.99999999999999,0.0,30.0,150.0,0.0,0.0,17.09721115205336,13.845048603096425,0.0,-0.0,17.09721115205336,13.845048603096425
10.19999999999998,960.2486489250236,1968.8014937623045,994.8500000000047,51.49999999999999,0.0,30.0,150.0,0.0,0.0,17.217379450753103,13.695322006027633,0.0,-0.0,17.217379450753103,13.695322006027633
10.29999999999998,977.5848855043715,1982.346046219469,994.8000000000047,51.99999999999999,0.0,30.0,150.0,0.0,0.0,17.336236579347883,13.544552457164482,0.0,-0.0,17.336236579347883,13.544552457164482
10.399999999999979,995.0386589907787,1995.7387976576608,994.7500000000048,52.49999999999999,0.0,30.0,150.0,0.0,0.0,17.453773486407172,13.392751438191857,0.0,-0.0,17.453773486407172,13.392751438191857
10.499999999999979,1012.6086402118191,2008.9787281670058,994.7000000000048,52.99999999999999,0.0,30.0,150.0,0.0,0.0,17.569981221040443,13.239930509345065,0.0,-0.0,17.569981221040443,13.239930509345065
10.599999999999978,1030.2934911453979,2022.0648294755354,994.6500000000049,53.49999999999999,0.0,30.0,150.0,0.0,0.0,17.68485093357878,13.08610130852951,0.0,-0.0,17.68485093357878,13.08610130852951
10.699999999999978,1048.0918650216468,2034.9961050259699,994.6000000000049,53.99999999999999,0.0,30.0,150.0,0.0,0.0,17.798373876248842,12.931275550434412,0.0,-0.0,17.798373876248842,12.931275550434412
10.799999999999978,1066.0024064254858,2047.7715700516105,994.550000000005,54.49999999999999,0.0,30.0,150.0,0.0,0.0,17.91054140383902,12.775465025640674,0.0,-0.0,17.91054140383902,12.775465025640674
10.899999999999977,1084.0237513998436,2060.3902516513335,994.500000000005,54.99999999999999,0.0,30.0,150.0,0.0,0.0,18.02134497435782,12.618681599723015,0.0,-0.0,18.02134497435782,12.618681599723015
10.999999999999977,1102.154527549528,2072.85118886368,994.450000000005,55.49999999999999,0.0,30.0,150.0,0.0,0.0,18.130776149684344,12.460937212346323,0.0,-0.0,18.130776149684344,12.460937212346323
11.099999999999977,1120.3933541457388,2085.1534327400364,994.4000000000051,55.99999999999999,0.0,30.0,150.0,0.0,0.0,18.238826596210917,12.302243876356432,0.0,-0.0,18.238826596210917,12.302243876356432
11.199999999999976,1138.7388422312165,2097.296046416902,994.3500000000051,56.49999999999999,0.0,30.0,150.0,0.0,0.0,18.3454880854777,12.14261367686528,0.0,-0.0,18.3454880854777,12.14261367686528
11.299999999999976,1157.189594726016,2109.2781051872325,994.3000000000052,56.99999999999999,0.0,30.0,150.0,0.0,0.0,18.450752494799328,11.982058770330598,0.0,-0.0,18.450752494799328,11.982058770330598
11.399999999999975,1175.7442065338994,2121.0986965708626,994.2500000000052,57.49999999999999,0.0,30.0,150.0,0.0,0.0,18.554611807883482,11.820591383630125,0.0,-0.0,18.554611807883482,11.820591383630125
11.499999999999975,1194.4012646493406,2132.756920383993,994.2000000000053,57.99999999999999,0.0,30.0,150.0,0.0,0.0,18.65705811544137,11.65822381313051,0.0,-0.0,18.65705811544137,11.65822381313051
11.599999999999975,1213.1593482651306,2144.251888807744,994.1500000000053,58.49999999999999,0.0,30.0,150.0,0.0,0.0,18.758083615790028,11.494968423750876,0.0,-0.0,18.758083615790028,11.494968423750876
11.699999999999974,1232.017028880577,2155.582726455765,994.1000000000054,58.99999999999999,0.0,30.0,150.0,0.0,0.0,18.85768061544647,11.330837648021195,0.0,-0.0,18.85768061544647,11.330837648021195
11.799999999999974,1250.9728704102906,2166.7485704409005,994.0500000000054,59.49999999999999,0.0,30.0,150.0,0.0,0.0,18.955841529713567,11.165843985135492,0.0,-0.0,18.955841529713567,11.165843985135492
11.899999999999974,1270.0254292935483,2177.7485704409005,994.0000000000055,59.99999999999999,0.0,30.0,150.0,0.0,0.0,19.05255888325765,11.000000000000002,0.0,-0.0,19.05255888325765,11.000000000000002
11.999999999999973,1289.173254604226,2188.5818887631767,993.9500000000055,60.49999999999999,0.0,30.0,150.0,0.0,0.0,19.147825310677792,10.833318322276277,0.0,-0.0,19.147825310677792,10.833318322276277
12.099999999999973,1308.4148881612928,2199.2477004085963,993.9000000000055,60.99999999999999,0.0,30.0,150.0,0.0,0.0,19.241633557066706,10.665811645419417,0.0,-0.0,19.241633557066706,10.665811645419417
12.199999999999973,1327.748864639856,2209.7451931343076,993.8500000000056,61.49999999999999,0.0,30.0,150.0,0.0,0.0,19.333976478563237,10.497492725711387,0.0,-0.0,19.333976478563237,10.497492725711387
12.299999999999972,1347.1737116827524,2220.073567515597,993.8000000000056,61.99999999999999,0.0,30.0,150.0,0.0,0.0,19.424847042896392,10.328374381289597,0.0,-0.0,19.424847042896392,10.328374381289597
12.399999999999972,1366.6879500126731,2230.2320370067678,993.7500000000057,62.49999999999999,0.0,30.0,150.0,0.0,0.0,19.514238329920875,10.158469491170749,0.0,-0.0,19.514238329920875,10.158469491170749
12.499999999999972,1386.2900935448172,2240.219828001038,993.7000000000057,62.99999999999999,0.0,30.0,150.0,0.0,0.0,19.60214353214409,9.987790994270032,0.0,-0.0,19.60214353214409,9.987790994270032
12.599999999999971,1405.9786495000617,2250.0361798894537,993.6500000000058,63.49999999999999,0.0,30.0,150.0,0.0,0.0,19.68855595524455,9.816351888415795,0.0,-0.0,19.68855595524455,9.816351888415795
12.69999999999997,1425.7521185186433,2259.6803451188134,993.6000000000058,63.99999999999999,0.0,30.0,150.0,0.0,0.0,19.77346901858167,9.644165229359706,0.0,-0.0,19.77346901858167,9.644165229359706
12.79999999999997,1445.6089947743403,2269.151589248596,993.5500000000059,64.49999999999999,0.0,30.0,150.0,0.0,0.0,19.856876255696932,9.471244129782498,0.0,-0.0,19.856876255696932,9.471244129782498
12.89999999999997,1465.5477660891465,2278.4491910068914,993.5000000000059,64.99999999999999,0.0,30.0,150.0,0.0,0.0,19.938771314806296,9.297601758295393,0.0,-0.0,19.938771314806296,9.297601758295393
12.99999999999997,1485.5669140484306,2287.5724423453285,993.450000000006,65.49999999999999,0.0,30.0,150.0,0.0,0.0,20.01914795928395,9.123251338437264,0.0,-0.0,20.01914795928395,9.123251338437264
13.09999999999997,1505.6649141165678,2296.520648492996,993.400000000006,65.99999999999999,0.0,30.0,150.0,0.0,0.0,20.098000068137218,8.948206147667609,0.0,-0.0,20.098000068137218,8.948206147667609
13.199999999999969,1525.8402357530406,2305.293128009351,993.350000000006,66.49999999999999,0.0,30.0,150.0,0.0,0.0,20.175321636472727,8.772479516355423,0.0,-0.0,20.175321636472727,8.772479516355423
13.299999999999969,1546.0913425289943,2313.8892128361153,993.3000000000061,66.99999999999999,0.0,30.0,150.0,0.0,0.0,20.251106775953687,8.596084826764027,0.0,-0.0,20.251106775953687,8.596084826764027
13.399999999999968,1566.4166922442425,2322.308248348147,993.2500000000061,67.49999999999999,0.0,30.0,150.0,0.0,0.0,20.325349715248304,8.41903551203198,0.0,-0.0,20.325349715248304,8.41903551203198
13.499999999999968,1586.8147370447118,2330.549593403297,993.2000000000062,67.99999999999999,0.0,30.0,150.0,0.0,0.0,20.39804480046932,8.24134505515007,0.0,-0.0,20.39804480046932,8.24134505515007
13.599999999999968,1607.2839235403164,2338.6126203912313,993.1500000000062,68.49999999999999,0.0,30.0,150.0,0.0,0.0,20.46918649560454,8.063026987934546,0.0,-0.0,20.46918649560454,8.063026987934546
13.699999999999967,1627.8226929232549,2346.496715281228,993.1000000000063,68.99999999999999,0.0,30.0,150.0,0.0,0.0,20.538769382938437,7.884094889996611,0.0,-0.0,20.538769382938437,7.884094889996611
13.799999999999967,1648.4294810867195,2354.201277668936,993.0500000000063,69.49999999999999,0.0,30.0,150.0,0.0,0.0,20.606788163464746,7.704562387708289,0.0,-0.0,20.606788163464746,7.704562387708289
13.899999999999967,1669.1027187440095,2361.725720822101,993.0000000000064,69.99999999999999,0.0,30.0,150.0,0.0,0.0,20.673237657289985,7.524443153164716,0.0,-0.0,20.673237657289985,7.524443153164716
13.999999999999966,1689.8408315480374,2369.0694717252436,992.9500000000064,70.49999999999999,0.0,30.0,150.0,0.0,0.0,20.738112804027924,7.343750903142965,0.0,-0.0,20.738112804027924,7.343750903142965
14.099999999999966,1710.6422402112223,2376.2319711233013,992.9000000000065,70.99999999999999,0.0,30.0,150.0,0.0,0.0,20.80140866318497,7.162499398057451,0.0,-0.0,20.80140866318497,7.162499398057451
14.199999999999966,1731.5053606257586,2383.212673564213,992.8500000000065,71.49999999999999,0.0,30.0,150.0,0.0,0.0,20.863120414536382,6.980702440912032,0.0,-0.0,20.863120414536382,6.980702440912032
14.299999999999965,1752.428603984252,2390.011047440462,992.8000000000065,71.99999999999999,0.0,30.0,150.0,0.0,0.0,20.923243358493377,6.7983738762488475,0.0,-0.0,20.923243358493377,6.7983738762488475
14.399999999999965,1773.4103769007131,2396.626575029556,992.7500000000066,72.49999999999999,0.0,30.0,150.0,0.0,0.0,20.98177291646099,6.615527589094014,0.0,-0.0,20.98177291646099,6.615527589094014
14.499999999999964,1794.4490815319,2403.0587525334563,992.7000000000066,72.99999999999999,0.0,30.0,150.0,0.0,0.0,21.03870463118678,6.4321775039002125,0.0,-0.0,21.03870463118678,6.4321775039002125
14.599999999999964,1815.5431156990003,2409.3070901169426,992.6500000000067,73.49999999999999,0.0,30.0,150.0,0.0,0.0,21.094034167100244,6.248337583486302,0.0,-0.0,21.094034167100244,6.248337583486302
14.699999999999964,1836.6908730096434,2415.3711119449167,992.6000000000067,73.99999999999999,0.0,30.0,150.0,0.0,0.0,21.147757310643012,6.064021827973987,0.0,-0.0,21.147757310643012,6.064021827973987
14.799999999999963,1857.8907429802332,2421.2503562186384,992.5500000000068,74.49999999999999,0.0,30.0,150.0,0.0,0.0,21.199869970589706,5.879244273721657,0.0,-0.0,21.199869970589706,5.879244273721657
14.899999999999963,1879.1411111585926,2426.944375210894,992.5000000000068,74.99999999999999,0.0,30.0,150.0,0.0,0.0,21.2503681783595,5.6940189922554625,0.0,-0.0,21.2503681783595,5.6940189922554625
14.999999999999963,1900.440359246911,2432.4527353000917,992.4500000000069,75.49999999999999,0.0,30.0,150.0,0.0,0.0,21.29924808831837,5.5083600891977165,0.0,-0.0,21.29924808831837,5.5083600891977165
15.099999999999962,1921.7868652249829,2437.7750170032846,992.4000000000069,75.99999999999999,0.0,30.0,150.0,0.0,0.0,21.34650597807192,5.3222817031926954,0.0,-0.0,21.34650597807192,5.3222817031926954
15.199999999999962,1943.1790034737317,2442.9108150081147,992.350000000007,76.49999999999999,0.0,30.0,150.0,0.0,0.0,21.392138248748886,5.135798004829924,0.0,-0.0,21.392138248748886,5.135798004829924
15.299999999999962,1964.6151448990067,2447.8597382036796,992.300000000007,76.99999999999999,0.0,30.0,150.0,0.0,0.0,21.436141425275174,4.948923195565035,0.0,-0.0,21.436141425275174,4.948923195565035
15.399999999999961,1986.0936570556453,2452.621409710318,992.250000000007,77.49999999999999,0.0,30.0,150.0,0.0,0.0,21.478512156638534,4.761671506638268,0.0,-0.0,21.478512156638534,4.761671506638268
15.499999999999961,2007.612904271789,2457.195466908309,992.2000000000071,77.99999999999999,0.0,30.0,150.0,0.0,0.0,21.51924721614372,4.574057197990711,0.0,-0.0,21.51924721614372,4.574057197990711
15.59999999999996,2029.1712477734472,2461.581561465487,992.1500000000071,78.49999999999999,0.0,30.0,150.0,0.0,0.0,21.55834350165825,4.386094557178343,0.0,-0.0,21.55834350165825,4.386094557178343
15.69999999999996,2050.7670458092957,2465.779359363771,992.1000000000072,78.99999999999999,0.0,30.0,150.0,0.0,0.0,21.595798035848606,4.197797898283991,0.0,-0.0,21.595798035848606,4.197797898283991
15.79999999999996,2072.3986537757028,2469.7885409245982,992.0500000000072,79.49999999999999,0.0,30.0,150.0,0.0,0.0,21.631607966407,4.0091815608272485,0.0,-0.0,21.631607966407,4.0091815608272485
15.89999999999996,2094.0644243419715,2473.608800833271,992.0000000000073,79.99999999999999,0.0,30.0,150.0,0.0,0.0,21.665770566268577,3.820259908672473,0.0,-0.0,21.665770566268577,3.820259908672473
15.99999999999996,2115.7627075757905,2477.239848162206,991.9500000000073,80.49999999999999,0.0,30.0,150.0,0.0,0.0,21.69828323381909,3.631047328934913,0.0,-0.0,21.69828323381909,3.631047328934913
16.09999999999996,2137.4918510688835,2480.681406393091,991.9000000000074,80.99999999999999,0.0,30.0,150.0,0.0,0.0,21.72914349309303,3.4415582308850845,0.0,-0.0,21.72914349309303,3.4415582308850845
16.19999999999996,2159.2502000628456,2483.9332134379424,991.8500000000074,81.49999999999999,0.0,30.0,150.0,0.0,0.0,21.75834899396217,3.2518070448514393,0.0,-0.0,21.75834899396217,3.2518070448514393
16.29999999999996,2181.03609757516,2486.9950216590637,991.8000000000075,81.99999999999999,0.0,30.0,150.0,0.0,0.0,21.785897512314545,3.0618082211214452,0.0,-0.0,21.785897512314545,3.0618082211214452
16.399999999999963,2202.847884525384,2489.866597887905,991.7500000000075,82.49999999999999,0.0,30.0,150.0,0.0,0.0,21.81178695022383,2.87157622884114,0.0,-0.0,21.81178695022383,2.87157622884114
16.499999999999964,2224.683899861493,2492.547723442818,991.7000000000075,82.99999999999999,0.0,30.0,150.0,0.0,0.0,21.836015336109085,2.6811255549132498,0.0,-0.0,21.836015336109085,2.6811255549132498
16.599999999999966,2246.542480686378,2495.038194145712,991.6500000000076,83.49999999999999,0.0,30.0,150.0,0.0,0.0,21.858580824884925,2.4904707028939534,0.0,-0.0,21.858580824884925,2.4904707028939534
16.699999999999967,2268.42196238448,2497.3378203376005,991.6000000000076,83.99999999999999,0.0,30.0,150.0,0.0,0.0,21.879481698102012,2.2996261918883816,0.0,-0.0,21.879481698102012,2.2996261918883816
16.79999999999997,2290.3206787485583,2499.4464268930456,991.5500000000077,84.49999999999999,0.0,30.0,150.0,0.0,0.0,21.89871636407793,2.108606555444933,0.0,-0.0,21.89871636407793,2.108606555444933
16.89999999999997,2312.236962106577,2501.363853233494,991.5000000000077,84.99999999999999,0.0,30.0,150.0,0.0,0.0,21.9162833580184,1.9174263404484853,0.0,-0.0,21.9162833580184,1.9174263404484853
16.99999999999997,2334.1691434487057,2503.0899533395063,991.4500000000078,85.49999999999999,0.0,30.0,150.0,0.0,0.0,21.932181342128814,1.7261001060125942,0.0,-0.0,21.932181342128814,1.7261001060125942
17.099999999999973,2356.115552554422,2504.624595761877,991.4000000000078,85.99999999999999,0.0,30.0,150.0,0.0,0.0,21.946409105716132,1.5346424223707622,0.0,-0.0,21.946409105716132,1.5346424223707622
17.199999999999974,2378.074518119703,2505.967663631644,991.3500000000079,86.49999999999999,0.0,30.0,150.0,0.0,0.0,21.958965565281073,1.3430678697668568,0.0,-0.0,21.958965565281073,1.3430678697668568
17.299999999999976,2400.0443678843035,2507.1190546689886,991.3000000000079,86.99999999999999,0.0,30.0,150.0,0.0,0.0,21.969849764600625,1.1513910373447698,0.0,-0.0,21.969849764600625,1.1513910373447698
17.399999999999977,2422.0234287591043,2508.078681191026,991.250000000008,87.49999999999999,0.0,30.0,150.0,0.0,0.0,21.979060874800872,0.9596265220373975,0.0,-0.0,21.979060874800872,0.9596265220373975
17.49999999999998,2444.010026953524,2508.846470118481,991.200000000008,87.99999999999999,0.0,30.0,150.0,0.0,0.0,21.986598194420107,0.7677889274550267,0.0,-0.0,21.986598194420107,0.7677889274550267
17.59999999999998,2466.0024881029863,2509.4223629812545,991.150000000008,88.49999999999999,0.0,30.0,150.0,0.0,0.0,21.992461149462258,0.5758928627732147,0.0,-0.0,21.992461149462258,0.5758928627732147
17.69999999999998,2487.9991373964267,2509.806315922875,991.1000000000081,88.99999999999999,0.0,30.0,150.0,0.0,0.0,21.99664929344061,0.38395294162024274,0.0,-0.0,21.99664929344061,0.38395294162024274
17.799999999999983,2509.9982997038383,2509.998299703839,991.0500000000081,89.49999999999999,0.0,30.0,150.0,0.0,0.0,21.99916230741177,0.19198378096423202,0.0,-0.0,21.99916230741177,0.19198378096423202
17.899999999999984,2531.9982997038383,2509.998299703839,991.0000000000082,89.99999999999999,0.0,30.0,150.0,0.0,0.0,22.0,5.456576494662393E-15,0.0,-0.0,22.0,5.456576494662393E-15
17.999999999999986,2553.99746201125,2509.806315922875,990.9500000000082,90.49999999999999,0.0,30.0,150.0,0.0,0.0,21.99916230741177,-0.1919837809642211,0.0,-0.0,21.99916230741177,-0.1919837809642211
18.099999999999987,2575.9941113046903,2509.422362981255,990.9000000000083,90.99999999999999,0.0,30.0,150.0,0.0,0.0,21.99664929344061,-0.38395294162023186,0.0,-0.0,21.99664929344061,-0.38395294162023186
18.19999999999999,2597.9865724541523,2508.8464701184816,990.8500000000083,91.49999999999999,0.0,30.0,150.0,0.0,0.0,21.992461149462258,-0.575892862773204,0.0,-0.0,21.992461149462258,-0.575892862773204
18.29999999999999,2619.9731706485722,2508.0786811910266,990.8000000000084,91.99999999999999,0.0,30.0,150.0,0.0,0.0,21.986598194420107,-0.7677889274550158,0.0,-0.0,21.986598194420107,-0.7677889274550158
18.39999999999999,2641.952231523373,2507.119054668989,990.7500000000084,92.49999999999999,0.0,30.0,150.0,0.0,0.0,21.979060874800872,-0.9596265220373865,0.0,-0.0,21.979060874800872,-0.9596265220373865
18.499999999999993,2663.9220812879735,2505.9676636316444,990.7000000000085,92.99999999999999,0.0,30.0,150.0,0.0,0.0,21.969849764600625,-1.1513910373447587,0.0,-0.0,21.969849764600625,-1.1513910373447587
18.599999999999994,2685.8810468532547,2504.6245957618776,990.6500000000085,93.49999999999999,0.0,30.0,150.0,0.0,0.0,21.958965565281076,-1.3430678697668457,0.0,-0.0,21.958965565281076,-1.3430678697668457
18.699999999999996,2707.827455958971,2503.089953339507,990.6000000000085,93.99999999999999,0.0,30.0,150.0,0.0,0.0,21.946409105716135,-1.534642422370751,0.0,-0.0,21.946409105716135,-1.534642422370751
18.799999999999997,2729.7596373010997,2501.3638532334944,990.5500000000086,94.49999999999999,0.0,30.0,150.0,0.0,0.0,21.932181342128814,-1.7261001060125833,0.0,-0.0,21.932181342128814,-1.7261001060125833
18.9,2751.675920659118,2499.446426893046,990.5000000000086,94.99999999999999,0.0,30.0,150.0,0.0,0.0,21.9162833580184,-1.9174263404484742,0.0,-0.0,21.9162833580184,-1.9174263404484742
19.0,2773.5746370231964,2497.337820337601,990.4500000000087,95.49999999999999,0.0,30.0,150.0,0.0,0.0,21.898716364077934,-2.1086065554449225,0.0,-0.0,21.898716364077934,-2.1086065554449225
19.1,2795.4541187212985,2495.0381941457126,990.4000000000087,95.99999999999999,0.0,30.0,150.0,0.0,0.0,21.879481698102015,-2.2996261918883714,0.0,-0.0,21.879481698102015,-2.2996261918883714
19.200000000000003,2817.3126995461835,2492.5477234428186,990.3500000000088,96.49999999999999,0.0,30.0,150.0,0.0,0.0,21.858580824884925,-2.490470702893942,0.0,-0.0,21.858580824884925,-2.490470702893942
19.300000000000004,2839.1487148822926,2489.8665978879053,990.3000000000088,96.99999999999999,0.0,30.0,150.0,0.0,0.0,21.836015336109085,-2.681125554913239,0.0,-0.0,21.836015336109085,-2.681125554913239
19.400000000000006,2860.9605018325165,2486.995021659064,990.2500000000089,97.49999999999999,0.0,30.0,150.0,0.0,0.0,21.81178695022383,-2.8715762288411293,0.0,-0.0,21.81178695022383,-2.8715762288411293
19.500000000000007,2882.746399344831,2483.933213437943,990.2000000000089,97.99999999999999,0.0,30.0,150.0,0.0,0.0,21.78589751231455,-3.061808221121434,0.0,-0.0,21.78589751231455,-3.061808221121434
19.60000000000001,2904.504748338793,2480.6814063930915,990.150000000009,98.49999999999999,0.0,30.0,150.0,0.0,0.0,21.75834899396217,-3.2518070448514282,0.0,-0.0,21.75834899396217,-3.2518070448514282
19.70000000000001,2926.233891831886,2477.2398481622063,990.100000000009,98.99999999999999,0.0,30.0,150.0,0.0,0.0,21.72914349309303,-3.4415582308850734,0.0,-0.0,21.72914349309303,-3.4415582308850734
19.80000000000001,2947.932175065705,2473.6088008332713,990.050000000009,99.49999999999999,0.0,30.0,150.0,0.0,0.0,21.69828323381909,-3.631047328934903,0.0,-0.0,21.69828323381909,-3.631047328934903
19.900000000000013,2969.5979456319737,2469.7885409245987,990.0000000000091,99.99999999999999,0.0,30.0,150.0,0.0,0.0,21.665770566268577,-3.820259908672462,0.0,-0.0,21.665770566268577,-3.820259908672462
20.000000000000014,2991.229553598381,2465.7793593637716,989.9500000000091,100.49999999999999,0.0,30.0,150.0,0.0,0.0,21.631607966407003,-4.009181560827238,0.0,-0.0,21.631607966407003,-4.009181560827238
20.100000000000016,3012.8253516342293,2461.5815614654875,989.9000000000092,100.99999999999999,0.0,30.0,150.0,0.0,0.0,21.595798035848606,-4.19779789828398,0.0,-0.0,21.595798035848606,-4.19779789828398
20.200000000000017,3034.3836951358876,2457.1954669083093,989.8500000000092,101.49999999999999,0.0,30.0,150.0,0.0,0.0,21.558343501658253,-4.386094557178333,0.0,-0.0,21.558343501658253,-4.386094557178333
20.30000000000002,3055.9029423520315,2452.6214097103184,989.8000000000093,101.99999999999999,0.0,30.0,150.0,0.0,0.0,21.519247216143725,-4.574057197990699,0.0,-0.0,21.519247216143725,-4.574057197990699
20.40000000000002,3077.38145450867,2447.85973820368,989.7500000000093,102.49999999999999,0.0,30.0,150.0,0.0,0.0,21.478512156638537,-4.761671506638258,0.0,-0.0,21.478512156638537,-4.761671506638258
20.50000000000002,3098.817595933945,2442.910815008115,989.7000000000094,102.99999999999999,0.0,30.0,150.0,0.0,0.0,21.436141425275174,-4.948923195565024,0.0,-0.0,21.436141425275174,-4.948923195565024
20.600000000000023,3120.209734182694,2437.775017003285,989.6500000000094,103.49999999999999,0.0,30.0,150.0,0.0,0.0,21.392138248748886,-5.1357980048299146,0.0,-0.0,21.392138248748886,-5.1357980048299146
20.700000000000024,3141.556240160766,2432.452735300092,989.6000000000095,103.99999999999999,0.0,30.0,150.0,0.0,0.0,21.346505978071924,-5.322281703192684,0.0,-0.0,21.346505978071924,-5.322281703192684
20.800000000000026,3162.8554882490844,2426.9443752108946,989.5500000000095,104.49999999999999,0.0,30.0,150.0,0.0,0.0,21.29924808831837,-5.508360089197706,0.0,-0.0,21.29924808831837,-5.508360089197706
20.900000000000027,3184.105856427444,2421.2503562186394,989.5000000000095,104.99999999999999,0.0,30.0,150.0,0.0,0.0,21.2503681783595,-5.694018992255451,0.0,-0.0,21.2503681783595,-5.694018992255451
21.00000000000003,3205.3057263980336,2415.3711119449176,989.4500000000096,105.49999999999999,0.0,30.0,150.0,0.0,0.0,21.199869970589706,-5.879244273721644,0.0,-0.0,21.199869970589706,-5.879244273721644
21.10000000000003,3226.4534837086767,2409.3070901169435,989.4000000000096,105.99999999999999,0.0,30.0,150.0,0.0,0.0,21.147757310643016,-6.064021827973977,0.0,-0.0,21.147757310643016,-6.064021827973977
21.20000000000003,3247.547517875777,2403.058752533457,989.3500000000097,106.49999999999999,0.0,30.0,150.0,0.0,0.0,21.09403416710025,-6.248337583486292,0.0,-0.0,21.09403416710025,-6.248337583486292
21.300000000000033,3268.5862225069636,2396.626575029557,989.3000000000097,106.99999999999999,0.0,30.0,150.0,0.0,0.0,21.038704631186782,-6.432177503900203,0.0,-0.0,21.038704631186782,-6.432177503900203
21.400000000000034,3289.5679954234247,2390.011047440463,989.2500000000098,107.49999999999999,0.0,30.0,150.0,0.0,0.0,20.981772916460994,-6.615527589094004,0.0,-0.0,20.981772916460994,-6.615527589094004
21.500000000000036,3310.491238781918,2383.212673564214,989.2000000000098,107.99999999999999,0.0,30.0,150.0,0.0,0.0,20.92324335849338,-6.798373876248838,0.0,-0.0,20.92324335849338,-6.798373876248838
21.600000000000037,3331.3543591964544,2376.231971123302,989.1500000000099,108.49999999999999,0.0,30.0,150.0,0.0,0.0,20.863120414536386,-6.980702440912022,0.0,-0.0,20.863120414536386,-6.980702440912022
21.70000000000004,3352.1557678596396,2369.0694717252445,989.1000000000099,108.99999999999999,0.0,30.0,150.0,0.0,0.0,20.801408663184972,-7.162499398057442,0.0,-0.0,20.801408663184972,-7.162499398057442
21.80000000000004,3372.8938806636675,2361.7257208221017,989.05000000001,109.49999999999999,0.0,30.0,150.0,0.0,0.0,20.738112804027924,-7.343750903142955,0.0,-0.0,20.738112804027924,-7.343750903142955
21.90000000000004,3393.5671183209574,2354.201277668937,989.00000000001,109.99999999999999,0.0,30.0,150.0,0.0,0.0,20.673237657289985,-7.5244431531647065,0.0,-0.0,20.673237657289985,-7.5244431531647065
22.000000000000043,3414.1739064844223,2346.4967152812287,988.95000000001,110.49999999999999,0.0,30.0,150.0,0.0,0.0,20.60678816346475,-7.704562387708279,0.0,-0.0,20.60678816346475,-7.704562387708279
22.100000000000044,3434.7126758673608,2338.612620391232,988.9000000000101,110.99999999999999,0.0,30.0,150.0,0.0,0.0,20.53876938293844,-7.8840948899966,0.0,-0.0,20.53876938293844,-7.8840948899966
22.200000000000045,3455.181862362965,2330.549593403298,988.8500000000101,111.49999999999999,0.0,30.0,150.0,0.0,0.0,20.46918649560454,-8.063026987934535,0.0,-0.0,20.46918649560454,-8.063026987934535
22.300000000000047,3475.5799071634347,2322.308248348148,988.8000000000102,111.99999999999999,0.0,30.0,150.0,0.0,0.0,20.398044800469325,-8.24134505515006,0.0,-0.0,20.398044800469325,-8.24134505515006
22.40000000000005,3495.905256878683,2313.8892128361163,988.7500000000102,112.49999999999999,0.0,30.0,150.0,0.0,0.0,20.32534971524831,-8.41903551203197,0.0,-0.0,20.32534971524831,-8.41903551203197
22.50000000000005,3516.1563636546366,2305.293128009352,988.7000000000103,112.99999999999999,0.0,30.0,150.0,0.0,0.0,20.251106775953687,-8.596084826764018,0.0,-0.0,20.251106775953687,-8.596084826764018
22.60000000000005,3536.3316852911094,2296.5206484929968,988.6500000000103,113.49999999999999,0.0,30.0,150.0,0.0,0.0,20.17532163647273,-8.77247951635541,0.0,-0.0,20.17532163647273,-8.77247951635541
22.700000000000053,3556.4296853592464,2287.5724423453294,988.6000000000104,113.99999999999999,0.0,30.0,150.0,0.0,0.0,20.09800006813722,-8.9482061476676,0.0,-0.0,20.09800006813722,-8.9482061476676
22.800000000000054,3576.4488333185304,2278.4491910068923,988.5500000000104,114.49999999999999,0.0,30.0,150.0,0.0,0.0,20.019147959283952,-9.123251338437253,0.0,-0.0,20.019147959283952,-9.123251338437253
22.900000000000055,3596.3876046333367,2269.151589248597,988.5000000000105,114.99999999999999,0.0,30.0,150.0,0.0,0.0,19.938771314806303,-9.297601758295382,0.0,-0.0,19.938771314806303,-9.297601758295382
23.000000000000057,3616.2444808890336,2259.6803451188143,988.4500000000105,115.49999999999999,0.0,30.0,150.0,0.0,0.0,19.856876255696935,-9.471244129782487,0.0,-0.0,19.856876255696935,-9.471244129782487
23.10000000000006,3636.0179499076153,2250.0361798894546,988.4000000000106,115.99999999999999,0.0,30.0,150.0,0.0,0.0,19.773469018581675,-9.644165229359698,0.0,-0.0,19.773469018581675,-9.644165229359698
23.20000000000006,3655.70650586286,2240.219828001039,988.3500000000106,116.49999999999999,0.0,30.0,150.0,0.0,0.0,19.688555955244556,-9.816351888415788,0.0,-0.0,19.688555955244556,-9.816351888415788
23.30000000000006,3675.308649395004,2230.2320370067687,988.3000000000106,116.99999999999999,0.0,30.0,150.0,0.0,0.0,19.602143532144098,-9.987790994270023,0.0,-0.0,19.602143532144098,-9.987790994270023
23.400000000000063,3694.822887724925,2220.073567515598,988.2500000000107,117.49999999999999,0.0,30.0,150.0,0.0,0.0,19.51423832992088,-10.158469491170742,0.0,-0.0,19.51423832992088,-10.158469491170742
23.500000000000064,3714.2477347678214,2209.7451931343085,988.2000000000107,117.99999999999999,0.0,30.0,150.0,0.0,0.0,19.424847042896396,-10.328374381289592,0.0,-0.0,19.424847042896396,-10.328374381289592
23.600000000000065,3733.5817112463847,2199.247700408597,988.1500000000108,118.49999999999999,0.0,30.0,150.0,0.0,0.0,19.33397647856324,-10.497492725711378,0.0,-0.0,19.33397647856324,-10.497492725711378
23.700000000000067,3752.823344803451,2188.5818887631776,988.1000000000108,118.99999999999999,0.0,30.0,150.0,0.0,0.0,19.241633557066713,-10.66581164541941,0.0,-0.0,19.241633557066713,-10.66581164541941
23.800000000000068,3771.971170114129,2177.7485704409014,988.0500000000109,119.49999999999999,0.0,30.0,150.0,0.0,0.0,19.147825310677796,-10.833318322276272,0.0,-0.0,19.147825310677796,-10.833318322276272
23.90000000000007,3791.0237289973866,2166.7485704409014,988.0000000000109,119.99999999999999,0.0,30.0,150.0,0.0,0.0,19.052558883257653,-10.999999999999995,0.0,-0.0,19.052558883257653,-10.999999999999995
24.00000000000007,3809.9795705271003,2155.582726455766,987.950000000011,120.49999999999999,0.0,30.0,150.0,0.0,0.0,18.95584152971357,-11.165843985135488,0.0,-0.0,18.95584152971357,-11.165843985135488
24.100000000000072,3828.837251142547,2144.2518888077448,987.900000000011,120.99999999999999,0.0,30.0,150.0,0.0,0.0,18.857680615446473,-11.33083764802119,0.0,-0.0,18.857680615446473,-11.33083764802119
24.200000000000074,3847.595334758337,2132.756920383994,987.850000000011,121.49999999999999,0.0,30.0,150.0,0.0,0.0,18.75808361579003,-11.494968423750871,0.0,-0.0,18.75808361579003,-11.494968423750871
24.300000000000075,3866.2523928737783,2121.0986965708635,987.8000000000111,121.99999999999999,0.0,30.0,150.0,0.0,0.0,18.657058115441373,-11.658223813130505,0.0,-0.0,18.657058115441373,-11.658223813130505
24.400000000000077,3884.807004681662,2109.2781051872335,987.7500000000111,122.49999999999999,0.0,30.0,150.0,0.0,0.0,18.55461180788349,-11.820591383630118,0.0,-0.0,18.55461180788349,-11.820591383630118
24.500000000000078,3903.2577571764614,2097.2960464169028,987.7000000000112,122.99999999999999,0.0,30.0,150.0,0.0,0.0,18.45075249479933,-11.98205877033059,0.0,-0.0,18.45075249479933,-11.98205877033059
24.60000000000008,3921.6032452619393,2085.1534327400373,987.6500000000112,123.49999999999999,0.0,30.0,150.0,0.0,0.0,18.345488085477704,-12.142613676865274,0.0,-0.0,18.345488085477704,-12.142613676865274
24.70000000000008,3939.84207185815,2072.851188863681,987.6000000000113,123.99999999999999,0.0,30.0,150.0,0.0,0.0,18.23882659621092,-12.302243876356425,0.0,-0.0,18.23882659621092,-12.302243876356425
24.800000000000082,3957.9728480078343,2060.3902516513344,987.5500000000113,124.49999999999999,0.0,30.0,150.0,0.0,0.0,18.130776149684348,-12.460937212346318,0.0,-0.0,18.130776149684348,-12.460937212346318
24.900000000000084,3975.994192982192,2047.7715700516114,987.5000000000114,124.99999999999999,0.0,30.0,150.0,0.0,0.0,18.021344974357824,-12.618681599723008,0.0,-0.0,18.021344974357824,-12.618681599723008
25.000000000000085,3993.904734386031,2034.9961050259708,987.4500000000114,125.49999999999999,0.0,30.0,150.0,0.0,0.0,17.910541403839026,-12.77546502564067,0.0,-0.0,17.910541403839026,-12.77546502564067
25.100000000000087,4011.70310826228,2022.0648294755365,987.4000000000115,125.99999999999999,0.0,30.0,150.0,0.0,0.0,17.798373876248846,-12.931275550434403,0.0,-0.0,17.798373876248846,-12.931275550434403
25.200000000000088,4029.3879591958585,2008.978728167007,987.3500000000115,126.49999999999999,0.0,30.0,150.0,0.0,0.0,17.684850933578787,-13.086101308529505,0.0,-0.0,17.684850933578787,-13.086101308529505
25.30000000000009,4046.957940416899,1995.738797657662,987.3000000000116,126.99999999999999,0.0,30.0,150.0,0.0,0.0,17.569981221040447,-13.239930509345058,0.0,-0.0,17.569981221040447,-13.239930509345058
25.40000000000009,4064.411713903306,1982.34604621947,987.2500000000116,127.49999999999999,0.0,30.0,150.0,0.0,0.0,17.453773486407176,-13.39275143819185,0.0,-0.0,17.453773486407176,-13.39275143819185
25.500000000000092,4081.747950482654,1968.8014937623057,987.2000000000116,127.99999999999999,0.0,30.0,150.0,0.0,0.0,17.336236579347887,-13.544552457164478,0.0,-0.0,17.336236579347887,-13.544552457164478
25.600000000000094,4098.965329933407,1955.106171756278,987.1500000000117,128.49999999999997,0.0,30.0,150.0,0.0,0.0,17.217379450753114,-13.695322006027622,0.0,-0.0,17.217379450753114,-13.695322006027622
25.700000000000095,4116.06254108546,1941.2611231531814,987.1000000000117,128.99999999999997,0.0,30.0,150.0,0.0,0.0,17.09721115205337,-13.845048603096416,0.0,-0.0,17.09721115205337,-13.845048603096416
25.800000000000097,4133.0382819199895,1927.2674023070706,987.0500000000118,129.49999999999997,0.0,30.0,150.0,0.0,0.0,16.975740834529848,-13.993720846110797,0.0,-0.0,16.975740834529848,-13.993720846110797
25.900000000000098,4149.891259668607,1913.1260748939667,987.0000000000118,129.99999999999997,0.0,30.0,150.0,0.0,0.0,16.852977748617523,-14.141327413103856,0.0,-0.0,16.852977748617523,-14.141327413103856
26.0000000000001,4166.620190911807,1898.8382178307027,986.9500000000119,130.49999999999997,0.0,30.0,150.0,0.0,0.0,16.728931243200687,-14.287857063264031,0.0,-0.0,16.728931243200687,-14.287857063264031
26.1000000000001,4183.223801676708,1884.4049191929116,986.9000000000119,130.99999999999997,0.0,30.0,150.0,0.0,0.0,16.603610764900992,-14.43329863779115,0.0,-0.0,16.603610764900992,-14.43329863779115
26.200000000000102,4199.700827534066,1869.8272781321655,986.850000000012,131.49999999999997,0.0,30.0,150.0,0.0,0.0,16.477025857358054,-14.577641060746215,0.0,-0.0,16.477025857358054,-14.577641060746215
26.300000000000104,4216.050013694568,1855.1064047922705,986.800000000012,131.99999999999997,0.0,30.0,150.0,0.0,0.0,16.34918616050268,-14.720873339894872,0.0,-0.0,16.34918616050268,-14.720873339894872
26.400000000000105,4232.270115104391,1840.243420224726,986.750000000012,132.49999999999997,0.0,30.0,150.0,0.0,0.0,16.22010140982274,-14.862984567544515,0.0,-0.0,16.22010140982274,-14.862984567544515
26.500000000000107,4248.359896540013,1825.239456303351,986.7000000000121,132.99999999999997,0.0,30.0,150.0,0.0,0.0,16.089781435621756,-15.00396392137496,0.0,-0.0,16.089781435621756,-15.00396392137496
26.600000000000108,4264.318132702284,1810.0956556380884,986.6500000000121,133.49999999999997,0.0,30.0,150.0,0.0,0.0,15.958236162270335,-15.143800665262578,0.0,-0.0,15.958236162270335,-15.143800665262578
26.70000000000011,4280.143608309734,1794.8131714879905,986.6000000000122,133.99999999999997,0.0,30.0,150.0,0.0,0.0,15.825475607450333,-15.282484150097932,0.0,-0.0,15.825475607450333,-15.282484150097932
26.80000000000011,4295.835118191127,1779.393167673394,986.5500000000122,134.49999999999997,0.0,30.0,150.0,0.0,0.0,15.691509881392001,-15.420003814596713,0.0,-0.0,15.691509881392001,-15.420003814596713
26.900000000000112,4311.391467377231,1763.83681848729,986.5000000000123,134.99999999999997,0.0,30.0,150.0,0.0,0.0,15.556349186104054,-15.556349186104036,0.0,-0.0,15.556349186104054,-15.556349186104036
27.000000000000114,4326.811471191827,1748.145308605898,986.4500000000123,135.49999999999997,0.0,30.0,150.0,0.0,0.0,15.420003814596729,-15.691509881391985,0.0,-0.0,15.420003814596729,-15.691509881391985
27.100000000000115,4342.093955341925,1732.3198329984477,986.4000000000124,135.99999999999997,0.0,30.0,150.0,0.0,0.0,15.282484150097947,-15.825475607450318,0.0,-0.0,15.282484150097947,-15.825475607450318
27.200000000000117,4357.237756007187,1716.3615968361773,986.3500000000124,136.49999999999997,0.0,30.0,150.0,0.0,0.0,15.143800665262594,-15.958236162270321,0.0,-0.0,15.143800665262594,-15.958236162270321
27.300000000000118,4372.241719928562,1700.2718154005556,986.3000000000125,136.99999999999997,0.0,30.0,150.0,0.0,0.0,15.003963921374977,-16.08978143562174,0.0,-0.0,15.003963921374977,-16.08978143562174
27.40000000000012,4387.104704496106,1684.0517139907329,986.2500000000125,137.49999999999997,0.0,30.0,150.0,0.0,0.0,14.862984567544533,-16.22010140982272,0.0,-0.0,14.862984567544533,-16.22010140982272
27.50000000000012,4401.825577836001,1667.70252783023,986.2000000000126,137.99999999999997,0.0,30.0,150.0,0.0,0.0,14.720873339894888,-16.349186160502665,0.0,-0.0,14.720873339894888,-16.349186160502665
27.600000000000122,4416.403218896747,1651.225501972872,986.1500000000126,138.49999999999997,0.0,30.0,150.0,0.0,0.0,14.577641060746235,-16.47702585735804,0.0,-0.0,14.577641060746235,-16.47702585735804
27.700000000000124,4430.836517534538,1634.621891207971,986.1000000000126,138.99999999999997,0.0,30.0,150.0,0.0,0.0,14.433298637791168,-16.603610764900978,0.0,-0.0,14.433298637791168,-16.603610764900978
27.800000000000125,4445.124374597802,1617.8929599647704,986.0500000000127,139.49999999999997,0.0,30.0,150.0,0.0,0.0,14.287857063264047,-16.728931243200673,0.0,-0.0,14.287857063264047,-16.728931243200673
27.900000000000126,4459.265702010905,1601.0399822161528,986.0000000000127,139.99999999999997,0.0,30.0,150.0,0.0,0.0,14.141327413103873,-16.85297774861751,0.0,-0.0,14.141327413103873,-16.85297774861751
28.000000000000128,4473.259422857016,1584.0642413816229,985.9500000000128,140.49999999999997,0.0,30.0,150.0,0.0,0.0,13.993720846110817,-16.97574083452983,0.0,-0.0,13.993720846110817,-16.97574083452983
28.10000000000013,4487.104471460112,1566.9670302295694,985.9000000000128,140.99999999999997,0.0,30.0,150.0,0.0,0.0,13.845048603096432,-17.09721115205335,0.0,-0.0,13.845048603096432,-17.09721115205335
28.20000000000013,4500.79979346614,1549.7496507788164,985.8500000000129,141.49999999999997,0.0,30.0,150.0,0.0,0.0,13.695322006027641,-17.217379450753096,0.0,-0.0,13.695322006027641,-17.217379450753096
28.300000000000132,4514.344345923304,1532.4134141994687,985.8000000000129,141.99999999999997,0.0,30.0,150.0,0.0,0.0,13.544552457164489,-17.336236579347876,0.0,-0.0,13.544552457164489,-17.336236579347876
28.400000000000134,4527.737097361496,1514.9596407130614,985.750000000013,142.49999999999997,0.0,30.0,150.0,0.0,0.0,13.392751438191864,-17.453773486407165,0.0,-0.0,13.392751438191864,-17.453773486407165
28.500000000000135,4540.977027870841,1497.3896594920209,985.700000000013,142.99999999999997,0.0,30.0,150.0,0.0,0.0,13.239930509345072,-17.569981221040436,0.0,-0.0,13.239930509345072,-17.569981221040436
28.600000000000136,4554.063129179371,1479.7048085584422,985.650000000013,143.49999999999997,0.0,30.0,150.0,0.0,0.0,13.08610130852952,-17.684850933578772,0.0,-0.0,13.08610130852952,-17.684850933578772
28.700000000000138,4566.994404729805,1461.9064346821933,985.6000000000131,143.99999999999997,0.0,30.0,150.0,0.0,0.0,12.93127555043442,-17.798373876248835,0.0,-0.0,12.93127555043442,-17.798373876248835
28.80000000000014,4579.769869755446,1443.9958932783543,985.5500000000131,144.49999999999997,0.0,30.0,150.0,0.0,0.0,12.775465025640683,-17.910541403839016,0.0,-0.0,12.775465025640683,-17.910541403839016
28.90000000000014,4592.3885513551695,1425.9745483039965,985.5000000000132,144.99999999999997,0.0,30.0,150.0,0.0,0.0,12.618681599723022,-18.021344974357813,0.0,-0.0,12.618681599723022,-18.021344974357813
29.000000000000142,4604.849488567515,1407.843772154312,985.4500000000132,145.49999999999997,0.0,30.0,150.0,0.0,0.0,12.460937212346332,-18.130776149684337,0.0,-0.0,12.460937212346332,-18.130776149684337
29.100000000000144,4617.151732443872,1389.6049455581012,985.4000000000133,145.99999999999997,0.0,30.0,150.0,0.0,0.0,12.302243876356439,-18.23882659621091,0.0,-0.0,12.302243876356439,-18.23882659621091
29.200000000000145,4629.294346120737,1371.2594574726236,985.3500000000133,146.49999999999997,0.0,30.0,150.0,0.0,0.0,12.142613676865288,-18.345488085477694,0.0,-0.0,12.142613676865288,-18.345488085477694
29.300000000000146,4641.276404891068,1352.8087049778242,985.3000000000134,146.99999999999997,0.0,30.0,150.0,0.0,0.0,11.982058770330609,-18.45075249479932,0.0,-0.0,11.982058770330609,-18.45075249479932
29.400000000000148,4653.096996274698,1334.2540931699407,985.2500000000134,147.49999999999997,0.0,30.0,150.0,0.0,0.0,11.820591383630132,-18.55461180788348,0.0,-0.0,11.820591383630132,-18.55461180788348
29.50000000000015,4664.755220087828,1315.5970350544994,985.2000000000135,147.99999999999997,0.0,30.0,150.0,0.0,0.0,11.65822381313052,-18.657058115441362,0.0,-0.0,11.65822381313052,-18.657058115441362
29.60000000000015,4676.250188511579,1296.8389514387095,985.1500000000135,148.49999999999997,0.0,30.0,150.0,0.0,0.0,11.494968423750883,-18.758083615790024,0.0,-0.0,11.494968423750883,-18.758083615790024
29.700000000000152,4687.5810261596,1277.981270823263,985.1000000000136,148.99999999999997,0.0,30.0,150.0,0.0,0.0,11.330837648021204,-18.857680615446466,0.0,-0.0,11.330837648021204,-18.857680615446466
29.800000000000153,4698.746870144735,1259.0254292935495,985.0500000000136,149.49999999999997,0.0,30.0,150.0,0.0,0.0,11.165843985135504,-18.95584152971356,0.0,-0.0,11.165843985135504,-18.95584152971356
29.900000000000155,4709.746870144735,1239.9728704102918,985.0000000000136,149.99999999999997,0.0,30.0,150.0,0.0,0.0,11.00000000000001,-19.052558883257646,0.0,-0.0,11.00000000000001,-19.052558883257646
30.000000000000156,4720.580188467012,1220.825045099614,984.9500000000137,150.49999999999997,0.0,30.0,150.0,0.0,0.0,10.833318322276284,-19.14782531067779,0.0,-0.0,10.833318322276284,-19.14782531067779
30.100000000000158,4731.246000112431,1201.5834115425473,984.9000000000137,150.99999999999997,0.0,30.0,150.0,0.0,0.0,10.665811645419424,-19.241633557066702,0.0,-0.0,10.665811645419424,-19.241633557066702
