time,x,y,altitude,yaw,pitch,roll,speed,wind_dir,wind_spd,dx,dy,wind_dx,wind_dy,vmg_dx,vmg_dy
0.0,-9.83708994574027,-1.037089945740271,0.0,270.0,0.0,0.0,60.0,45.0,10.0,-8.8,-1.077689183249671E-15,-1.0370899457402696,-1.0370899457402698,-9.83708994574027,-1.037089945740271
0.1,-19.67417989148054,-2.074179891480542,0.0,270.0,0.0,0.0,60.0,45.0,10.0,-8.8,-1.077689183249671E-15,-1.0370899457402696,-1.0370899457402698,-9.83708994574027,-1.037089945740271
0.2,-29.511269837220812,-3.1112698372208127,0.0,270.0,0.0,0.0,60.0,45.0,10.0,-8.8,-1.077689183249671E-15,-1.0370899457402696,-1.0370899457402698,-9.83708994574027,-1.037089945740271
0.30000000000000004,-39.34835978296108,-4.148359782961084,0.0,270.0,0.0,0.0,60.0,45.0,10.0,-8.8,-1.077689183249671E-15,-1.0370899457402696,-1.0370899457402698,-9.83708994574027,-1.037089945740271
0.4,-49.18544972870135,-5.185449728701355,0.0,270.0,0.0,0.0,60.0,45.0,10.0,-8.8,-1.077689183249671E-15,-1.0370899457402696,-1.0370899457402698,-9.83708994574027,-1.037089945740271
0.5,-59.022539674441624,-6.2225396744416255,0.0,270.0,0.0,0.0,60.0,45.0,10.0,-8.8,-1.077689183249671E-15,-1.0370899457402696,-1.0370899457402698,-9.83708994574027,-1.037089945740271
0.6,-68.85962962018189,-7.259629620181896,0.0,270.0,0.0,0.0,60.0,45.0,10.0,-8.8,-1.077689183249671E-15,-1.0370899457402696,-1.0370899457402698,-9.83708994574027,-1.037089945740271
0.7,-78.69671956592215,-8.296719565922167,0.0,270.0,0.0,0.0,60.0,45.0,10.0,-8.8,-1.077689183249671E-15,-1.0370899457402696,-1.0370899457402698,-9.83708994574027,-1.037089945740271
0.7999999999999999,-88.53380951166241,-9.333809511662439,0.0,270.0,0.0,0.0,60.0,45.0,10.0,-8.8,-1.077689183249671E-15,-1.0370899457402696,-1.0370899457402698,-9.83708994574027,-1.037089945740271
0.8999999999999999,-98.37089945740267,-10.370899457402711,0.0,270.0,0.0,0.0,60.0,45.0,10.0,-8.8,-1.077689183249671E-15,-1.0370899457402696,-1.0370899457402698,-9.83708994574027,-1.037089945740271
0.9999999999999999,-108.20798940314293,-11.407989403142983,0.0,270.0,0.0,0.0,60.0,45.0,10.0,-8.8,-1.077689183249671E-15,-1.0370899457402696,-1.0370899457402698,-9.83708994574027,-1.037089945740271
1.0999999999999999,-118.04507934888319,-12.445079348883255,0.0,270.0,0.0,0.0,60.0,45.0,10.0,-8.8,-1.077689183249671E-15,-1.0370899457402696,-1.0370899457402698,-9.83708994574027,-1.037089945740271
1.2,-127.88216929462345,-13.482169294623526,0.0,270.0,0.0,0.0,60.0,45.0,10.0,-8.8,-1.077689183249671E-15,-1.0370899457402696,-1.0370899457402698,-9.83708994574027,-1.037089945740271
1.3,-137.71925924036373,-14.519259240363798,0.0,270.0,0.0,0.0,60.0,45.0,10.0,-8.8,-1.077689183249671E-15,-1.0370899457402696,-1.0370899457402698,-9.83708994574027,-1.037089945740271
1.4000000000000001,-147.556349186104,-15.55634918610407,0.0,270.0,0.0,0.0,60.0,45.0,10.0,-8.8,-1.077689183249671E-15,-1.0370899457402696,-1.0370899457402698,-9.83708994574027,-1.037089945740271
1.5000000000000002,-157.39343913184427,-16.59343913184434,0.0,270.0,0.0,0.0,60.0,45.0,10.0,-8.8,-1.077689183249671E-15,-1.0370899457402696,-1.0370899457402698,-9.83708994574027,-1.037089945740271
1.6000000000000003,-167.23052907758455,-17.63052907758461,0.0,270.0,0.0,0.0,60.0,45.0,10.0,-8.8,-1.077689183249671E-15,-1.0370899457402696,-1.0370899457402698,-9.83708994574027,-1.037089945740271
1.7000000000000004,-177.06761902332482,-18.66761902332488,0.0,270.0,0.0,0.0,60.0,45.0,10.0,-8.8,-1.077689183249671E-15,-1.0370899457402696,-1.0370899457402698,-9.83708994574027,-1.037089945740271
1.8000000000000005,-186.9047089690651,-19.704708969065152,0.0,270.0,0.0,0.0,60.0,45.0,10.0,-8.8,-1.077689183249671E-15,-1.0370899457402696,-1.0370899457402698,-9.83708994574027,-1.037089945740271
1.9000000000000006,-196.74179891480537,-20.741798914805422,0.0,270.0,0.0,0.0,60.0,45.0,10.0,-8.8,-1.077689183249671E-15,-1.0370899457402696,-1.0370899457402698,-9.83708994574027,-1.037089945740271
2.0000000000000004,-206.57888886054565,-21.778888860545692,0.0,270.0,0.0,0.0,60.0,45.0,10.0,-8.8,-1.077689183249671E-15,-1.0370899457402696,-1.0370899457402698,-9.83708994574027,-1.037089945740271
2.1000000000000005,-216.41597880628592,-22.815978806285962,0.0,270.0,0.0,0.0,60.0,45.0,10.0,-8.8,-1.077689183249671E-15,-1.0370899457402696,-1.0370899457402698,-9.83708994574027,-1.037089945740271
2.2000000000000006,-226.2530687520262,-23.853068752026232,0.0,270.0,0.0,0.0,60.0,45.0,10.0,-8.8,-1.077689183249671E-15,-1.0370899457402696,-1.0370899457402698,-9.83708994574027,-1.037089945740271
2.3000000000000007,-236.09015869776647,-24.890158697766502,0.0,270.0,0.0,0.0,60.0,45.0,10.0,-8.8,-1.077689183249671E-15,-1.0370899457402696,-1.0370899457402698,-9.83708994574027,-1.037089945740271
2.400000000000001,-245.92724864350674,-25.927248643506772,0.0,270.0,0.0,0.0,60.0,45.0,10.0,-8.8,-1.077689183249671E-15,-1.0370899457402696,-1.0370899457402698,-9.83708994574027,-1.037089945740271
2.500000000000001,-255.76433858924702,-26.964338589247042,0.0,270.0,0.0,0.0,60.0,45.0,10.0,-8.8,-1.077689183249671E-15,-1.0370899457402696,-1.0370899457402698,-9.83708994574027,-1.037089945740271
2.600000000000001,-265.6014285349873,-28.001428534987312,0.0,270.0,0.0,0.0,60.0,45.0,10.0,-8.8,-1.077689183249671E-15,-1.0370899457402696,-1.0370899457402698,-9.83708994574027,-1.037089945740271
2.700000000000001,-275.43851848072757,-29.038518480727582,0.0,270.0,0.0,0.0,60.0,45.0,10.0,-8.8,-1.077689183249671E-15,-1.0370899457402696,-1.0370899457402698,-9.83708994574027,-1.037089945740271
2.800000000000001,-285.27560842646784,-30.075608426467852,0.0,270.0,0.0,0.0,60.0,45.0,10.0,-8.8,-1.077689183249671E-15,-1.0370899457402696,-1.0370899457402698,-9.83708994574027,-1.037089945740271
2.9000000000000012,-295.1126983722081,-31.112698372208122,0.0,270.0,0.0,0.0,60.0,45.0,10.0,-8.8,-1.077689183249671E-15,-1.0370899457402696,-1.0370899457402698,-9.83708994574027,-1.037089945740271
3.0000000000000013,-304.9497883179484,-32.14978831794839,0.0,270.0,0.0,0.0,60.0,45.0,10.0,-8.8,-1.077689183249671E-15,-1.0370899457402696,-1.0370899457402698,-9.83708994574027,-1.037089945740271
3.1000000000000014,-314.78687826368866,-33.18687826368866,0.0,270.0,0.0,0.0,60.0,45.0,10.0,-8.8,-1.077689183249671E-15,-1.0370899457402696,-1.0370899457402698,-9.83708994574027,-1.037089945740271
3.2000000000000015,-324.62396820942894,-34.22396820942893,0.0,270.0,0.0,0.0,60.0,45.0,10.0,-8.8,-1.077689183249671E-15,-1.0370899457402696,-1.0370899457402698,-9.83708994574027,-1.037089945740271
3.3000000000000016,-334.4610581551692,-35.2610581551692,0.0,270.0,0.0,0.0,60.0,45.0,10.0,-8.8,-1.077689183249671E-15,-1.0370899457402696,-1.0370899457402698,-9.83708994574027,-1.037089945740271
3.4000000000000017,-344.2981481009095,-36.29814810090947,0.0,270.0,0.0,0.0,60.0,45.0,10.0,-8.8,-1.077689183249671E-15,-1.0370899457402696,-1.0370899457402698,-9.83708994574027,-1.037089945740271
3.5000000000000018,-354.13523804664976,-37.33523804664974,0.0,270.0,0.0,0.0,60.0,45.0,10.0,-8.8,-1.077689183249671E-15,-1.0370899457402696,-1.0370899457402698,-9.83708994574027,-1.037089945740271
3.600000000000002,-363.97232799239003,-38.37232799239001,0.0,270.0,0.0,0.0,60.0,45.0,10.0,-8.8,-1.077689183249671E-15,-1.0370899457402696,-1.0370899457402698,-9.83708994574027,-1.037089945740271
3.700000000000002,-373.8094179381303,-39.40941793813028,0.0,270.0,0.0,0.0,60.0,45.0,10.0,-8.8,-1.077689183249671E-15,-1.0370899457402696,-1.0370899457402698,-9.83708994574027,-1.037089945740271
3.800000000000002,-383.6465078838706,-40.44650788387055,0.0,270.0,0.0,0.0,60.0,45.0,10.0,-8.8,-1.077689183249671E-15,-1.0370899457402696,-1.0370899457402698,-9.83708994574027,-1.037089945740271
3.900000000000002,-393.48359782961086,-41.48359782961082,0.0,270.0,0.0,0.0,60.0,45.0,10.0,-8.8,-1.077689183249671E-15,-1.0370899457402696,-1.0370899457402698,-9.83708994574027,-1.037089945740271
4.000000000000002,-403.32068777535113,-42.52068777535109,0.0,270.0,0.0,0.0,60.0,45.0,10.0,-8.8,-1.077689183249671E-15,-1.0370899457402696,-1.0370899457402698,-9.83708994574027,-1.037089945740271
4.100000000000001,-413.1577777210914,-43.55777772109136,0.0,270.0,0.0,0.0,60.0,45.0,10.0,-8.8,-1.077689183249671E-15,-1.0370899457402696,-1.0370899457402698,-9.83708994574027,-1.037089945740271
4.200000000000001,-422.9948676668317,-44.59486766683163,0.0,270.0,0.0,0.0,60.0,45.0,10.0,-8.8,-1.077689183249671E-15,-1.0370899457402696,-1.0370899457402698,-9.83708994574027,-1.037089945740271
4.300000000000001,-432.83195761257195,-45.6319576125719,0.0,270.0,0.0,0.0,60.0,45.0,10.0,-8.8,-1.077689183249671E-15,-1.0370899457402696,-1.0370899457402698,-9.83708994574027,-1.037089945740271
4.4,-442.66904755831223,-46.66904755831217,0.0,270.0,0.0,0.0,60.0,45.0,10.0,-8.8,-1.077689183249671E-15,-1.0370899457402696,-1.0370899457402698,-9.83708994574027,-1.037089945740271
4.5,-452.5061375040525,-47.70613750405244,0.0,270.0,0.0,0.0,60.0,45.0,10.0,-8.8,-1.077689183249671E-15,-1.0370899457402696,-1.0370899457402698,-9.83708994574027,-1.037089945740271
4.6,-462.3432274497928,-48.74322744979271,0.0,270.0,0.0,0.0,60.0,45.0,10.0,-8.8,-1.077689183249671E-15,-1.0370899457402696,-1.0370899457402698,-9.83708994574027,-1.037089945740271
4.699999999999999,-472.18031739553305,-49.78031739553298,0.0,270.0,0.0,0.0,60.0,45.0,10.0,-8.8,-1.077689183249671E-15,-1.0370899457402696,-1.0370899457402698,-9.83708994574027,-1.037089945740271
4.799999999999999,-482.0174073412733,-50.81740734127325,0.0,270.0,0.0,0.0,60.0,45.0,10.0,-8.8,-1.077689183249671E-15,-1.0370899457402696,-1.0370899457402698,-9.83708994574027,-1.037089945740271
4.899999999999999,-491.8544972870136,-51.85449728701352,0.0,270.0,0.0,0.0,60.0,45.0,10.0,-8.8,-1.077689183249671E-15,-1.0370899457402696,-1.0370899457402698,-9.83708994574027,-1.037089945740271
4.999999999999998,-501.6915872327539,-52.89158723275379,0.0,270.0,0.0,0.0,60.0,45.0,10.0,-8.8,-1.077689183249671E-15,-1.0370899457402696,-1.0370899457402698,-9.83708994574027,-1.037089945740271
5.099999999999998,-511.52867717849415,-53.92867717849406,0.0,270.0,0.0,0.0,60.0,45.0,10.0,-8.8,-1.077689183249671E-15,-1.0370899457402696,-1.0370899457402698,-9.83708994574027,-1.037089945740271
5.1999999999999975,-521.3657671242344,-54.96576712423433,0.0,270.0,0.0,0.0,60.0,45.0,10.0,-8.8,-1.077689183249671E-15,-1.0370899457402696,-1.0370899457402698,-9.83708994574027,-1.037089945740271
5.299999999999997,-531.2028570699746,-56.0028570699746,0.0,270.0,0.0,0.0,60.0,45.0,10.0,-8.8,-1.077689183249671E-15,-1.0370899457402696,-1.0370899457402698,-9.83708994574027,-1.037089945740271
5.399999999999997,-541.0399470157148,-57.03994701571487,0.0,270.0,0.0,0.0,60.0,45.0,10.0,-8.8,-1.077689183249671E-15,-1.0370899457402696,-1.0370899457402698,-9.83708994574027,-1.037089945740271
5.4999999999999964,-550.877036961455,-58.07703696145514,0.0,270.0,0.0,0.0,60.0,45.0,10.0,-8.8,-1.077689183249671E-15,-1.0370899457402696,-1.0370899457402698,-9.83708994574027,-1.037089945740271
5.599999999999996,-560.7141269071952,-59.11412690719541,0.0,270.0,0.0,0.0,60.0,45.0,10.0,-8.8,-1.077689183249671E-15,-1.0370899457402696,-1.0370899457402698,-9.83708994574027,-1.037089945740271
5.699999999999996,-570.5512168529355,-60.15121685293568,0.0,270.0,0.0,0.0,60.0,45.0,10.0,-8.8,-1.077689183249671E-15,-1.0370899457402696,-1.0370899457402698,-9.83708994574027,-1.037089945740271
5.799999999999995,-580.3883067986757,-61.18830679867595,0.0,270.0,0.0,0.0,60.0,45.0,10.0,-8.8,-1.077689183249671E-15,-1.0370899457402696,-1.0370899457402698,-9.83708994574027,-1.037089945740271
5.899999999999995,-590.2253967444159,-62.22539674441622,0.0,270.0,0.0,0.0,60.0,45.0,10.0,-8.8,-1.077689183249671E-15,-1.0370899457402696,-1.0370899457402698,-9.83708994574027,-1.037089945740271
5.999999999999995,-600.0624866901561,-63.26248669015649,0.0,270.0,0.0,0.0,60.0,45.0,10.0,-8.8,-1.077689183249671E-15,-1.0370899457402696,-1.0370899457402698,-9.83708994574027,-1.037089945740271
6.099999999999994,-609.8995766358963,-64.29957663589676,0.0,270.0,0.0,0.0,60.0,45.0,10.0,-8.8,-1.077689183249671E-15,-1.0370899457402696,-1.0370899457402698,-9.83708994574027,-1.037089945740271
6.199999999999994,-619.7366665816365,-65.33666658163702,0.0,270.0,0.0,0.0,60.0,45.0,10.0,-8.8,-1.077689183249671E-15,-1.0370899457402696,-1.0370899457402698,-9.83708994574027,-1.037089945740271
6.299999999999994,-629.5737565273768,-66.37375652737728,0.0,270.0,0.0,0.0,60.0,45.0,10.0,-8.8,-1.077689183249671E-15,-1.0370899457402696,-1.0370899457402698,-9.83708994574027,-1.037089945740271
6.399999999999993,-639.410846473117,-67.41084647311754,0.0,270.0,0.0,0.0,60.0,45.0,10.0,-8.8,-1.077689183249671E-15,-1.0370899457402696,-1.0370899457402698,-9.83708994574027,-1.037089945740271
6.499999999999993,-649.2479364188572,-68.44793641885781,0.0,270.0,0.0,0.0,60.0,45.0,10.0,-8.8,-1.077689183249671E-15,-1.0370899457402696,-1.0370899457402698,-9.83708994574027,-1.037089945740271
6.5999999999999925,-659.0850263645974,-69.48502636459807,0.0,270.0,0.0,0.0,60.0,45.0,10.0,-8.8,-1.077689183249671E-15,-1.0370899457402696,-1.0370899457402698,-9.83708994574027,-1.037089945740271
6.699999999999992,-668.9221163103376,-70.52211631033833,0.0,270.0,0.0,0.0,60.0,45.0,10.0,-8.8,-1.077689183249671E-15,-1.0370899457402696,-1.0370899457402698,-9.83708994574027,-1.037089945740271
6.799999999999992,-678.7592062560778,-71.5592062560786,0.0,270.0,0.0,0.0,60.0,45.0,10.0,-8.8,-1.077689183249671E-15,-1.0370899457402696,-1.0370899457402698,-9.83708994574027,-1.037089945740271
6.8999999999999915,-688.5962962018181,-72.59629620181886,0.0,270.0,0.0,0.0,60.0,45.0,10.0,-8.8,-1.077689183249671E-15,-1.0370899457402696,-1.0370899457402698,-9.83708994574027,-1.037089945740271
6.999999999999991,-698.4333861475583,-73.63338614755912,0.0,270.0,0.0,0.0,60.0,45.0,10.0,-8.8,-1.077689183249671E-15,-1.0370899457402696,-1.0370899457402698,-9.83708994574027,-1.037089945740271
7.099999999999991,-708.2704760932985,-74.67047609329938,0.0,270.0,0.0,0.0,60.0,45.0,10.0,-8.8,-1.077689183249671E-15,-1.0370899457402696,-1.0370899457402698,-9.83708994574027,-1.037089945740271
7.19999999999999,-718.1075660390387,-75.70756603903965,0.0,270.0,0.0,0.0,60.0,45.0,10.0,-8.8,-1.077689183249671E-15,-1.0370899457402696,-1.0370899457402698,-9.83708994574027,-1.037089945740271
7.29999999999999,-727.9446559847789,-76.74465598477991,0.0,270.0,0.0,0.0,60.0,45.0,10.0,-8.8,-1.077689183249671E-15,-1.0370899457402696,-1.0370899457402698,-9.83708994574027,-1.037089945740271
7.39999999999999,-737.7817459305192,-77.78174593052017,0.0,270.0,0.0,0.0,60.0,45.0,10.0,-8.8,-1.077689183249671E-15,-1.0370899457402696,-1.0370899457402698,-9.83708994574027,-1.037089945740271
7.499999999999989,-747.6188358762594,-78.81883587626044,0.0,270.0,0.0,0.0,60.0,45.0,10.0,-8.8,-1.077689183249671E-15,-1.0370899457402696,-1.0370899457402698,-9.83708994574027,-1.037089945740271
7.599999999999989,-757.4559258219996,-79.8559258220007,0.0,270.0,0.0,0.0,60.0,45.0,10.0,-8.8,-1.077689183249671E-15,-1.0370899457402696,-1.0370899457402698,-9.83708994574027,-1.037089945740271
7.699999999999989,-767.2930157677398,-80.89301576774096,0.0,270.0,0.0,0.0,60.0,45.0,10.0,-8.8,-1.077689183249671E-15,-1.0370899457402696,-1.0370899457402698,-9.83708994574027,-1.037089945740271
7.799999999999988,-777.13010571348,-81.93010571348123,0.0,270.0,0.0,0.0,60.0,45.0,10.0,-8.8,-1.077689183249671E-15,-1.0370899457402696,-1.0370899457402698,-9.83708994574027,-1.037089945740271
7.899999999999988,-786.9671956592202,-82.96719565922149,0.0,270.0,0.0,0.0,60.0,45.0,10.0,-8.8,-1.077689183249671E-15,-1.0370899457402696,-1.0370899457402698,-9.83708994574027,-1.037089945740271
7.999999999999988,-796.8042856049605,-84.00428560496175,0.0,270.0,0.0,0.0,60.0,45.0,10.0,-8.8,-1.077689183249671E-15,-1.0370899457402696,-1.0370899457402698,-9.83708994574027,-1.037089945740271
8.099999999999987,-806.6413755507007,-85.04137555070201,0.0,270.0,0.0,0.0,60.0,45.0,10.0,-8.8,-1.077689183249671E-15,-1.0370899457402696,-1.0370899457402698,-9.83708994574027,-1.037089945740271
8.199999999999987,-816.4784654964409,-86.07846549644228,0.0,270.0,0.0,0.0,60.0,45.0,10.0,-8.8,-1.077689183249671E-15,-1.0370899457402696,-1.0370899457402698,-9.83708994574027,-1.037089945740271
8.299999999999986,-826.3155554421811,-87.11555544218254,0.0,270.0,0.0,0.0,60.0,45.0,10.0,-8.8,-1.077689183249671E-15,-1.0370899457402696,-1.0370899457402698,-9.83708994574027,-1.037089945740271
8.399999999999986,-836.1526453879213,-88.1526453879228,0.0,270.0,0.0,0.0,60.0,45.0,10.0,-8.8,-1.077689183249671E-15,-1.0370899457402696,-1.0370899457402698,-9.83708994574027,-1.037089945740271
8.499999999999986,-845.9897353336615,-89.18973533366307,0.0,270.0,0.0,0.0,60.0,45.0,10.0,-8.8,-1.077689183249671E-15,-1.0370899457402696,-1.0370899457402698,-9.83708994574027,-1.037089945740271
8.599999999999985,-855.8268252794018,-90.22682527940333,0.0,270.0,0.0,0.0,60.0,45.0,10.0,-8.8,-1.077689183249671E-15,-1.0370899457402696,-1.0370899457402698,-9.83708994574027,-1.037089945740271
8.699999999999985,-865.663915225142,-91.26391522514359,0.0,270.0,0.0,0.0,60.0,45.0,10.0,-8.8,-1.077689183249671E-15,-1.0370899457402696,-1.0370899457402698,-9.83708994574027,-1.037089945740271
8.799999999999985,-875.5010051708822,-92.30100517088385,0.0,270.0,0.0,0.0,60.0,45.0,10.0,-8.8,-1.077689183249671E-15,-1.0370899457402696,-1.0370899457402698,-9.83708994574027,-1.037089945740271
8.899999999999984,-885.3380951166224,-93.33809511662412,0.0,270.0,0.0,0.0,60.0,45.0,10.0,-8.8,-1.077689183249671E-15,-1.0370899457402696,-1.0370899457402698,-9.83708994574027,-1.037089945740271
8.999999999999984,-895.1751850623626,-94.37518506236438,0.0,270.0,0.0,0.0,60.0,45.0,10.0,-8.8,-1.077689183249671E-15,-1.0370899457402696,-1.0370899457402698,-9.83708994574027,-1.037089945740271
9.099999999999984,-905.0122750081028,-95.41227500810464,0.0,270.0,0.0,0.0,60.0,45.0,10.0,-8.8,-1.077689183249671E-15,-1.0370899457402696,-1.0370899457402698,-9.83708994574027,-1.037089945740271
9.199999999999983,-914.8493649538431,-96.4493649538449,0.0,270.0,0.0,0.0,60.0,45.0,10.0,-8.8,-1.077689183249671E-15,-1.0370899457402696,-1.0370899457402698,-9.83708994574027,-1.037089945740271
9.299999999999983,-924.6864548995833,-97.48645489958517,0.0,270.0,0.0,0.0,60.0,45.0,10.0,-8.8,-1.077689183249671E-15,-1.0370899457402696,-1.0370899457402698,-9.83708994574027,-1.037089945740271
9.399999999999983,-934.5235448453235,-98.52354484532543,0.0,270.0,0.0,0.0,60.0,45.0,10.0,-8.8,-1.077689183249671E-15,-1.0370899457402696,-1.0370899457402698,-9.83708994574027,-1.037089945740271
9.499999999999982,-944.3606347910637,-99.5606347910657,0.0,270.0,0.0,0.0,60.0,45.0,10.0,-8.8,-1.077689183249671E-15,-1.0370899457402696,-1.0370899457402698,-9.83708994574027,-1.037089945740271
9.599999999999982,-954.1977247368039,-100.59772473680596,0.0,270.0,0.0,0.0,60.0,45.0,10.0,-8.8,-1.077689183249671E-15,-1.0370899457402696,-1.0370899457402698,-9.83708994574027,-1.037089945740271
9.699999999999982,-964.0348146825442,-101.63481468254622,0.0,270.0,0.0,0.0,60.0,45.0,10.0,-8.8,-1.077689183249671E-15,-1.0370899457402696,-1.0370899457402698,-9.83708994574027,-1.037089945740271
9.799999999999981,-973.8719046282844,-102.67190462828648,0.0,270.0,0.0,0.0,60.0,45.0,10.0,-8.8,-1.077689183249671E-15,-1.0370899457402696,-1.0370899457402698,-9.83708994574027,-1.037089945740271
9.89999999999998,-983.7089945740246,-103.70899457402675,0.0,270.0,0.0,0.0,60.0,45.0,10.0,-8.8,-1.077689183249671E-15,-1.0370899457402696,-1.0370899457402698,-9.83708994574027,-1.037089945740271
9.99999999999998,-993.5460845197648,-104.74608451976701,0.0,270.0,0.0,0.0,60.0,45.0,10.0,-8.8,-1.077689183249671E-15,-1.0370899457402696,-1.0370899457402698,-9.83708994574027,-1.037089945740271
10.09999999999998,-1003.383174465505,-105.78317446550727,0.0,270.0,0.0,0.0,60.0,45.0,10.0,-8.8,-1.077689183249671E-15,-1.0370899457402696,-1.0370899457402698,-9.83708994574027,-1.037089945740271
10.19999999999998,-1013.2202644112452,-106.82026441124754,0.0,270.0,0.0,0.0,60.0,45.0,10.0,-8.8,-1.077689183249671E-15,-1.0370899457402696,-1.0370899457402698,-9.83708994574027,-1.037089945740271
10.29999999999998,-1023.0573543569855,-107.8573543569878,0.0,270.0,0.0,0.0,60.0,45.0,10.0,-8.8,-1.077689183249671E-15,-1.0370899457402696,-1.0370899457402698,-9.83708994574027,-1.037089945740271
10.399999999999979,-1032.8944443027258,-108.89444430272806,0.0,270.0,0.0,0.0,60.0,45.0,10.0,-8.8,-1.077689183249671E-15,-1.0370899457402696,-1.0370899457402698,-9.83708994574027,-1.037089945740271
10.499999999999979,-1042.731534248466,-109.93153424846832,0.0,270.0,0.0,0.0,60.0,45.0,10.0,-8.8,-1.077689183249671E-15,-1.0370899457402696,-1.0370899457402698,-9.83708994574027,-1.037089945740271
10.599999999999978,-1052.5686241942062,-110.96862419420859,0.0,270.0,0.0,0.0,60.0,45.0,10.0,-8.8,-1.077689183249671E-15,-1.0370899457402696,-1.0370899457402698,-9.83708994574027,-1.037089945740271
10.699999999999978,-1062.4057141399464,-112.00571413994885,0.0,270.0,0.0,0.0,60.0,45.0,10.0,-8.8,-1.077689183249671E-15,-1.0370899457402696,-1.0370899457402698,-9.83708994574027,-1.037089945740271
10.799999999999978,-1072.2428040856867,-113.04280408568911,0.0,270.0,0.0,0.0,60.0,45.0,10.0,-8.8,-1.077689183249671E-15,-1.0370899457402696,-1.0370899457402698,-9.83708994574027,-1.037089945740271
10.899999999999977,-1082.0798940314269,-114.07989403142938,0.0,270.0,0.0,0.0,60.0,45.0,10.0,-8.8,-1.077689183249671E-15,-1.0370899457402696,-1.0370899457402698,-9.83708994574027,-1.037089945740271
10.999999999999977,-1091.916983977167,-115.11698397716964,0.0,270.0,0.0,0.0,60.0,45.0,10.0,-8.8,-1.077689183249671E-15,-1.0370899457402696,-1.0370899457402698,-9.83708994574027,-1.037089945740271
11.099999999999977,-1101.7540739229073,-116.1540739229099,0.0,270.0,0.0,0.0,60.0,45.0,10.0,-8.8,-1.077689183249671E-15,-1.0370899457402696,-1.0370899457402698,-9.83708994574027,-1.037089945740271
11.199999999999976,-1111.5911638686475,-117.19116386865016,0.0,270.0,0.0,0.0,60.0,45.0,10.0,-8.8,-1.077689183249671E-15,-1.0370899457402696,-1.0370899457402698,-9.83708994574027,-1.037089945740271
11.299999999999976,-1121.4282538143877,-118.22825381439043,0.0,270.0,0.0,0.0,60.0,45.0,10.0,-8.8,-1.077689183249671E-15,-1.0370899457402696,-1.0370899457402698,-9.83708994574027,-1.037089945740271
11.399999999999975,-1131.265343760128,-119.26534376013069,0.0,270.0,0.0,0.0,60.0,45.0,10.0,-8.8,-1.077689183249671E-15,-1.0370899457402696,-1.0370899457402698,-9.83708994574027,-1.037089945740271
11.499999999999975,-1141.1024337058682,-120.30243370587095,0.0,270.0,0.0,0.0,60.0,45.0,10.0,-8.8,-1.077689183249671E-15,-1.0370899457402696,-1.0370899457402698,-9.83708994574027,-1.037089945740271
11.599999999999975,-1150.9395236516084,-121.33952365161122,0.0,270.0,0.0,0.0,60.0,45.0,10.0,-8.8,-1.077689183249671E-15,-1.0370899457402696,-1.0370899457402698,-9.83708994574027,-1.037089945740271
11.699999999999974,-1160.7766135973486,-122.37661359735148,0.0,270.0,0.0,0.0,60.0,45.0,10.0,-8.8,-1.077689183249671E-15,-1.0370899457402696,-1.0370899457402698,-9.83708994574027,-1.037089945740271
11.799999999999974,-1170.6137035430888,-123.41370354309174,0.0,270.0,0.0,0.0,60.0,45.0,10.0,-8.8,-1.077689183249671E-15,-1.0370899457402696,-1.0370899457402698,-9.83708994574027,-1.037089945740271
11.899999999999974,-1180.450793488829,-124.450793488832,0.0,270.0,0.0,0.0,60.0,45.0,10.0,-8.8,-1.077689183249671E-15,-1.0370899457402696,-1.0370899457402698,-9.83708994574027,-1.037089945740271
11.999999999999973,-1190.2878834345693,-125.48788343457227,0.0,270.0,0.0,0.0,60.0,45.0,10.0,-8.8,-1.077689183249671E-15,-1.0370899457402696,-1.0370899457402698,-9.83708994574027,-1.037089945740271
12.099999999999973,-1200.1249733803095,-126.52497338031253,0.0,270.0,0.0,0.0,60.0,45.0,10.0,-8.8,-1.077689183249671E-15,-1.0370899457402696,-1.0370899457402698,-9.83708994574027,-1.037089945740271
12.199999999999973,-1209.9620633260497,-127.5620633260528,0.0,270.0,0.0,0.0,60.0,45.0,10.0,-8.8,-1.077689183249671E-15,-1.0370899457402696,-1.0370899457402698,-9.83708994574027,-1.037089945740271
12.299999999999972,-1219.79915327179,-128.59915327179306,0.0,270.0,0.0,0.0,60.0,45.0,10.0,-8.8,-1.077689183249671E-15,-1.0370899457402696,-1.0370899457402698,-9.83708994574027,-1.037089945740271
12.399999999999972,-1229.6362432175301,-129.63624321753332,0.0,270.0,0.0,0.0,60.0,45.0,10.0,-8.8,-1.077689183249671E-15,-1.0370899457402696,-1.0370899457402698,-9.83708994574027,-1.037089945740271
12.499999999999972,-1239.4733331632704,-130.67333316327358,0.0,270.0,0.0,0.0,60.0,45.0,10.0,-8.8,-1.077689183249671E-15,-1.0370899457402696,-1.0370899457402698,-9.83708994574027,-1.037089945740271
12.599999999999971,-1249.3104231090106,-131.71042310901385,0.0,270.0,0.0,0.0,60.0,45.0,10.0,-8.8,-1.077689183249671E-15,-1.0370899457402696,-1.0370899457402698,-9.83708994574027,-1.037089945740271
12.69999999999997,-1259.1475130547508,-132.7475130547541,0.0,270.0,0.0,0.0,60.0,45.0,10.0,-8.8,-1.077689183249671E-15,-1.0370899457402696,-1.0370899457402698,-9.83708994574027,-1.037089945740271
12.79999999999997,-1268.984603000491,-133.78460300049437,0.0,270.0,0.0,0.0,60.0,45.0,10.0,-8.8,-1.077689183249671E-15,-1.0370899457402696,-1.0370899457402698,-9.83708994574027,-1.037089945740271
12.89999999999997,-1278.8216929462312,-134.82169294623463,0.0,270.0,0.0,0.0,60.0,45.0,10.0,-8.8,-1.077689183249671E-15,-1.0370899457402696,-1.0370899457402698,-9.83708994574027,-1.037089945740271
12.99999999999997,-1288.6587828919714,-135.8587828919749,0.0,270.0,0.0,0.0,60.0,45.0,10.0,-8.8,-1.077689183249671E-15,-1.0370899457402696,-1.0370899457402698,-9.83708994574027,-1.037089945740271
13.09999999999997,-1298.4958728377117,-136.89587283771516,0.0,270.0,0.0,0.0,60.0,45.0,10.0,-8.8,-1.077689183249671E-15,-1.0370899457402696,-1.0370899457402698,-9.83708994574027,-1.037089945740271
13.199999999999969,-1308.3329627834519,-137.93296278345542,0.0,270.0,0.0,0.0,60.0,45.0,10.0,-8.8,-1.077689183249671E-15,-1.0370899457402696,-1.0370899457402698,-9.83708994574027,-1.037089945740271
13.299999999999969,-1318.170052729192,-138.9700527291957,0.0,270.0,0.0,0.0,60.0,45.0,10.0,-8.8,-1.077689183249671E-15,-1.0370899457402696,-1.0370899457402698,-9.83708994574027,-1.037089945740271
13.399999999999968,-1328.0071426749323,-140.00714267493595,0.0,270.0,0.0,0.0,60.0,45.0,10.0,-8.8,-1.077689183249671E-15,-1.0370899457402696,-1.0370899457402698,-9.83708994574027,-1.037089945740271
13.499999999999968,-1337.8442326206725,-141.0442326206762,0.0,270.0,0.0,0.0,60.0,45.0,10.0,-8.8,-1.077689183249671E-15,-1.0370899457402696,-1.0370899457402698,-9.83708994574027,-1.037089945740271
13.599999999999968,-1347.6813225664127,-142.08132256641647,0.0,270.0,0.0,0.0,60.0,45.0,10.0,-8.8,-1.077689183249671E-15,-1.0370899457402696,-1.0370899457402698,-9.83708994574027,-1.037089945740271
13.699999999999967,-1357.518412512153,-143.11841251215674,0.0,270.0,0.0,0.0,60.0,45.0,10.0,-8.8,-1.077689183249671E-15,-1.0370899457402696,-1.0370899457402698,-9.83708994574027,-1.037089945740271
13.799999999999967,-1367.3555024578932,-144.155502457897,0.0,270.0,0.0,0.0,60.0,45.0,10.0,-8.8,-1.077689183249671E-15,-1.0370899457402696,-1.0370899457402698,-9.83708994574027,-1.037089945740271
13.899999999999967,-1377.1925924036334,-145.19259240363726,0.0,270.0,0.0,0.0,60.0,45.0,10.0,-8.8,-1.077689183249671E-15,-1.0370899457402696,-1.0370899457402698,-9.83708994574027,-1.037089945740271
13.999999999999966,-1387.0296823493736,-146.22968234937753,0.0,270.0,0.0,0.0,60.0,45.0,10.0,-8.8,-1.077689183249671E-15,-1.0370899457402696,-1.0370899457402698,-9.83708994574027,-1.037089945740271
14.099999999999966,-1396.8667722951138,-147.2667722951178,0.0,270.0,0.0,0.0,60.0,45.0,10.0,-8.8,-1.077689183249671E-15,-1.0370899457402696,-1.0370899457402698,-9.83708994574027,-1.037089945740271
14.199999999999966,-1406.703862240854,-148.30386224085805,0.0,270.0,0.0,0.0,60.0,45.0,10.0,-8.8,-1.077689183249671E-15,-1.0370899457402696,-1.0370899457402698,-9.83708994574027,-1.037089945740271
14.299999999999965,-1416.5409521865943,-149.34095218659832,0.0,270.0,0.0,0.0,60.0,45.0,10.0,-8.8,-1.077689183249671E-15,-1.0370899457402696,-1.0370899457402698,-9.83708994574027,-1.037089945740271
14.399999999999965,-1426.3780421323345,-150.37804213233858,0.0,270.0,0.0,0.0,60.0,45.0,10.0,-8.8,-1.077689183249671E-15,-1.0370899457402696,-1.0370899457402698,-9.83708994574027,-1.037089945740271
14.499999999999964,-1436.2151320780747,-151.41513207807884,0.0,270.0,0.0,0.0,60.0,45.0,10.0,-8.8,-1.077689183249671E-15,-1.0370899457402696,-1.0370899457402698,-9.83708994574027,-1.037089945740271
14.599999999999964,-1446.052222023815,-152.4522220238191,0.0,270.0,0.0,0.0,60.0,45.0,10.0,-8.8,-1.077689183249671E-15,-1.0370899457402696,-1.0370899457402698,-9.83708994574027,-1.037089945740271
14.699999999999964,-1455.8893119695551,-153.48931196955937,0.0,270.0,0.0,0.0,60.0,45.0,10.0,-8.8,-1.077689183249671E-15,-1.0370899457402696,-1.0370899457402698,-9.83708994574027,-1.037089945740271
14.799999999999963,-1465.7264019152954,-154.52640191529963,0.0,270.0,0.0,0.0,60.0,45.0,10.0,-8.8,-1.077689183249671E-15,-1.0370899457402696,-1.0370899457402698,-9.83708994574027,-1.037089945740271
14.899999999999963,-1475.5634918610356,-155.5634918610399,0.0,270.0,0.0,0.0,60.0,45.0,10.0,-8.8,-1.077689183249671E-15,-1.0370899457402696,-1.0370899457402698,-9.83708994574027,-1.037089945740271
14.999999999999963,-1485.4005818067758,-156.60058180678016,0.0,270.0,0.0,0.0,60.0,45.0,10.0,-8.8,-1.077689183249671E-15,-1.0370899457402696,-1.0370899457402698,-9.83708994574027,-1.037089945740271
15.099999999999962,-1495.237671752516,-157.63767175252042,0.0,270.0,0.0,0.0,60.0,45.0,10.0,-8.8,-1.077689183249671E-15,-1.0370899457402696,-1.0370899457402698,-9.83708994574027,-1.037089945740271
15.199999999999962,-1505.0747616982562,-158.67476169826068,0.0,270.0,0.0,0.0,60.0,45.0,10.0,-8.8,-1.077689183249671E-15,-1.0370899457402696,-1.0370899457402698,-9.83708994574027,-1.037089945740271
15.299999999999962,-1514.9118516439964,-159.71185164400094,0.0,270.0,0.0,0.0,60.0,45.0,10.0,-8.8,-1.077689183249671E-15,-1.0370899457402696,-1.0370899457402698,-9.83708994574027,-1.037089945740271
15.399999999999961,-1524.7489415897367,-160.7489415897412,0.0,270.0,0.0,0.0,60.0,45.0,10.0,-8.8,-1.077689183249671E-15,-1.0370899457402696,-1.0370899457402698,-9.83708994574027,-1.037089945740271
15.499999999999961,-1534.5860315354769,-161.78603153548147,0.0,270.0,0.0,0.0,60.0,45.0,10.0,-8.8,-1.077689183249671E-15,-1.0370899457402696,-1.0370899457402698,-9.83708994574027,-1.037089945740271
15.59999999999996,-1544.423121481217,-162.82312148122173,0.0,270.0,0.0,0.0,60.0,45.0,10.0,-8.8,-1.077689183249671E-15,-1.0370899457402696,-1.0370899457402698,-9.83708994574027,-1.037089945740271
15.69999999999996,-1554.2602114269573,-163.860211426962,0.0,270.0,0.0,0.0,60.0,45.0,10.0,-8.8,-1.077689183249671E-15,-1.0370899457402696,-1.0370899457402698,-9.83708994574027,-1.037089945740271
15.79999999999996,-1564.0973013726975,-164.89730137270226,0.0,270.0,0.0,0.0,60.0,45.0,10.0,-8.8,-1.077689183249671E-15,-1.0370899457402696,-1.0370899457402698,-9.83708994574027,-1.037089945740271
15.89999999999996,-1573.9343913184377,-165.93439131844252,0.0,270.0,0.0,0.0,60.0,45.0,10.0,-8.8,-1.077689183249671E-15,-1.0370899457402696,-1.0370899457402698,-9.83708994574027,-1.037089945740271
15.99999999999996,-1583.771481264178,-166.97148126418278,0.0,270.0,0.0,0.0,60.0,45.0,10.0,-8.8,-1.077689183249671E-15,-1.0370899457402696,-1.0370899457402698,-9.83708994574027,-1.037089945740271
16.09999999999996,-1593.6085712099182,-168.00857120992305,0.0,270.0,0.0,0.0,60.0,45.0,10.0,-8.8,-1.077689183249671E-15,-1.0370899457402696,-1.0370899457402698,-9.83708994574027,-1.037089945740271
16.19999999999996,-1603.4456611556584,-169.0456611556633,0.0,270.0,0.0,0.0,60.0,45.0,10.0,-8.8,-1.077689183249671E-15,-1.0370899457402696,-1.0370899457402698,-9.83708994574027,-1.037089945740271
16.29999999999996,-1613.2827511013986,-170.08275110140357,0.0,270.0,0.0,0.0,60.0,45.0,10.0,-8.8,-1.077689183249671E-15,-1.0370899457402696,-1.0370899457402698,-9.83708994574027,-1.037089945740271
16.399999999999963,-1623.1198410471388,-171.11984104714384,0.0,270.0,0.0,0.0,60.0,45.0,10.0,-8.8,-1.077689183249671E-15,-1.0370899457402696,-1.0370899457402698,-9.83708994574027,-1.037089945740271
16.499999999999964,-1632.956930992879,-172.1569309928841,0.0,270.0,0.0,0.0,60.0,45.0,10.0,-8.8,-1.077689183249671E-15,-1.0370899457402696,-1.0370899457402698,-9.83708994574027,-1.037089945740271
16.599999999999966,-1642.7940209386193,-173.19402093862436,0.0,270.0,0.0,0.0,60.0,45.0,10.0,-8.8,-1.077689183249671E-15,-1.0370899457402696,-1.0370899457402698,-9.83708994574027,-1.037089945740271
16.699999999999967,-1652.6311108843595,-174.23111088436463,0.0,270.0,0.0,0.0,60.0,45.0,10.0,-8.8,-1.077689183249671E-15,-1.0370899457402696,-1.0370899457402698,-9.83708994574027,-1.037089945740271
16.79999999999997,-1662.4682008300997,-175.2682008301049,0.0,270.0,0.0,0.0,60.0,45.0,10.0,-8.8,-1.077689183249671E-15,-1.0370899457402696,-1.0370899457402698,-9.83708994574027,-1.037089945740271
16.89999999999997,-1672.30529077584,-176.30529077584515,0.0,270.0,0.0,0.0,60.0,45.0,10.0,-8.8,-1.077689183249671E-15,-1.0370899457402696,-1.0370899457402698,-9.83708994574027,-1.037089945740271
16.99999999999997,-1682.1423807215801,-177.3423807215854,0.0,270.0,0.0,0.0,60.0,45.0,10.0,-8.8,-1.077689183249671E-15,-1.0370899457402696,-1.0370899457402698,-9.83708994574027,-1.037089945740271
17.099999999999973,-1691.9794706673204,-178.37947066732568,0.0,270.0,0.0,0.0,60.0,45.0,10.0,-8.8,-1.077689183249671E-15,-1.0370899457402696,-1.0370899457402698,-9.83708994574027,-1.037089945740271
17.199999999999974,-1701.8165606130606,-179.41656061306594,0.0,270.0,0.0,0.0,60.0,45.0,10.0,-8.8,-1.077689183249671E-15,-1.0370899457402696,-1.0370899457402698,-9.83708994574027,-1.037089945740271
17.299999999999976,-1711.6536505588008,-180.4536505588062,0.0,270.0,0.0,0.0,60.0,45.0,10.0,-8.8,-1.077689183249671E-15,-1.0370899457402696,-1.0370899457402698,-9.83708994574027,-1.037089945740271
17.399999999999977,-1721.490740504541,-181.49074050454647,0.0,270.0,0.0,0.0,60.0,45.0,10.0,-8.8,-1.077689183249671E-15,-1.0370899457402696,-1.0370899457402698,-9.83708994574027,-1.037089945740271
17.49999999999998,-1731.3278304502812,-182.52783045028673,0.0,270.0,0.0,0.0,60.0,45.0,10.0,-8.8,-1.077689183249671E-15,-1.0370899457402696,-1.0370899457402698,-9.83708994574027,-1.037089945740271
17.59999999999998,-1741.1649203960214,-183.564920396027,0.0,270.0,0.0,0.0,60.0,45.0,10.0,-8.8,-1.077689183249671E-15,-1.0370899457402696,-1.0370899457402698,-9.83708994574027,-1.037089945740271
17.69999999999998,-1751.0020103417617,-184.60201034176725,0.0,270.0,0.0,0.0,60.0,45.0,10.0,-8.8,-1.077689183249671E-15,-1.0370899457402696,-1.0370899457402698,-9.83708994574027,-1.037089945740271
17.799999999999983,-1760.8391002875019,-185.63910028750752,0.0,270.0,0.0,0.0,60.0,45.0,10.0,-8.8,-1.077689183249671E-15,-1.0370899457402696,-1.0370899457402698,-9.83708994574027,-1.037089945740271
17.899999999999984,-1770.676190233242,-186.67619023324778,0.0,270.0,0.0,0.0,60.0,45.0,10.0,-8.8,-1.077689183249671E-15,-1.0370899457402696,-1.0370899457402698,-9.83708994574027,-1.037089945740271
17.999999999999986,-1780.5132801789823,-187.71328017898804,0.0,270.0,0.0,0.0,60.0,45.0,10.0,-8.8,-1.077689183249671E-15,-1.0370899457402696,-1.0370899457402698,-9.83708994574027,-1.037089945740271
18.099999999999987,-1790.3503701247225,-188.7503701247283,0.0,270.0,0.0,0.0,60.0,45.0,10.0,-8.8,-1.077689183249671E-15,-1.0370899457402696,-1.0370899457402698,-9.83708994574027,-1.037089945740271
18.19999999999999,-1800.1874600704627,-189.78746007046857,0.0,270.0,0.0,0.0,60.0,45.0,10.0,-8.8,-1.077689183249671E-15,-1.0370899457402696,-1.0370899457402698,-9.83708994574027,-1.037089945740271
18.29999999999999,-1810.024550016203,-190.82455001620883,0.0,270.0,0.0,0.0,60.0,45.0,10.0,-8.8,-1.077689183249671E-15,-1.0370899457402696,-1.0370899457402698,-9.83708994574027,-1.037089945740271
18.39999999999999,-1819.8616399619432,-191.8616399619491,0.0,270.0,0.0,0.0,60.0,45.0,10.0,-8.8,-1.077689183249671E-15,-1.0370899457402696,-1.0370899457402698,-9.83708994574027,-1.037089945740271
18.499999999999993,-1829.6987299076834,-192.89872990768936,0.0,270.0,0.0,0.0,60.0,45.0,10.0,-8.8,-1.077689183249671E-15,-1.0370899457402696,-1.0370899457402698,-9.83708994574027,-1.037089945740271
18.599999999999994,-1839.5358198534236,-193.93581985342962,0.0,270.0,0.0,0.0,60.0,45.0,10.0,-8.8,-1.077689183249671E-15,-1.0370899457402696,-1.0370899457402698,-9.83708994574027,-1.037089945740271
18.699999999999996,-1849.3729097991638,-194.97290979916988,0.0,270.0,0.0,0.0,60.0,45.0,10.0,-8.8,-1.077689183249671E-15,-1.0370899457402696,-1.0370899457402698,-9.83708994574027,-1.037089945740271
18.799999999999997,-1859.209999744904,-196.00999974491015,0.0,270.0,0.0,0.0,60.0,45.0,10.0,-8.8,-1.077689183249671E-15,-1.0370899457402696,-1.0370899457402698,-9.83708994574027,-1.037089945740271
18.9,-1869.0470896906443,-197.0470896906504,0.0,270.0,0.0,0.0,60.0,45.0,10.0,-8.8,-1.077689183249671E-15,-1.0370899457402696,-1.0370899457402698,-9.83708994574027,-1.037089945740271
19.0,-1878.8841796363845,-198.08417963639067,0.0,270.0,0.0,0.0,60.0,45.0,10.0,-8.8,-1.077689183249671E-15,-1.0370899457402696,-1.0370899457402698,-9.83708994574027,-1.037089945740271
19.1,-1888.7212695821247,-199.12126958213094,0.0,270.0,0.0,0.0,60.0,45.0,10.0,-8.8,-1.077689183249671E-15,-1.0370899457402696,-1.0370899457402698,-9.83708994574027,-1.037089945740271
19.200000000000003,-1898.558359527865,-200.1583595278712,0.0,270.0,0.0,0.0,60.0,45.0,10.0,-8.8,-1.077689183249671E-15,-1.0370899457402696,-1.0370899457402698,-9.83708994574027,-1.037089945740271
19.300000000000004,-1908.3954494736051,-201.19544947361146,0.0,270.0,0.0,0.0,60.0,45.0,10.0,-8.8,-1.077689183249671E-15,-1.0370899457402696,-1.0370899457402698,-9.83708994574027,-1.037089945740271
19.400000000000006,-1918.2325394193454,-202.23253941935172,0.0,270.0,0.0,0.0,60.0,45.0,10.0,-8.8,-1.077689183249671E-15,-1.0370899457402696,-1.0370899457402698,-9.83708994574027,-1.037089945740271
19.500000000000007,-1928.0696293650856,-203.269629365092,0.0,270.0,0.0,0.0,60.0,45.0,10.0,-8.8,-1.077689183249671E-15,-1.0370899457402696,-1.0370899457402698,-9.83708994574027,-1.037089945740271
19.60000000000001,-1937.9067193108258,-204.30671931083225,0.0,270.0,0.0,0.0,60.0,45.0,10.0,-8.8,-1.077689183249671E-15,-1.0370899457402696,-1.0370899457402698,-9.83708994574027,-1.037089945740271
19.70000000000001,-1947.743809256566,-205.3438092565725,0.0,270.0,0.0,0.0,60.0,45.0,10.0,-8.8,-1.077689183249671E-15,-1.0370899457402696,-1.0370899457402698,-9.83708994574027,-1.037089945740271
19.80000000000001,-1957.5808992023062,-206.38089920231278,0.0,270.0,0.0,0.0,60.0,45.0,10.0,-8.8,-1.077689183249671E-15,-1.0370899457402696,-1.0370899457402698,-9.83708994574027,-1.037089945740271
19.900000000000013,-1967.4179891480464,-207.41798914805304,0.0,270.0,0.0,0.0,60.0,45.0,10.0,-8.8,-1.077689183249671E-15,-1.0370899457402696,-1.0370899457402698,-9.83708994574027,-1.037089945740271
20.000000000000014,-1977.2550790937867,-208.4550790937933,0.0,270.0,0.0,0.0,60.0,45.0,10.0,-8.8,-1.077689183249671E-15,-1.0370899457402696,-1.0370899457402698,-9.83708994574027,-1.037089945740271
20.100000000000016,-1987.0921690395269,-209.49216903953356,0.0,270.0,0.0,0.0,60.0,45.0,10.0,-8.8,-1.077689183249671E-15,-1.0370899457402696,-1.0370899457402698,-9.83708994574027,-1.037089945740271
20.200000000000017,-1996.929258985267,-210.52925898527383,0.0,270.0,0.0,0.0,60.0,45.0,10.0,-8.8,-1.077689183249671E-15,-1.0370899457402696,-1.0370899457402698,-9.83708994574027,-1.037089945740271
20.30000000000002,-2006.7663489310073,-211.5663489310141,0.0,270.0,0.0,0.0,60.0,45.0,10.0,-8.8,-1.077689183249671E-15,-1.0370899457402696,-1.0370899457402698,-9.83708994574027,-1.037089945740271
20.40000000000002,-2016.6034388767475,-212.60343887675435,0.0,270.0,0.0,0.0,60.0,45.0,10.0,-8.8,-1.077689183249671E-15,-1.0370899457402696,-1.0370899457402698,-9.83708994574027,-1.037089945740271
20.50000000000002,-2026.4405288224877,-213.64052882249462,0.0,270.0,0.0,0.0,60.0,45.0,10.0,-8.8,-1.077689183249671E-15,-1.0370899457402696,-1.0370899457402698,-9.83708994574027,-1.037089945740271
20.600000000000023,-2036.277618768228,-214.67761876823488,0.0,270.0,0.0,0.0,60.0,45.0,10.0,-8.8,-1.077689183249671E-15,-1.0370899457402696,-1.0370899457402698,-9.83708994574027,-1.037089945740271
20.700000000000024,-2046.1147087139682,-215.71470871397514,0.0,270.0,0.0,0.0,60.0,45.0,10.0,-8.8,-1.077689183249671E-15,-1.0370899457402696,-1.0370899457402698,-9.83708994574027,-1.037089945740271
20.800000000000026,-2055.9517986597084,-216.7517986597154,0.0,270.0,0.0,0.0,60.0,45.0,10.0,-8.8,-1.077689183249671E-15,-1.0370899457402696,-1.0370899457402698,-9.83708994574027,-1.037089945740271
20.900000000000027,-2065.788888605449,-217.78888860545567,0.0,270.0,0.0,0.0,60.0,45.0,10.0,-8.8,-1.077689183249671E-15,-1.0370899457402696,-1.0370899457402698,-9.83708994574027,-1.037089945740271
21.00000000000003,-2075.6259785511893,-218.82597855119593,0.0,270.0,0.0,0.0,60.0,45.0,10.0,-8.8,-1.077689183249671E-15,-1.0370899457402696,-1.0370899457402698,-9.83708994574027,-1.037089945740271
21.10000000000003,-2085.4630684969297,-219.8630684969362,0.0,270.0,0.0,0.0,60.0,45.0,10.0,-8.8,-1.077689183249671E-15,-1.0370899457402696,-1.0370899457402698,-9.83708994574027,-1.037089945740271
21.20000000000003,-2095.30015844267,-220.90015844267646,0.0,270.0,0.0,0.0,60.0,45.0,10.0,-8.8,-1.077689183249671E-15,-1.0370899457402696,-1.0370899457402698,-9.83708994574027,-1.037089945740271
21.300000000000033,-2105.1372483884106,-221.93724838841672,0.0,270.0,0.0,0.0,60.0,45.0,10.0,-8.8,-1.077689183249671E-15,-1.0370899457402696,-1.0370899457402698,-9.83708994574027,-1.037089945740271
21.400000000000034,-2114.974338334151,-222.97433833415698,0.0,270.0,0.0,0.0,60.0,45.0,10.0,-8.8,-1.077689183249671E-15,-1.0370899457402696,-1.0370899457402698,-9.83708994574027,-1.037089945740271
21.500000000000036,-2124.8114282798915,-224.01142827989725,0.0,270.0,0.0,0.0,60.0,45.0,10.0,-8.8,-1.077689183249671E-15,-1.0370899457402696,-1.0370899457402698,-9.83708994574027,-1.037089945740271
21.600000000000037,-2134.648518225632,-225.0485182256375,0.0,270.0,0.0,0.0,60.0,45.0,10.0,-8.8,-1.077689183249671E-15,-1.0370899457402696,-1.0370899457402698,-9.83708994574027,-1.037089945740271
21.70000000000004,-2144.4856081713724,-226.08560817137777,0.0,270.0,0.0,0.0,60.0,45.0,10.0,-8.8,-1.077689183249671E-15,-1.0370899457402696,-1.0370899457402698,-9.83708994574027,-1.037089945740271
21.80000000000004,-2154.322698117113,-227.12269811711803,0.0,270.0,0.0,0.0,60.0,45.0,10.0,-8.8,-1.077689183249671E-15,-1.0370899457402696,-1.0370899457402698,-9.83708994574027,-1.037089945740271
21.90000000000004,-2164.1597880628533,-228.1597880628583,0.0,270.0,0.0,0.0,60.0,45.0,10.0,-8.8,-1.077689183249671E-15,-1.0370899457402696,-1.0370899457402698,-9.83708994574027,-1.037089945740271
22.000000000000043,-2173.9968780085937,-229.19687800859856,0.0,270.0,0.0,0.0,60.0,45.0,10.0,-8.8,-1.077689183249671E-15,-1.0370899457402696,-1.0370899457402698,-9.83708994574027,-1.037089945740271
22.100000000000044,-2183.833967954334,-230.23396795433882,0.0,270.0,0.0,0.0,60.0,45.0,10.0,-8.8,-1.077689183249671E-15,-1.0370899457402696,-1.0370899457402698,-9.83708994574027,-1.037089945740271
22.200000000000045,-2193.6710579000746,-231.2710579000791,0.0,270.0,0.0,0.0,60.0,45.0,10.0,-8.8,-1.077689183249671E-15,-1.0370899457402696,-1.0370899457402698,-9.83708994574027,-1.037089945740271
22.300000000000047,-2203.508147845815,-232.30814784581935,0.0,270.0,0.0,0.0,60.0,45.0,10.0,-8.8,-1.077689183249671E-15,-1.0370899457402696,-1.0370899457402698,-9.83708994574027,-1.037089945740271
22.40000000000005,-2213.3452377915555,-233.3452377915596,0.0,270.0,0.0,0.0,60.0,45.0,10.0,-8.8,-1.077689183249671E-15,-1.0370899457402696,-1.0370899457402698,-9.83708994574027,-1.037089945740271
22.50000000000005,-2223.182327737296,-234.38232773729987,0.0,270.0,0.0,0.0,60.0,45.0,10.0,-8.8,-1.077689183249671E-15,-1.0370899457402696,-1.0370899457402698,-9.83708994574027,-1.037089945740271
22.60000000000005,-2233.0194176830364,-235.41941768304014,0.0,270.0,0.0,0.0,60.0,45.0,10.0,-8.8,-1.077689183249671E-15,-1.0370899457402696,-1.0370899457402698,-9.83708994574027,-1.037089945740271
22.700000000000053,-2242.856507628777,-236.4565076287804,0.0,270.0,0.0,0.0,60.0,45.0,10.0,-8.8,-1.077689183249671E-15,-1.0370899457402696,-1.0370899457402698,-9.83708994574027,-1.037089945740271
22.800000000000054,-2252.6935975745173,-237.49359757452066,0.0,270.0,0.0,0.0,60.0,45.0,10.0,-8.8,-1.077689183249671E-15,-1.0370899457402696,-1.0370899457402698,-9.83708994574027,-1.037089945740271
22.900000000000055,-2262.5306875202577,-238.53068752026093,0.0,270.0,0.0,0.0,60.0,45.0,10.0,-8.8,-1.077689183249671E-15,-1.0370899457402696,-1.0370899457402698,-9.83708994574027,-1.037089945740271
23.000000000000057,-2272.367777465998,-239.5677774660012,0.0,270.0,0.0,0.0,60.0,45.0,10.0,-8.8,-1.077689183249671E-15,-1.0370899457402696,-1.0370899457402698,-9.83708994574027,-1.037089945740271
23.10000000000006,-2282.2048674117386,-240.60486741174145,0.0,270.0,0.0,0.0,60.0,45.0,10.0,-8.8,-1.077689183249671E-15,-1.0370899457402696,-1.0370899457402698,-9.83708994574027,-1.037089945740271
23.20000000000006,-2292.041957357479,-241.64195735748172,0.0,270.0,0.0,0.0,60.0,45.0,10.0,-8.8,-1.077689183249671E-15,-1.0370899457402696,-1.0370899457402698,-9.83708994574027,-1.037089945740271
23.30000000000006,-2301.8790473032195,-242.67904730322198,0.0,270.0,0.0,0.0,60.0,45.0,10.0,-8.8,-1.077689183249671E-15,-1.0370899457402696,-1.0370899457402698,-9.83708994574027,-1.037089945740271
23.400000000000063,-2311.71613724896,-243.71613724896224,0.0,270.0,0.0,0.0,60.0,45.0,10.0,-8.8,-1.077689183249671E-15,-1.0370899457402696,-1.0370899457402698,-9.83708994574027,-1.037089945740271
23.500000000000064,-2321.5532271947004,-244.7532271947025,0.0,270.0,0.0,0.0,60.0,45.0,10.0,-8.8,-1.077689183249671E-15,-1.0370899457402696,-1.0370899457402698,-9.83708994574027,-1.037089945740271
23.600000000000065,-2331.390317140441,-245.79031714044277,0.0,270.0,0.0,0.0,60.0,45.0,10.0,-8.8,-1.077689183249671E-15,-1.0370899457402696,-1.0370899457402698,-9.83708994574027,-1.037089945740271
23.700000000000067,-2341.2274070861813,-246.82740708618303,0.0,270.0,0.0,0.0,60.0,45.0,10.0,-8.8,-1.077689183249671E-15,-1.0370899457402696,-1.0370899457402698,-9.83708994574027,-1.037089945740271
23.800000000000068,-2351.0644970319217,-247.8644970319233,0.0,270.0,0.0,0.0,60.0,45.0,10.0,-8.8,-1.077689183249671E-15,-1.0370899457402696,-1.0370899457402698,-9.83708994574027,-1.037089945740271
23.90000000000007,-2360.901586977662,-248.90158697766356,0.0,270.0,0.0,0.0,60.0,45.0,10.0,-8.8,-1.077689183249671E-15,-1.0370899457402696,-1.0370899457402698,-9.83708994574027,-1.037089945740271
24.00000000000007,-2370.7386769234026,-249.93867692340382,0.0,270.0,0.0,0.0,60.0,45.0,10.0,-8.8,-1.077689183249671E-15,-1.0370899457402696,-1.0370899457402698,-9.83708994574027,-1.037089945740271
24.100000000000072,-2380.575766869143,-250.97576686914408,0.0,270.0,0.0,0.0,60.0,45.0,10.0,-8.8,-1.077689183249671E-15,-1.0370899457402696,-1.0370899457402698,-9.83708994574027,-1.037089945740271
24.200000000000074,-2390.4128568148835,-252.01285681488434,0.0,270.0,0.0,0.0,60.0,45.0,10.0,-8.8,-1.077689183249671E-15,-1.0370899457402696,-1.0370899457402698,-9.83708994574027,-1.037089945740271
24.300000000000075,-2400.249946760624,-253.0499467606246,0.0,270.0,0.0,0.0,60.0,45.0,10.0,-8.8,-1.077689183249671E-15,-1.0370899457402696,-1.0370899457402698,-9.83708994574027,-1.037089945740271
24.400000000000077,-2410.0870367063644,-254.08703670636487,0.0,270.0,0.0,0.0,60.0,45.0,10.0,-8.8,-1.077689183249671E-15,-1.0370899457402696,-1.0370899457402698,-9.83708994574027,-1.037089945740271
24.500000000000078,-2419.924126652105,-255.12412665210513,0.0,270.0,0.0,0.0,60.0,45.0,10.0,-8.8,-1.077689183249671E-15,-1.0370899457402696,-1.0370899457402698,-9.83708994574027,-1.037089945740271
24.60000000000008,-2429.7612165978453,-256.1612165978454,0.0,270.0,0.0,0.0,60.0,45.0,10.0,-8.8,-1.077689183249671E-15,-1.0370899457402696,-1.0370899457402698,-9.83708994574027,-1.037089945740271
24.70000000000008,-2439.5983065435857,-257.19830654358566,0.0,270.0,0.0,0.0,60.0,45.0,10.0,-8.8,-1.077689183249671E-15,-1.0370899457402696,-1.0370899457402698,-9.83708994574027,-1.037089945740271
24.800000000000082,-2449.435396489326,-258.2353964893259,0.0,270.0,0.0,0.0,60.0,45.0,10.0,-8.8,-1.077689183249671E-15,-1.0370899457402696,-1.0370899457402698,-9.83708994574027,-1.037089945740271
24.900000000000084,-2459.2724864350666,-259.2724864350662,0.0,270.0,0.0,0.0,60.0,45.0,10.0,-8.8,-1.077689183249671E-15,-1.0370899457402696,-1.0370899457402698,-9.83708994574027,-1.037089945740271
25.000000000000085,-2469.109576380807,-260.30957638080645,0.0,270.0,0.0,0.0,60.0,45.0,10.0,-8.8,-1.077689183249671E-15,-1.0370899457402696,-1.0370899457402698,-9.83708994574027,-1.037089945740271
25.100000000000087,-2478.9466663265475,-261.3466663265467,0.0,270.0,0.0,0.0,60.0,45.0,10.0,-8.8,-1.077689183249671E-15,-1.0370899457402696,-1.0370899457402698,-9.83708994574027,-1.037089945740271
25.200000000000088,-2488.783756272288,-262.383756272287,0.0,270.0,0.0,0.0,60.0,45.0,10.0,-8.8,-1.077689183249671E-15,-1.0370899457402696,-1.0370899457402698,-9.83708994574027,-1.037089945740271
25.30000000000009,-2498.6208462180284,-263.42084621802724,0.0,270.0,0.0,0.0,60.0,45.0,10.0,-8.8,-1.077689183249671E-15,-1.0370899457402696,-1.0370899457402698,-9.83708994574027,-1.037089945740271
25.40000000000009,-2508.457936163769,-264.4579361637675,0.0,270.0,0.0,0.0,60.0,45.0,10.0,-8.8,-1.077689183249671E-15,-1.0370899457402696,-1.0370899457402698,-9.83708994574027,-1.037089945740271
25.500000000000092,-2518.2950261095093,-265.49502610950776,0.0,270.0,0.0,0.0,60.0,45.0,10.0,-8.8,-1.077689183249671E-15,-1.0370899457402696,-1.0370899457402698,-9.83708994574027,-1.037089945740271
25.600000000000094,-2528.1321160552498,-266.532116055248,0.0,270.0,0.0,0.0,60.0,45.0,10.0,-8.8,-1.077689183249671E-15,-1.0370899457402696,-1.0370899457402698,-9.83708994574027,-1.037089945740271
25.700000000000095,-2537.96920600099,-267.5692060009883,0.0,270.0,0.0,0.0,60.0,45.0,10.0,-8.8,-1.077689183249671E-15,-1.0370899457402696,-1.0370899457402698,-9.83708994574027,-1.037089945740271
25.800000000000097,-2547.8062959467306,-268.60629594672855,0.0,270.0,0.0,0.0,60.0,45.0,10.0,-8.8,-1.077689183249671E-15,-1.0370899457402696,-1.0370899457402698,-9.83708994574027,-1.037089945740271
25.900000000000098,-2557.643385892471,-269.6433858924688,0.0,270.0,0.0,0.0,60.0,45.0,10.0,-8.8,-1.077689183249671E-15,-1.0370899457402696,-1.0370899457402698,-9.83708994574027,-1.037089945740271
26.0000000000001,-2567.4804758382115,-270.6804758382091,0.0,270.0,0.0,0.0,60.0,45.0,10.0,-8.8,-1.077689183249671E-15,-1.0370899457402696,-1.0370899457402698,-9.83708994574027,-1.037089945740271
26.1000000000001,-2577.317565783952,-271.71756578394934,0.0,270.0,0.0,0.0,60.0,45.0,10.0,-8.8,-1.077689183249671E-15,-1.0370899457402696,-1.0370899457402698,-9.83708994574027,-1.037089945740271
26.200000000000102,-2587.1546557296924,-272.7546557296896,0.0,270.0,0.0,0.0,60.0,45.0,10.0,-8.8,-1.077689183249671E-15,-1.0370899457402696,-1.0370899457402698,-9.83708994574027,-1.037089945740271
26.300000000000104,-2596.991745675433,-273.79174567542987,0.0,270.0,0.0,0.0,60.0,45.0,10.0,-8.8,-1.077689183249671E-15,-1.0370899457402696,-1.0370899457402698,-9.83708994574027,-1.037089945740271
26.400000000000105,-2606.8288356211733,-274.82883562117013,0.0,270.0,0.0,0.0,60.0,45.0,10.0,-8.8,-1.077689183249671E-15,-1.0370899457402696,-1.0370899457402698,-9.83708994574027,-1.037089945740271
26.500000000000107,-2616.6659255669138,-275.8659255669104,0.0,270.0,0.0,0.0,60.0,45.0,10.0,-8.8,-1.077689183249671E-15,-1.0370899457402696,-1.0370899457402698,-9.83708994574027,-1.037089945740271
26.600000000000108,-2626.503015512654,-276.90301551265065,0.0,270.0,0.0,0.0,60.0,45.0,10.0,-8.8,-1.077689183249671E-15,-1.0370899457402696,-1.0370899457402698,-9.83708994574027,-1.037089945740271
26.70000000000011,-2636.3401054583946,-277.9401054583909,0.0,270.0,0.0,0.0,60.0,45.0,10.0,-8.8,-1.077689183249671E-15,-1.0370899457402696,-1.0370899457402698,-9.83708994574027,-1.037089945740271
26.80000000000011,-2646.177195404135,-278.9771954041312,0.0,270.0,0.0,0.0,60.0,45.0,10.0,-8.8,-1.077689183249671E-15,-1.0370899457402696,-1.0370899457402698,-9.83708994574027,-1.037089945740271
26.900000000000112,-2656.0142853498755,-280.01428534987144,0.0,270.0,0.0,0.0,60.0,45.0,10.0,-8.8,-1.077689183249671E-15,-1.0370899457402696,-1.0370899457402698,-9.83708994574027,-1.037089945740271
27.000000000000114,-2665.851375295616,-281.0513752956117,0.0,270.0,0.0,0.0,60.0,45.0,10.0,-8.8,-1.077689183249671E-15,-1.0370899457402696,-1.0370899457402698,-9.83708994574027,-1.037089945740271
27.100000000000115,-2675.6884652413564,-282.08846524135197,0.0,270.0,0.0,0.0,60.0,45.0,10.0,-8.8,-1.077689183249671E-15,-1.0370899457402696,-1.0370899457402698,-9.83708994574027,-1.037089945740271
27.200000000000117,-2685.525555187097,-283.12555518709223,0.0,270.0,0.0,0.0,60.0,45.0,10.0,-8.8,-1.077689183249671E-15,-1.0370899457402696,-1.0370899457402698,-9.83708994574027,-1.037089945740271
27.300000000000118,-2695.3626451328373,-284.1626451328325,0.0,270.0,0.0,0.0,60.0,45.0,10.0,-8.8,-1.077689183249671E-15,-1.0370899457402696,-1.0370899457402698,-9.83708994574027,-1.037089945740271
27.40000000000012,-2705.1997350785778,-285.19973507857276,0.0,270.0,0.0,0.0,60.0,45.0,10.0,-8.8,-1.077689183249671E-15,-1.0370899457402696,-1.0370899457402698,-9.83708994574027,-1.037089945740271
27.50000000000012,-2715.036825024318,-286.236825024313,0.0,270.0,0.0,0.0,60.0,45.0,10.0,-8.8,-1.077689183249671E-15,-1.0370899457402696,-1.0370899457402698,-9.83708994574027,-1.037089945740271
27.600000000000122,-2724.8739149700586,-287.2739149700533,0.0,270.0,0.0,0.0,60.0,45.0,10.0,-8.8,-1.077689183249671E-15,-1.0370899457402696,-1.0370899457402698,-9.83708994574027,-1.037089945740271
27.700000000000124,-2734.711004915799,-288.31100491579355,0.0,270.0,0.0,0.0,60.0,45.0,10.0,-8.8,-1.077689183249671E-15,-1.0370899457402696,-1.0370899457402698,-9.83708994574027,-1.037089945740271
27.800000000000125,-2744.5480948615395,-289.3480948615338,0.0,270.0,0.0,0.0,60.0,45.0,10.0,-8.8,-1.077689183249671E-15,-1.0370899457402696,-1.0370899457402698,-9.83708994574027,-1.037089945740271
27.900000000000126,-2754.38518480728,-290.3851848072741,0.0,270.0,0.0,0.0,60.0,45.0,10.0,-8.8,-1.077689183249671E-15,-1.0370899457402696,-1.0370899457402698,-9.83708994574027,-1.037089945740271
28.000000000000128,-2764.2222747530204,-291.42227475301434,0.0,270.0,0.0,0.0,60.0,45.0,10.0,-8.8,-1.077689183249671E-15,-1.0370899457402696,-1.0370899457402698,-9.83708994574027,-1.037089945740271
28.10000000000013,-2774.059364698761,-292.4593646987546,0.0,270.0,0.0,0.0,60.0,45.0,10.0,-8.8,-1.077689183249671E-15,-1.0370899457402696,-1.0370899457402698,-9.83708994574027,-1.037089945740271
28.20000000000013,-2783.8964546445013,-293.49645464449486,0.0,270.0,0.0,0.0,60.0,45.0,10.0,-8.8,-1.077689183249671E-15,-1.0370899457402696,-1.0370899457402698,-9.83708994574027,-1.037089945740271
28.300000000000132,-2793.7335445902418,-294.5335445902351,0.0,270.0,0.0,0.0,60.0,45.0,10.0,-8.8,-1.077689183249671E-15,-1.0370899457402696,-1.0370899457402698,-9.83708994574027,-1.037089945740271
28.400000000000134,-2803.570634535982,-295.5706345359754,0.0,270.0,0.0,0.0,60.0,45.0,10.0,-8.8,-1.077689183249671E-15,-1.0370899457402696,-1.0370899457402698,-9.83708994574027,-1.037089945740271
28.500000000000135,-2813.4077244817227,-296.60772448171565,0.0,270.0,0.0,0.0,60.0,45.0,10.0,-8.8,-1.077689183249671E-15,-1.0370899457402696,-1.0370899457402698,-9.83708994574027,-1.037089945740271
28.600000000000136,-2823.244814427463,-297.6448144274559,0.0,270.0,0.0,0.0,60.0,45.0,10.0,-8.8,-1.077689183249671E-15,-1.0370899457402696,-1.0370899457402698,-9.83708994574027,-1.037089945740271
28.700000000000138,-2833.0819043732035,-298.6819043731962,0.0,270.0,0.0,0.0,60.0,45.0,10.0,-8.8,-1.077689183249671E-15,-1.0370899457402696,-1.0370899457402698,-9.83708994574027,-1.037089945740271
28.80000000000014,-2842.918994318944,-299.71899431893644,0.0,270.0,0.0,0.0,60.0,45.0,10.0,-8.8,-1.077689183249671E-15,-1.0370899457402696,-1.0370899457402698,-9.83708994574027,-1.037089945740271
28.90000000000014,-2852.7560842646844,-300.7560842646767,0.0,270.0,0.0,0.0,60.0,45.0,10.0,-8.8,-1.077689183249671E-15,-1.0370899457402696,-1.0370899457402698,-9.83708994574027,-1.037089945740271
29.000000000000142,-2862.593174210425,-301.79317421041696,0.0,270.0,0.0,0.0,60.0,45.0,10.0,-8.8,-1.077689183249671E-15,-1.0370899457402696,-1.0370899457402698,-9.83708994574027,-1.037089945740271
29.100000000000144,-2872.4302641561653,-302.8302641561572,0.0,270.0,0.0,0.0,60.0,45.0,10.0,-8.8,-1.077689183249671E-15,-1.0370899457402696,-1.0370899457402698,-9.83708994574027,-1.037089945740271
29.200000000000145,-2882.2673541019058,-303.8673541018975,0.0,270.0,0.0,0.0,60.0,45.0,10.0,-8.8,-1.077689183249671E-15,-1.0370899457402696,-1.0370899457402698,-9.83708994574027,-1.037089945740271
29.300000000000146,-2892.104444047646,-304.90444404763775,0.0,270.0,0.0,0.0,60.0,45.0,10.0,-8.8,-1.077689183249671E-15,-1.0370899457402696,-1.0370899457402698,-9.83708994574027,-1.037089945740271
29.400000000000148,-2901.9415339933867,-305.941533993378,0.0,270.0,0.0,0.0,60.0,45.0,10.0,-8.8,-1.077689183249671E-15,-1.0370899457402696,-1.0370899457402698,-9.83708994574027,-1.037089945740271
29.50000000000015,-2911.778623939127,-306.9786239391183,0.0,270.0,0.0,0.0,60.0,45.0,10.0,-8.8,-1.077689183249671E-15,-1.0370899457402696,-1.0370899457402698,-9.83708994574027,-1.037089945740271
29.60000000000015,-2921.6157138848675,-308.01571388485854,0.0,270.0,0.0,0.0,60.0,45.0,10.0,-8.8,-1.077689183249671E-15,-1.0370899457402696,-1.0370899457402698,-9.83708994574027,-1.037089945740271
29.700000000000152,-2931.452803830608,-309.0528038305988,0.0,270.0,0.0,0.0,60.0,45.0,10.0,-8.8,-1.077689183249671E-15,-1.0370899457402696,-1.0370899457402698,-9.83708994574027,-1.037089945740271
29.800000000000153,-2941.2898937763484,-310.08989377633907,0.0,270.0,0.0,0.0,60.0,45.0,10.0,-8.8,-1.077689183249671E-15,-1.0370899457402696,-1.0370899457402698,-9.83708994574027,-1.037089945740271
29.900000000000155,-2951.126983722089,-311.12698372207933,0.0,270.0,0.0,0.0,60.0,45.0,10.0,-8.8,-1.077689183249671E-15,-1.0370899457402696,-1.0370899457402698,-9.83708994574027,-1.037089945740271
30.000000000000156,-2960.9640736678293,-312.1640736678196,0.0,270.0,0.0,0.0,60.0,45.0,10.0,-8.8,-1.077689183249671E-15,-1.0370899457402696,-1.0370899457402698,-9.83708994574027,-1.037089945740271
30.100000000000158,-2970.8011636135698,-313.20116361355986,0.0,270.0,0.0,0.0,60.0,45.0,10.0,-8.8,-1.077689183249671E-15,-1.0370899457402696,-1.0370899457402698,-9.83708994574027,-1.037089945740271
30.20000000000016,-2980.63825355931,-314.2382535593001,0.0,270.0,0.0,0.0,60.0,45.0,10.0,-8.8,-1.077689183249671E-15,-1.0370899457402696,-1.0370899457402698,-9.83708994574027,-1.037089945740271
30.30000000000016,-2990.4753435050507,-315.2753435050404,0.0,270.0,0.0,0.0,60.0,45.0,10.0,-8.8,-1.077689183249671E-15,-1.0370899457402696,-1.0370899457402698,-9.83708994574027,-1.037089945740271
30.400000000000162,-3000.312433450791,-316.31243345078065,0.0,270.0,0.0,0.0,60.0,45.0,10.0,-8.8,-1.077689183249671E-15,-1.0370899457402696,-1.0370899457402698,-9.83708994574027,-1.037089945740271
30.500000000000163,-3010.1495233965315,-317.3495233965209,0.0,270.0,0.0,0.0,60.0,45.0,10.0,-8.8,-1.077689183249671E-15,-1.0370899457402696,-1.0370899457402698,-9.83708994574027,-1.037089945740271
30.600000000000165,-3019.986613342272,-318.38661334226117,0.0,270.0,0.0,0.0,60.0,45.0,10.0,-8.8,-1.077689183249671E-15,-1.0370899457402696,-1.0370899457402698,-9.83708994574027,-1.037089945740271
