time,x,y,altitude,yaw,pitch,roll,speed,wind_dir,wind_spd,dx,dy,wind_dx,wind_dy,vmg_dx,vmg_dy
0.0,8.980743193747258E-16,14.66666666666667,1000.7640519817345,0.0,10.0,0.0,100.0,0.0,0.0,8.980743193747258E-16,14.66666666666667,0.0,-0.0,8.980743193747258E-16,14.66666666666667
0.1,1.7961486387494516E-15,29.33333333333334,1001.528103963469,0.0,10.0,0.0,100.0,0.0,0.0,8.980743193747258E-16,14.66666666666667,0.0,-0.0,8.980743193747258E-16,14.66666666666667
0.2,2.6942229581241772E-15,44.00000000000001,1002.2921559452035,0.0,10.0,0.0,100.0,0.0,0.0,8.980743193747258E-16,14.66666666666667,0.0,-0.0,8.980743193747258E-16,14.66666666666667
0.30000000000000004,3.592297277498903E-15,58.66666666666668,1003.056207926938,0.0,10.0,0.0,100.0,0.0,0.0,8.980743193747258E-16,14.66666666666667,0.0,-0.0,8.980743193747258E-16,14.66666666666667
0.4,4.490371596873629E-15,73.33333333333334,1003.8202599086725,0.0,10.0,0.0,100.0,0.0,0.0,8.980743193747258E-16,14.66666666666667,0.0,-0.0,8.980743193747258E-16,14.66666666666667
0.5,5.388445916248355E-15,88.00000000000001,1004.584311890407,0.0,10.0,0.0,100.0,0.0,0.0,8.980743193747258E-16,14.66666666666667,0.0,-0.0,8.980743193747258E-16,14.66666666666667
0.6,6.286520235623081E-15,102.66666666666669,1005.3483638721415,0.0,10.0,0.0,100.0,0.0,0.0,8.980743193747258E-16,14.66666666666667,0.0,-0.0,8.980743193747258E-16,14.66666666666667
0.7,7.184594554997806E-15,117.33333333333336,1006.112415853876,0.0,10.0,0.0,100.0,0.0,0.0,8.980743193747258E-16,14.66666666666667,0.0,-0.0,8.980743193747258E-16,14.66666666666667
0.7999999999999999,8.082668874372532E-15,132.00000000000003,1006.8764678356105,0.0,10.0,0.0,100.0,0.0,0.0,8.980743193747258E-16,14.66666666666667,0.0,-0.0,8.980743193747258E-16,14.66666666666667
0.8999999999999999,8.980743193747258E-15,146.66666666666669,1007.640519817345,0.0,10.0,0.0,100.0,0.0,0.0,8.980743193747258E-16,14.66666666666667,0.0,-0.0,8.980743193747258E-16,14.66666666666667
0.9999999999999999,9.878817513121984E-15,161.33333333333334,1008.4045717990795,0.0,10.0,0.0,100.0,0.0,0.0,8.980743193747258E-16,14.66666666666667,0.0,-0.0,8.980743193747258E-16,14.66666666666667
1.0999999999999999,1.077689183249671E-14,176.0,1009.168623780814,0.0,10.0,0.0,100.0,0.0,0.0,8.980743193747258E-16,14.66666666666667,0.0,-0.0,8.980743193747258E-16,14.66666666666667
1.2,1.1674966151871436E-14,190.66666666666666,1009.9326757625485,0.0,10.0,0.0,100.0,0.0,0.0,8.980743193747258E-16,14.66666666666667,0.0,-0.0,8.980743193747258E-16,14.66666666666667
1.3,1.2573040471246162E-14,205.33333333333331,1010.696727744283,0.0,10.0,0.0,100.0,0.0,0.0,8.980743193747258E-16,14.66666666666667,0.0,-0.0,8.980743193747258E-16,14.66666666666667
1.4000000000000001,1.3471114790620888E-14,219.99999999999997,1011.4607797260174,0.0,10.0,0.0,100.0,0.0,0.0,8.980743193747258E-16,14.66666666666667,0.0,-0.0,8.980743193747258E-16,14.66666666666667
1.5000000000000002,1.4369189109995613E-14,234.66666666666663,1012.224831707752,0.0,10.0,0.0,100.0,0.0,0.0,8.980743193747258E-16,14.66666666666667,0.0,-0.0,8.980743193747258E-16,14.66666666666667
1.6000000000000003,1.5267263429370337E-14,249.3333333333333,1012.9888836894864,0.0,10.0,0.0,100.0,0.0,0.0,8.980743193747258E-16,14.66666666666667,0.0,-0.0,8.980743193747258E-16,14.66666666666667
1.7000000000000004,1.6165337748745062E-14,263.99999999999994,1013.7529356712209,0.0,10.0,0.0,100.0,0.0,0.0,8.980743193747258E-16,14.66666666666667,0.0,-0.0,8.980743193747258E-16,14.66666666666667
1.8000000000000005,1.7063412068119786E-14,278.66666666666663,1014.5169876529554,0.0,10.0,0.0,100.0,0.0,0.0,8.980743193747258E-16,14.66666666666667,0.0,-0.0,8.980743193747258E-16,14.66666666666667
1.9000000000000006,1.796148638749451E-14,293.3333333333333,1015.2810396346899,0.0,10.0,0.0,100.0,0.0,0.0,8.980743193747258E-16,14.66666666666667,0.0,-0.0,8.980743193747258E-16,14.66666666666667
2.0000000000000004,1.8859560706869235E-14,308.0,1016.0450916164244,0.0,10.0,0.0,100.0,0.0,0.0,8.980743193747258E-16,14.66666666666667,0.0,-0.0,8.980743193747258E-16,14.66666666666667
2.1000000000000005,1.975763502624396E-14,322.6666666666667,1016.8091435981589,0.0,10.0,0.0,100.0,0.0,0.0,8.980743193747258E-16,14.66666666666667,0.0,-0.0,8.980743193747258E-16,14.66666666666667
2.2000000000000006,2.0655709345618684E-14,337.33333333333337,1017.5731955798934,0.0,10.0,0.0,100.0,0.0,0.0,8.980743193747258E-16,14.66666666666667,0.0,-0.0,8.980743193747258E-16,14.66666666666667
2.3000000000000007,2.1553783664993408E-14,352.00000000000006,1018.3372475616279,0.0,10.0,0.0,100.0,0.0,0.0,8.980743193747258E-16,14.66666666666667,0.0,-0.0,8.980743193747258E-16,14.66666666666667
2.400000000000001,2.2451857984368133E-14,366.66666666666674,1019.1012995433624,0.0,10.0,0.0,100.0,0.0,0.0,8.980743193747258E-16,14.66666666666667,0.0,-0.0,8.980743193747258E-16,14.66666666666667
2.500000000000001,2.3349932303742857E-14,381.3333333333334,1019.8653515250969,0.0,10.0,0.0,100.0,0.0,0.0,8.980743193747258E-16,14.66666666666667,0.0,-0.0,8.980743193747258E-16,14.66666666666667
2.600000000000001,2.424800662311758E-14,396.0000000000001,1020.6294035068314,0.0,10.0,0.0,100.0,0.0,0.0,8.980743193747258E-16,14.66666666666667,0.0,-0.0,8.980743193747258E-16,14.66666666666667
2.700000000000001,2.5146080942492306E-14,410.6666666666668,1021.3934554885659,0.0,10.0,0.0,100.0,0.0,0.0,8.980743193747258E-16,14.66666666666667,0.0,-0.0,8.980743193747258E-16,14.66666666666667
2.800000000000001,2.604415526186703E-14,425.3333333333335,1022.1575074703004,0.0,10.0,0.0,100.0,0.0,0.0,8.980743193747258E-16,14.66666666666667,0.0,-0.0,8.980743193747258E-16,14.66666666666667
2.9000000000000012,2.6942229581241755E-14,440.00000000000017,1022.9215594520349,0.0,10.0,0.0,100.0,0.0,0.0,8.980743193747258E-16,14.66666666666667,0.0,-0.0,8.980743193747258E-16,14.66666666666667
3.0000000000000013,2.784030390061648E-14,454.66666666666686,1023.6856114337694,0.0,10.0,0.0,100.0,0.0,0.0,8.980743193747258E-16,14.66666666666667,0.0,-0.0,8.980743193747258E-16,14.66666666666667
3.1000000000000014,2.8738378219991207E-14,469.33333333333354,1024.449663415504,0.0,10.0,0.0,100.0,0.0,0.0,8.980743193747258E-16,14.66666666666667,0.0,-0.0,8.980743193747258E-16,14.66666666666667
3.2000000000000015,2.963645253936593E-14,484.0000000000002,1025.2137153972383,0.0,10.0,0.0,100.0,0.0,0.0,8.980743193747258E-16,14.66666666666667,0.0,-0.0,8.980743193747258E-16,14.66666666666667
3.3000000000000016,3.0534526858740656E-14,498.6666666666669,1025.9777673789727,0.0,10.0,0.0,100.0,0.0,0.0,8.980743193747258E-16,14.66666666666667,0.0,-0.0,8.980743193747258E-16,14.66666666666667
3.4000000000000017,3.143260117811538E-14,513.3333333333336,1026.741819360707,0.0,10.0,0.0,100.0,0.0,0.0,8.980743193747258E-16,14.66666666666667,0.0,-0.0,8.980743193747258E-16,14.66666666666667
3.5000000000000018,3.2330675497490104E-14,528.0000000000002,1027.5058713424414,0.0,10.0,0.0,100.0,0.0,0.0,8.980743193747258E-16,14.66666666666667,0.0,-0.0,8.980743193747258E-16,14.66666666666667
3.600000000000002,3.322874981686483E-14,542.6666666666669,1028.2699233241758,0.0,10.0,0.0,100.0,0.0,0.0,8.980743193747258E-16,14.66666666666667,0.0,-0.0,8.980743193747258E-16,14.66666666666667
3.700000000000002,3.4126824136239553E-14,557.3333333333335,1029.0339753059102,0.0,10.0,0.0,100.0,0.0,0.0,8.980743193747258E-16,14.66666666666667,0.0,-0.0,8.980743193747258E-16,14.66666666666667
3.800000000000002,3.502489845561428E-14,572.0000000000001,1029.7980272876446,0.0,10.0,0.0,100.0,0.0,0.0,8.980743193747258E-16,14.66666666666667,0.0,-0.0,8.980743193747258E-16,14.66666666666667
3.900000000000002,3.5922972774989E-14,586.6666666666667,1030.562079269379,0.0,10.0,0.0,100.0,0.0,0.0,8.980743193747258E-16,14.66666666666667,0.0,-0.0,8.980743193747258E-16,14.66666666666667
4.000000000000002,3.6821047094363726E-14,601.3333333333334,1031.3261312511133,0.0,10.0,0.0,100.0,0.0,0.0,8.980743193747258E-16,14.66666666666667,0.0,-0.0,8.980743193747258E-16,14.66666666666667
4.100000000000001,3.771912141373845E-14,616.0,1032.0901832328477,0.0,10.0,0.0,100.0,0.0,0.0,8.980743193747258E-16,14.66666666666667,0.0,-0.0,8.980743193747258E-16,14.66666666666667
4.200000000000001,3.8617195733113175E-14,630.6666666666666,1032.854235214582,0.0,10.0,0.0,100.0,0.0,0.0,8.980743193747258E-16,14.66666666666667,0.0,-0.0,8.980743193747258E-16,14.66666666666667
4.300000000000001,3.95152700524879E-14,645.3333333333333,1033.6182871963165,0.0,10.0,0.0,100.0,0.0,0.0,8.980743193747258E-16,14.66666666666667,0.0,-0.0,8.980743193747258E-16,14.66666666666667
4.4,4.0413344371862624E-14,659.9999999999999,1034.3823391780509,0.0,10.0,0.0,100.0,0.0,0.0,8.980743193747258E-16,14.66666666666667,0.0,-0.0,8.980743193747258E-16,14.66666666666667
4.5,4.131141869123735E-14,674.6666666666665,1035.1463911597853,0.0,10.0,0.0,100.0,0.0,0.0,8.980743193747258E-16,14.66666666666667,0.0,-0.0,8.980743193747258E-16,14.66666666666667
4.6,4.220949301061207E-14,689.3333333333331,1035.9104431415196,0.0,10.0,0.0,100.0,0.0,0.0,8.980743193747258E-16,14.66666666666667,0.0,-0.0,8.980743193747258E-16,14.66666666666667
4.699999999999999,4.31075673299868E-14,703.9999999999998,1036.674495123254,0.0,10.0,0.0,100.0,0.0,0.0,8.980743193747258E-16,14.66666666666667,0.0,-0.0,8.980743193747258E-16,14.66666666666667
4.799999999999999,4.400564164936152E-14,718.6666666666664,1037.4385471049884,0.0,10.0,0.0,100.0,0.0,0.0,8.980743193747258E-16,14.66666666666667,0.0,-0.0,8.980743193747258E-16,14.66666666666667
4.899999999999999,4.4903715968736246E-14,733.333333333333,1038.2025990867228,0.0,10.0,0.0,100.0,0.0,0.0,8.980743193747258E-16,14.66666666666667,0.0,-0.0,8.980743193747258E-16,14.66666666666667
4.999999999999998,4.580179028811097E-14,747.9999999999997,1038.9666510684572,0.0,10.0,0.0,100.0,0.0,0.0,8.980743193747258E-16,14.66666666666667,0.0,-0.0,8.980743193747258E-16,14.66666666666667
5.099999999999998,4.6699864607485695E-14,762.6666666666663,1039.7307030501916,0.0,10.0,0.0,100.0,0.0,0.0,8.980743193747258E-16,14.66666666666667,0.0,-0.0,8.980743193747258E-16,14.66666666666667
5.1999999999999975,4.759793892686042E-14,777.3333333333329,1040.494755031926,0.0,10.0,0.0,100.0,0.0,0.0,8.980743193747258E-16,14.66666666666667,0.0,-0.0,8.980743193747258E-16,14.66666666666667
5.299999999999997,4.8496013246235144E-14,791.9999999999995,1041.2588070136603,0.0,10.0,0.0,100.0,0.0,0.0,8.980743193747258E-16,14.66666666666667,0.0,-0.0,8.980743193747258E-16,14.66666666666667
5.399999999999997,4.939408756560987E-14,806.6666666666662,1042.0228589953947,0.0,10.0,0.0,100.0,0.0,0.0,8.980743193747258E-16,14.66666666666667,0.0,-0.0,8.980743193747258E-16,14.66666666666667
5.4999999999999964,5.029216188498459E-14,821.3333333333328,1042.786910977129,0.0,10.0,0.0,100.0,0.0,0.0,8.980743193747258E-16,14.66666666666667,0.0,-0.0,8.980743193747258E-16,14.66666666666667
5.599999999999996,5.119023620435932E-14,835.9999999999994,1043.5509629588635,0.0,10.0,0.0,100.0,0.0,0.0,8.980743193747258E-16,14.66666666666667,0.0,-0.0,8.980743193747258E-16,14.66666666666667
5.699999999999996,5.208831052373404E-14,850.6666666666661,1044.3150149405978,0.0,10.0,0.0,100.0,0.0,0.0,8.980743193747258E-16,14.66666666666667,0.0,-0.0,8.980743193747258E-16,14.66666666666667
5.799999999999995,5.2986384843108766E-14,865.3333333333327,1045.0790669223322,0.0,10.0,0.0,100.0,0.0,0.0,8.980743193747258E-16,14.66666666666667,0.0,-0.0,8.980743193747258E-16,14.66666666666667
5.899999999999995,5.388445916248349E-14,879.9999999999993,1045.8431189040666,0.0,10.0,0.0,100.0,0.0,0.0,8.980743193747258E-16,14.66666666666667,0.0,-0.0,8.980743193747258E-16,14.66666666666667
5.999999999999995,5.4782533481858215E-14,894.666666666666,1046.607170885801,0.0,10.0,0.0,100.0,0.0,0.0,8.980743193747258E-16,14.66666666666667,0.0,-0.0,8.980743193747258E-16,14.66666666666667
6.099999999999994,5.568060780123294E-14,909.3333333333326,1047.3712228675354,0.0,10.0,0.0,100.0,0.0,0.0,8.980743193747258E-16,14.66666666666667,0.0,-0.0,8.980743193747258E-16,14.66666666666667
6.199999999999994,5.6578682120607664E-14,923.9999999999992,1048.1352748492698,0.0,10.0,0.0,100.0,0.0,0.0,8.980743193747258E-16,14.66666666666667,0.0,-0.0,8.980743193747258E-16,14.66666666666667
6.299999999999994,5.747675643998239E-14,938.6666666666658,1048.8993268310041,0.0,10.0,0.0,100.0,0.0,0.0,8.980743193747258E-16,14.66666666666667,0.0,-0.0,8.980743193747258E-16,14.66666666666667
6.399999999999993,5.837483075935711E-14,953.3333333333325,1049.6633788127385,0.0,10.0,0.0,100.0,0.0,0.0,8.980743193747258E-16,14.66666666666667,0.0,-0.0,8.980743193747258E-16,14.66666666666667
6.499999999999993,5.927290507873184E-14,967.9999999999991,1050.427430794473,0.0,10.0,0.0,100.0,0.0,0.0,8.980743193747258E-16,14.66666666666667,0.0,-0.0,8.980743193747258E-16,14.66666666666667
6.5999999999999925,6.017097939810656E-14,982.6666666666657,1051.1914827762073,0.0,10.0,0.0,100.0,0.0,0.0,8.980743193747258E-16,14.66666666666667,0.0,-0.0,8.980743193747258E-16,14.66666666666667
6.699999999999992,6.106905371748129E-14,997.3333333333323,1051.9555347579417,0.0,10.0,0.0,100.0,0.0,0.0,8.980743193747258E-16,14.66666666666667,0.0,-0.0,8.980743193747258E-16,14.66666666666667
6.799999999999992,6.196712803685601E-14,1011.999999999999,1052.719586739676,0.0,10.0,0.0,100.0,0.0,0.0,8.980743193747258E-16,14.66666666666667,0.0,-0.0,8.980743193747258E-16,14.66666666666667
6.8999999999999915,6.286520235623073E-14,1026.6666666666656,1053.4836387214104,0.0,10.0,0.0,100.0,0.0,0.0,8.980743193747258E-16,14.66666666666667,0.0,-0.0,8.980743193747258E-16,14.66666666666667
6.999999999999991,6.376327667560546E-14,1041.3333333333323,1054.2476907031448,0.0,10.0,0.0,100.0,0.0,0.0,8.980743193747258E-16,14.66666666666667,0.0,-0.0,8.980743193747258E-16,14.66666666666667
7.099999999999991,6.466135099498018E-14,1055.999999999999,1055.0117426848792,0.0,10.0,0.0,100.0,0.0,0.0,8.980743193747258E-16,14.66666666666667,0.0,-0.0,8.980743193747258E-16,14.66666666666667
7.19999999999999,6.555942531435491E-14,1070.6666666666658,1055.7757946666136,0.0,10.0,0.0,100.0,0.0,0.0,8.980743193747258E-16,14.66666666666667,0.0,-0.0,8.980743193747258E-16,14.66666666666667
7.29999999999999,6.645749963372963E-14,1085.3333333333326,1056.539846648348,0.0,10.0,0.0,100.0,0.0,0.0,8.980743193747258E-16,14.66666666666667,0.0,-0.0,8.980743193747258E-16,14.66666666666667
7.39999999999999,6.735557395310436E-14,1099.9999999999993,1057.3038986300824,0.0,10.0,0.0,100.0,0.0,0.0,8.980743193747258E-16,14.66666666666667,0.0,-0.0,8.980743193747258E-16,14.66666666666667
7.499999999999989,6.825364827247908E-14,1114.666666666666,1058.0679506118167,0.0,10.0,0.0,100.0,0.0,0.0,8.980743193747258E-16,14.66666666666667,0.0,-0.0,8.980743193747258E-16,14.66666666666667
7.599999999999989,6.91517225918538E-14,1129.3333333333328,1058.8320025935511,0.0,10.0,0.0,100.0,0.0,0.0,8.980743193747258E-16,14.66666666666667,0.0,-0.0,8.980743193747258E-16,14.66666666666667
7.699999999999989,7.004979691122853E-14,1143.9999999999995,1059.5960545752855,0.0,10.0,0.0,100.0,0.0,0.0,8.980743193747258E-16,14.66666666666667,0.0,-0.0,8.980743193747258E-16,14.66666666666667
7.799999999999988,7.094787123060325E-14,1158.6666666666663,1060.36010655702,0.0,10.0,0.0,100.0,0.0,0.0,8.980743193747258E-16,14.66666666666667,0.0,-0.0,8.980743193747258E-16,14.66666666666667
7.899999999999988,7.184594554997798E-14,1173.333333333333,1061.1241585387543,0.0,10.0,0.0,100.0,0.0,0.0,8.980743193747258E-16,14.66666666666667,0.0,-0.0,8.980743193747258E-16,14.66666666666667
7.999999999999988,7.27440198693527E-14,1187.9999999999998,1061.8882105204887,0.0,10.0,0.0,100.0,0.0,0.0,8.980743193747258E-16,14.66666666666667,0.0,-0.0,8.980743193747258E-16,14.66666666666667
8.099999999999987,7.364209418872743E-14,1202.6666666666665,1062.652262502223,0.0,10.0,0.0,100.0,0.0,0.0,8.980743193747258E-16,14.66666666666667,0.0,-0.0,8.980743193747258E-16,14.66666666666667
8.199999999999987,7.454016850810215E-14,1217.3333333333333,1063.4163144839574,0.0,10.0,0.0,100.0,0.0,0.0,8.980743193747258E-16,14.66666666666667,0.0,-0.0,8.980743193747258E-16,14.66666666666667
8.299999999999986,7.543824282747688E-14,1232.0,1064.1803664656918,0.0,10.0,0.0,100.0,0.0,0.0,8.980743193747258E-16,14.66666666666667,0.0,-0.0,8.980743193747258E-16,14.66666666666667
8.399999999999986,7.63363171468516E-14,1246.6666666666667,1064.9444184474262,0.0,10.0,0.0,100.0,0.0,0.0,8.980743193747258E-16,14.66666666666667,0.0,-0.0,8.980743193747258E-16,14.66666666666667
8.499999999999986,7.723439146622633E-14,1261.3333333333335,1065.7084704291606,0.0,10.0,0.0,100.0,0.0,0.0,8.980743193747258E-16,14.66666666666667,0.0,-0.0,8.980743193747258E-16,14.66666666666667
8.599999999999985,7.813246578560105E-14,1276.0000000000002,1066.472522410895,0.0,10.0,0.0,100.0,0.0,0.0,8.980743193747258E-16,14.66666666666667,0.0,-0.0,8.980743193747258E-16,14.66666666666667
8.699999999999985,7.903054010497577E-14,1290.666666666667,1067.2365743926293,0.0,10.0,0.0,100.0,0.0,0.0,8.980743193747258E-16,14.66666666666667,0.0,-0.0,8.980743193747258E-16,14.66666666666667
8.799999999999985,7.99286144243505E-14,1305.3333333333337,1068.0006263743637,0.0,10.0,0.0,100.0,0.0,0.0,8.980743193747258E-16,14.66666666666667,0.0,-0.0,8.980743193747258E-16,14.66666666666667
8.899999999999984,8.082668874372522E-14,1320.0000000000005,1068.764678356098,0.0,10.0,0.0,100.0,0.0,0.0,8.980743193747258E-16,14.66666666666667,0.0,-0.0,8.980743193747258E-16,14.66666666666667
8.999999999999984,8.172476306309995E-14,1334.6666666666672,1069.5287303378325,0.0,10.0,0.0,100.0,0.0,0.0,8.980743193747258E-16,14.66666666666667,0.0,-0.0,8.980743193747258E-16,14.66666666666667
9.099999999999984,8.262283738247467E-14,1349.333333333334,1070.2927823195669,0.0,10.0,0.0,100.0,0.0,0.0,8.980743193747258E-16,14.66666666666667,0.0,-0.0,8.980743193747258E-16,14.66666666666667
9.199999999999983,8.35209117018494E-14,1364.0000000000007,1071.0568343013013,0.0,10.0,0.0,100.0,0.0,0.0,8.980743193747258E-16,14.66666666666667,0.0,-0.0,8.980743193747258E-16,14.66666666666667
9.299999999999983,8.441898602122412E-14,1378.6666666666674,1071.8208862830356,0.0,10.0,0.0,100.0,0.0,0.0,8.980743193747258E-16,14.66666666666667,0.0,-0.0,8.980743193747258E-16,14.66666666666667
9.399999999999983,8.531706034059885E-14,1393.3333333333342,1072.58493826477,0.0,10.0,0.0,100.0,0.0,0.0,8.980743193747258E-16,14.66666666666667,0.0,-0.0,8.980743193747258E-16,14.66666666666667
9.499999999999982,8.621513465997357E-14,1408.000000000001,1073.3489902465044,0.0,10.0,0.0,100.0,0.0,0.0,8.980743193747258E-16,14.66666666666667,0.0,-0.0,8.980743193747258E-16,14.66666666666667
9.599999999999982,8.71132089793483E-14,1422.6666666666677,1074.1130422282388,0.0,10.0,0.0,100.0,0.0,0.0,8.980743193747258E-16,14.66666666666667,0.0,-0.0,8.980743193747258E-16,14.66666666666667
9.699999999999982,8.801128329872302E-14,1437.3333333333344,1074.8770942099732,0.0,10.0,0.0,100.0,0.0,0.0,8.980743193747258E-16,14.66666666666667,0.0,-0.0,8.980743193747258E-16,14.66666666666667
9.799999999999981,8.890935761809774E-14,1452.0000000000011,1075.6411461917075,0.0,10.0,0.0,100.0,0.0,0.0,8.980743193747258E-16,14.66666666666667,0.0,-0.0,8.980743193747258E-16,14.66666666666667
9.89999999999998,8.980743193747247E-14,1466.6666666666679,1076.405198173442,0.0,10.0,0.0,100.0,0.0,0.0,8.980743193747258E-16,14.66666666666667,0.0,-0.0,8.980743193747258E-16,14.66666666666667
9.99999999999998,9.070550625684719E-14,1481.3333333333346,1077.1692501551763,0.0,10.0,0.0,100.0,0.0,0.0,8.980743193747258E-16,14.66666666666667,0.0,-0.0,8.980743193747258E-16,14.66666666666667
10.09999999999998,9.160358057622192E-14,1496.0000000000014,1077.9333021369107,0.0,10.0,0.0,100.0,0.0,0.0,8.980743193747258E-16,14.66666666666667,0.0,-0.0,8.980743193747258E-16,14.66666666666667
10.19999999999998,9.250165489559664E-14,1510.666666666668,1078.697354118645,0.0,10.0,0.0,100.0,0.0,0.0,8.980743193747258E-16,14.66666666666667,0.0,-0.0,8.980743193747258E-16,14.66666666666667
10.29999999999998,9.339972921497136E-14,1525.3333333333348,1079.4614061003795,0.0,10.0,0.0,100.0,0.0,0.0,8.980743193747258E-16,14.66666666666667,0.0,-0.0,8.980743193747258E-16,14.66666666666667
10.399999999999979,9.429780353434609E-14,1540.0000000000016,1080.2254580821138,0.0,10.0,0.0,100.0,0.0,0.0,8.980743193747258E-16,14.66666666666667,0.0,-0.0,8.980743193747258E-16,14.66666666666667
10.499999999999979,9.519587785372081E-14,1554.6666666666683,1080.9895100638482,0.0,10.0,0.0,100.0,0.0,0.0,8.980743193747258E-16,14.66666666666667,0.0,-0.0,8.980743193747258E-16,14.66666666666667
10.599999999999978,9.609395217309554E-14,1569.333333333335,1081.7535620455826,0.0,10.0,0.0,100.0,0.0,0.0,8.980743193747258E-16,14.66666666666667,0.0,-0.0,8.980743193747258E-16,14.66666666666667
10.699999999999978,9.699202649247026E-14,1584.0000000000018,1082.517614027317,0.0,10.0,0.0,100.0,0.0,0.0,8.980743193747258E-16,14.66666666666667,0.0,-0.0,8.980743193747258E-16,14.66666666666667
10.799999999999978,9.789010081184499E-14,1598.6666666666686,1083.2816660090514,0.0,10.0,0.0,100.0,0.0,0.0,8.980743193747258E-16,14.66666666666667,0.0,-0.0,8.980743193747258E-16,14.66666666666667
10.899999999999977,9.878817513121971E-14,1613.3333333333353,1084.0457179907858,0.0,10.0,0.0,100.0,0.0,0.0,8.980743193747258E-16,14.66666666666667,0.0,-0.0,8.980743193747258E-16,14.66666666666667
10.999999999999977,9.968624945059444E-14,1628.000000000002,1084.8097699725201,0.0,10.0,0.0,100.0,0.0,0.0,8.980743193747258E-16,14.66666666666667,0.0,-0.0,8.980743193747258E-16,14.66666666666667
11.099999999999977,1.0058432376996916E-13,1642.6666666666688,1085.5738219542545,0.0,10.0,0.0,100.0,0.0,0.0,8.980743193747258E-16,14.66666666666667,0.0,-0.0,8.980743193747258E-16,14.66666666666667
11.199999999999976,1.0148239808934388E-13,1657.3333333333355,1086.337873935989,0.0,10.0,0.0,100.0,0.0,0.0,8.980743193747258E-16,14.66666666666667,0.0,-0.0,8.980743193747258E-16,14.66666666666667
11.299999999999976,1.0238047240871861E-13,1672.0000000000023,1087.1019259177233,0.0,10.0,0.0,100.0,0.0,0.0,8.980743193747258E-16,14.66666666666667,0.0,-0.0,8.980743193747258E-16,14.66666666666667
11.399999999999975,1.0327854672809333E-13,1686.666666666669,1087.8659778994577,0.0,10.0,0.0,100.0,0.0,0.0,8.980743193747258E-16,14.66666666666667,0.0,-0.0,8.980743193747258E-16,14.66666666666667
11.499999999999975,1.0417662104746806E-13,1701.3333333333358,1088.630029881192,0.0,10.0,0.0,100.0,0.0,0.0,8.980743193747258E-16,14.66666666666667,0.0,-0.0,8.980743193747258E-16,14.66666666666667
11.599999999999975,1.0507469536684278E-13,1716.0000000000025,1089.3940818629264,0.0,10.0,0.0,100.0,0.0,0.0,8.980743193747258E-16,14.66666666666667,0.0,-0.0,8.980743193747258E-16,14.66666666666667
11.699999999999974,1.0597276968621751E-13,1730.6666666666692,1090.1581338446608,0.0,10.0,0.0,100.0,0.0,0.0,8.980743193747258E-16,14.66666666666667,0.0,-0.0,8.980743193747258E-16,14.66666666666667
11.799999999999974,1.0687084400559223E-13,1745.333333333336,1090.9221858263952,0.0,10.0,0.0,100.0,0.0,0.0,8.980743193747258E-16,14.66666666666667,0.0,-0.0,8.980743193747258E-16,14.66666666666667
11.899999999999974,1.0776891832496696E-13,1760.0000000000027,1091.6862378081296,0.0,10.0,0.0,100.0,0.0,0.0,8.980743193747258E-16,14.66666666666667,0.0,-0.0,8.980743193747258E-16,14.66666666666667
11.999999999999973,1.0866699264434168E-13,1774.6666666666695,1092.450289789864,0.0,10.0,0.0,100.0,0.0,0.0,8.980743193747258E-16,14.66666666666667,0.0,-0.0,8.980743193747258E-16,14.66666666666667
12.099999999999973,1.095650669637164E-13,1789.3333333333362,1093.2143417715984,0.0,10.0,0.0,100.0,0.0,0.0,8.980743193747258E-16,14.66666666666667,0.0,-0.0,8.980743193747258E-16,14.66666666666667
12.199999999999973,1.1046314128309113E-13,1804.000000000003,1093.9783937533327,0.0,10.0,0.0,100.0,0.0,0.0,8.980743193747258E-16,14.66666666666667,0.0,-0.0,8.980743193747258E-16,14.66666666666667
12.299999999999972,1.1136121560246585E-13,1818.6666666666697,1094.7424457350671,0.0,10.0,0.0,100.0,0.0,0.0,8.980743193747258E-16,14.66666666666667,0.0,-0.0,8.980743193747258E-16,14.66666666666667
12.399999999999972,1.1225928992184058E-13,1833.3333333333364,1095.5064977168015,0.0,10.0,0.0,100.0,0.0,0.0,8.980743193747258E-16,14.66666666666667,0.0,-0.0,8.980743193747258E-16,14.66666666666667
12.499999999999972,1.131573642412153E-13,1848.0000000000032,1096.270549698536,0.0,10.0,0.0,100.0,0.0,0.0,8.980743193747258E-16,14.66666666666667,0.0,-0.0,8.980743193747258E-16,14.66666666666667
12.599999999999971,1.1405543856059003E-13,1862.66666666667,1097.0346016802703,0.0,10.0,0.0,100.0,0.0,0.0,8.980743193747258E-16,14.66666666666667,0.0,-0.0,8.980743193747258E-16,14.66666666666667
12.69999999999997,1.1495351287996475E-13,1877.3333333333367,1097.7986536620047,0.0,10.0,0.0,100.0,0.0,0.0,8.980743193747258E-16,14.66666666666667,0.0,-0.0,8.980743193747258E-16,14.66666666666667
12.79999999999997,1.1585158719933948E-13,1892.0000000000034,1098.562705643739,0.0,10.0,0.0,100.0,0.0,0.0,8.980743193747258E-16,14.66666666666667,0.0,-0.0,8.980743193747258E-16,14.66666666666667
12.89999999999997,1.167496615187142E-13,1906.6666666666702,1099.3267576254734,0.0,10.0,0.0,100.0,0.0,0.0,8.980743193747258E-16,14.66666666666667,0.0,-0.0,8.980743193747258E-16,14.66666666666667
12.99999999999997,1.1764773583808892E-13,1921.333333333337,1100.0908096072078,0.0,10.0,0.0,100.0,0.0,0.0,8.980743193747258E-16,14.66666666666667,0.0,-0.0,8.980743193747258E-16,14.66666666666667
13.09999999999997,1.1854581015746365E-13,1936.0000000000036,1100.8548615889422,0.0,10.0,0.0,100.0,0.0,0.0,8.980743193747258E-16,14.66666666666667,0.0,-0.0,8.980743193747258E-16,14.66666666666667
13.199999999999969,1.1944388447683837E-13,1950.6666666666704,1101.6189135706766,0.0,10.0,0.0,100.0,0.0,0.0,8.980743193747258E-16,14.66666666666667,0.0,-0.0,8.980743193747258E-16,14.66666666666667
13.299999999999969,1.203419587962131E-13,1965.3333333333371,1102.382965552411,0.0,10.0,0.0,100.0,0.0,0.0,8.980743193747258E-16,14.66666666666667,0.0,-0.0,8.980743193747258E-16,14.66666666666667
13.399999999999968,1.2124003311558782E-13,1980.0000000000039,1103.1470175341453,0.0,10.0,0.0,100.0,0.0,0.0,8.980743193747258E-16,14.66666666666667,0.0,-0.0,8.980743193747258E-16,14.66666666666667
13.499999999999968,1.2213810743496255E-13,1994.6666666666706,1103.9110695158797,0.0,10.0,0.0,100.0,0.0,0.0,8.980743193747258E-16,14.66666666666667,0.0,-0.0,8.980743193747258E-16,14.66666666666667
13.599999999999968,1.2303618175433727E-13,2009.3333333333374,1104.675121497614,0.0,10.0,0.0,100.0,0.0,0.0,8.980743193747258E-16,14.66666666666667,0.0,-0.0,8.980743193747258E-16,14.66666666666667
13.699999999999967,1.23934256073712E-13,2024.000000000004,1105.4391734793485,0.0,10.0,0.0,100.0,0.0,0.0,8.980743193747258E-16,14.66666666666667,0.0,-0.0,8.980743193747258E-16,14.66666666666667
13.799999999999967,1.2483233039308672E-13,2038.6666666666708,1106.2032254610829,0.0,10.0,0.0,100.0,0.0,0.0,8.980743193747258E-16,14.66666666666667,0.0,-0.0,8.980743193747258E-16,14.66666666666667
13.899999999999967,1.2573040471246144E-13,2053.3333333333376,1106.9672774428172,0.0,10.0,0.0,100.0,0.0,0.0,8.980743193747258E-16,14.66666666666667,0.0,-0.0,8.980743193747258E-16,14.66666666666667
13.999999999999966,1.2662847903183617E-13,2068.000000000004,1107.7313294245516,0.0,10.0,0.0,100.0,0.0,0.0,8.980743193747258E-16,14.66666666666667,0.0,-0.0,8.980743193747258E-16,14.66666666666667
14.099999999999966,1.275265533512109E-13,2082.6666666666706,1108.495381406286,0.0,10.0,0.0,100.0,0.0,0.0,8.980743193747258E-16,14.66666666666667,0.0,-0.0,8.980743193747258E-16,14.66666666666667
14.199999999999966,1.2842462767058562E-13,2097.333333333337,1109.2594333880204,0.0,10.0,0.0,100.0,0.0,0.0,8.980743193747258E-16,14.66666666666667,0.0,-0.0,8.980743193747258E-16,14.66666666666667
14.299999999999965,1.2932270198996034E-13,2112.0000000000036,1110.0234853697548,0.0,10.0,0.0,100.0,0.0,0.0,8.980743193747258E-16,14.66666666666667,0.0,-0.0,8.980743193747258E-16,14.66666666666667
14.399999999999965,1.3022077630933507E-13,2126.66666666667,1110.7875373514892,0.0,10.0,0.0,100.0,0.0,0.0,8.980743193747258E-16,14.66666666666667,0.0,-0.0,8.980743193747258E-16,14.66666666666667
14.499999999999964,1.311188506287098E-13,2141.3333333333367,1111.5515893332235,0.0,10.0,0.0,100.0,0.0,0.0,8.980743193747258E-16,14.66666666666667,0.0,-0.0,8.980743193747258E-16,14.66666666666667
14.599999999999964,1.3201692494808451E-13,2156.000000000003,1112.315641314958,0.0,10.0,0.0,100.0,0.0,0.0,8.980743193747258E-16,14.66666666666667,0.0,-0.0,8.980743193747258E-16,14.66666666666667
14.699999999999964,1.3291499926745924E-13,2170.6666666666697,1113.0796932966923,0.0,10.0,0.0,100.0,0.0,0.0,8.980743193747258E-16,14.66666666666667,0.0,-0.0,8.980743193747258E-16,14.66666666666667
14.799999999999963,1.3381307358683396E-13,2185.333333333336,1113.8437452784267,0.0,10.0,0.0,100.0,0.0,0.0,8.980743193747258E-16,14.66666666666667,0.0,-0.0,8.980743193747258E-16,14.66666666666667
14.899999999999963,1.347111479062087E-13,2200.0000000000027,1114.607797260161,0.0,10.0,0.0,100.0,0.0,0.0,8.980743193747258E-16,14.66666666666667,0.0,-0.0,8.980743193747258E-16,14.66666666666667
14.999999999999963,1.3560922222558341E-13,2214.6666666666692,1115.3718492418955,0.0,10.0,0.0,100.0,0.0,0.0,8.980743193747258E-16,14.66666666666667,0.0,-0.0,8.980743193747258E-16,14.66666666666667
15.099999999999962,1.3650729654495814E-13,2229.3333333333358,1116.1359012236298,0.0,10.0,0.0,100.0,0.0,0.0,8.980743193747258E-16,14.66666666666667,0.0,-0.0,8.980743193747258E-16,14.66666666666667
15.199999999999962,1.3740537086433286E-13,2244.0000000000023,1116.8999532053642,0.0,10.0,0.0,100.0,0.0,0.0,8.980743193747258E-16,14.66666666666667,0.0,-0.0,8.980743193747258E-16,14.66666666666667
15.299999999999962,1.3830344518370759E-13,2258.666666666669,1117.6640051870986,0.0,10.0,0.0,100.0,0.0,0.0,8.980743193747258E-16,14.66666666666667,0.0,-0.0,8.980743193747258E-16,14.66666666666667
15.399999999999961,1.392015195030823E-13,2273.3333333333353,1118.428057168833,0.0,10.0,0.0,100.0,0.0,0.0,8.980743193747258E-16,14.66666666666667,0.0,-0.0,8.980743193747258E-16,14.66666666666667
15.499999999999961,1.4009959382245703E-13,2288.000000000002,1119.1921091505674,0.0,10.0,0.0,100.0,0.0,0.0,8.980743193747258E-16,14.66666666666667,0.0,-0.0,8.980743193747258E-16,14.66666666666667
15.59999999999996,1.4099766814183176E-13,2302.6666666666683,1119.9561611323018,0.0,10.0,0.0,100.0,0.0,0.0,8.980743193747258E-16,14.66666666666667,0.0,-0.0,8.980743193747258E-16,14.66666666666667
15.69999999999996,1.4189574246120648E-13,2317.333333333335,1120.7202131140361,0.0,10.0,0.0,100.0,0.0,0.0,8.980743193747258E-16,14.66666666666667,0.0,-0.0,8.980743193747258E-16,14.66666666666667
15.79999999999996,1.427938167805812E-13,2332.0000000000014,1121.4842650957705,0.0,10.0,0.0,100.0,0.0,0.0,8.980743193747258E-16,14.66666666666667,0.0,-0.0,8.980743193747258E-16,14.66666666666667
15.89999999999996,1.4369189109995593E-13,2346.666666666668,1122.248317077505,0.0,10.0,0.0,100.0,0.0,0.0,8.980743193747258E-16,14.66666666666667,0.0,-0.0,8.980743193747258E-16,14.66666666666667
15.99999999999996,1.4458996541933066E-13,2361.3333333333344,1123.0123690592393,0.0,10.0,0.0,100.0,0.0,0.0,8.980743193747258E-16,14.66666666666667,0.0,-0.0,8.980743193747258E-16,14.66666666666667
16.09999999999996,1.4548803973870538E-13,2376.000000000001,1123.7764210409737,0.0,10.0,0.0,100.0,0.0,0.0,8.980743193747258E-16,14.66666666666667,0.0,-0.0,8.980743193747258E-16,14.66666666666667
16.19999999999996,1.463861140580801E-13,2390.6666666666674,1124.540473022708,0.0,10.0,0.0,100.0,0.0,0.0,8.980743193747258E-16,14.66666666666667,0.0,-0.0,8.980743193747258E-16,14.66666666666667
16.29999999999996,1.4728418837745483E-13,2405.333333333334,1125.3045250044424,0.0,10.0,0.0,100.0,0.0,0.0,8.980743193747258E-16,14.66666666666667,0.0,-0.0,8.980743193747258E-16,14.66666666666667
16.399999999999963,1.4818226269682955E-13,2420.0000000000005,1126.0685769861768,0.0,10.0,0.0,100.0,0.0,0.0,8.980743193747258E-16,14.66666666666667,0.0,-0.0,8.980743193747258E-16,14.66666666666667
16.499999999999964,1.4908033701620428E-13,2434.666666666667,1126.8326289679112,0.0,10.0,0.0,100.0,0.0,0.0,8.980743193747258E-16,14.66666666666667,0.0,-0.0,8.980743193747258E-16,14.66666666666667
16.599999999999966,1.49978411335579E-13,2449.3333333333335,1127.5966809496456,0.0,10.0,0.0,100.0,0.0,0.0,8.980743193747258E-16,14.66666666666667,0.0,-0.0,8.980743193747258E-16,14.66666666666667
16.699999999999967,1.5087648565495373E-13,2464.0,1128.36073293138,0.0,10.0,0.0,100.0,0.0,0.0,8.980743193747258E-16,14.66666666666667,0.0,-0.0,8.980743193747258E-16,14.66666666666667
16.79999999999997,1.5177455997432845E-13,2478.6666666666665,1129.1247849131144,0.0,10.0,0.0,100.0,0.0,0.0,8.980743193747258E-16,14.66666666666667,0.0,-0.0,8.980743193747258E-16,14.66666666666667
16.89999999999997,1.5267263429370318E-13,2493.333333333333,1129.8888368948487,0.0,10.0,0.0,100.0,0.0,0.0,8.980743193747258E-16,14.66666666666667,0.0,-0.0,8.980743193747258E-16,14.66666666666667
16.99999999999997,1.535707086130779E-13,2507.9999999999995,1130.6528888765831,0.0,10.0,0.0,100.0,0.0,0.0,8.980743193747258E-16,14.66666666666667,0.0,-0.0,8.980743193747258E-16,14.66666666666667
17.099999999999973,1.5446878293245263E-13,2522.666666666666,1131.4169408583175,0.0,10.0,0.0,100.0,0.0,0.0,8.980743193747258E-16,14.66666666666667,0.0,-0.0,8.980743193747258E-16,14.66666666666667
17.199999999999974,1.5536685725182735E-13,2537.3333333333326,1132.1809928400519,0.0,10.0,0.0,100.0,0.0,0.0,8.980743193747258E-16,14.66666666666667,0.0,-0.0,8.980743193747258E-16,14.66666666666667
17.299999999999976,1.5626493157120207E-13,2551.999999999999,1132.9450448217863,0.0,10.0,0.0,100.0,0.0,0.0,8.980743193747258E-16,14.66666666666667,0.0,-0.0,8.980743193747258E-16,14.66666666666667
17.399999999999977,1.571630058905768E-13,2566.6666666666656,1133.7090968035207,0.0,10.0,0.0,100.0,0.0,0.0,8.980743193747258E-16,14.66666666666667,0.0,-0.0,8.980743193747258E-16,14.66666666666667
17.49999999999998,1.5806108020995152E-13,2581.333333333332,1134.473148785255,0.0,10.0,0.0,100.0,0.0,0.0,8.980743193747258E-16,14.66666666666667,0.0,-0.0,8.980743193747258E-16,14.66666666666667
17.59999999999998,1.5895915452932625E-13,2595.9999999999986,1135.2372007669894,0.0,10.0,0.0,100.0,0.0,0.0,8.980743193747258E-16,14.66666666666667,0.0,-0.0,8.980743193747258E-16,14.66666666666667
17.69999999999998,1.5985722884870097E-13,2610.666666666665,1136.0012527487238,0.0,10.0,0.0,100.0,0.0,0.0,8.980743193747258E-16,14.66666666666667,0.0,-0.0,8.980743193747258E-16,14.66666666666667
17.799999999999983,1.607553031680757E-13,2625.3333333333317,1136.7653047304582,0.0,10.0,0.0,100.0,0.0,0.0,8.980743193747258E-16,14.66666666666667,0.0,-0.0,8.980743193747258E-16,14.66666666666667
17.899999999999984,1.6165337748745042E-13,2639.999999999998,1137.5293567121926,0.0,10.0,0.0,100.0,0.0,0.0,8.980743193747258E-16,14.66666666666667,0.0,-0.0,8.980743193747258E-16,14.66666666666667
17.999999999999986,1.6255145180682515E-13,2654.6666666666647,1138.293408693927,0.0,10.0,0.0,100.0,0.0,0.0,8.980743193747258E-16,14.66666666666667,0.0,-0.0,8.980743193747258E-16,14.66666666666667
18.099999999999987,1.6344952612619987E-13,2669.333333333331,1139.0574606756613,0.0,10.0,0.0,100.0,0.0,0.0,8.980743193747258E-16,14.66666666666667,0.0,-0.0,8.980743193747258E-16,14.66666666666667
18.19999999999999,1.643476004455746E-13,2683.9999999999977,1139.8215126573957,0.0,10.0,0.0,100.0,0.0,0.0,8.980743193747258E-16,14.66666666666667,0.0,-0.0,8.980743193747258E-16,14.66666666666667
18.29999999999999,1.6524567476494932E-13,2698.6666666666642,1140.58556463913,0.0,10.0,0.0,100.0,0.0,0.0,8.980743193747258E-16,14.66666666666667,0.0,-0.0,8.980743193747258E-16,14.66666666666667
18.39999999999999,1.6614374908432404E-13,2713.3333333333308,1141.3496166208645,0.0,10.0,0.0,100.0,0.0,0.0,8.980743193747258E-16,14.66666666666667,0.0,-0.0,8.980743193747258E-16,14.66666666666667
18.499999999999993,1.6704182340369877E-13,2727.9999999999973,1142.1136686025989,0.0,10.0,0.0,100.0,0.0,0.0,8.980743193747258E-16,14.66666666666667,0.0,-0.0,8.980743193747258E-16,14.66666666666667
18.599999999999994,1.679398977230735E-13,2742.666666666664,1142.8777205843332,0.0,10.0,0.0,100.0,0.0,0.0,8.980743193747258E-16,14.66666666666667,0.0,-0.0,8.980743193747258E-16,14.66666666666667
18.699999999999996,1.6883797204244822E-13,2757.3333333333303,1143.6417725660676,0.0,10.0,0.0,100.0,0.0,0.0,8.980743193747258E-16,14.66666666666667,0.0,-0.0,8.980743193747258E-16,14.66666666666667
18.799999999999997,1.6973604636182294E-13,2771.999999999997,1144.405824547802,0.0,10.0,0.0,100.0,0.0,0.0,8.980743193747258E-16,14.66666666666667,0.0,-0.0,8.980743193747258E-16,14.66666666666667
18.9,1.7063412068119767E-13,2786.6666666666633,1145.1698765295364,0.0,10.0,0.0,100.0,0.0,0.0,8.980743193747258E-16,14.66666666666667,0.0,-0.0,8.980743193747258E-16,14.66666666666667
19.0,1.715321950005724E-13,2801.33333333333,1145.9339285112708,0.0,10.0,0.0,100.0,0.0,0.0,8.980743193747258E-16,14.66666666666667,0.0,-0.0,8.980743193747258E-16,14.66666666666667
19.1,1.7243026931994711E-13,2815.9999999999964,1146.6979804930052,0.0,10.0,0.0,100.0,0.0,0.0,8.980743193747258E-16,14.66666666666667,0.0,-0.0,8.980743193747258E-16,14.66666666666667
19.200000000000003,1.7332834363932184E-13,2830.666666666663,1147.4620324747395,0.0,10.0,0.0,100.0,0.0,0.0,8.980743193747258E-16,14.66666666666667,0.0,-0.0,8.980743193747258E-16,14.66666666666667
19.300000000000004,1.7422641795869656E-13,2845.3333333333294,1148.226084456474,0.0,10.0,0.0,100.0,0.0,0.0,8.980743193747258E-16,14.66666666666667,0.0,-0.0,8.980743193747258E-16,14.66666666666667
19.400000000000006,1.7512449227807129E-13,2859.999999999996,1148.9901364382083,0.0,10.0,0.0,100.0,0.0,0.0,8.980743193747258E-16,14.66666666666667,0.0,-0.0,8.980743193747258E-16,14.66666666666667
19.500000000000007,1.76022566597446E-13,2874.6666666666624,1149.7541884199427,0.0,10.0,0.0,100.0,0.0,0.0,8.980743193747258E-16,14.66666666666667,0.0,-0.0,8.980743193747258E-16,14.66666666666667
19.60000000000001,1.7692064091682074E-13,2889.333333333329,1150.518240401677,0.0,10.0,0.0,100.0,0.0,0.0,8.980743193747258E-16,14.66666666666667,0.0,-0.0,8.980743193747258E-16,14.66666666666667
19.70000000000001,1.7781871523619546E-13,2903.9999999999955,1151.2822923834115,0.0,10.0,0.0,100.0,0.0,0.0,8.980743193747258E-16,14.66666666666667,0.0,-0.0,8.980743193747258E-16,14.66666666666667
19.80000000000001,1.7871678955557018E-13,2918.666666666662,1152.0463443651458,0.0,10.0,0.0,100.0,0.0,0.0,8.980743193747258E-16,14.66666666666667,0.0,-0.0,8.980743193747258E-16,14.66666666666667
19.900000000000013,1.796148638749449E-13,2933.3333333333285,1152.8103963468802,0.0,10.0,0.0,100.0,0.0,0.0,8.980743193747258E-16,14.66666666666667,0.0,-0.0,8.980743193747258E-16,14.66666666666667
20.000000000000014,1.8051293819431963E-13,2947.999999999995,1153.5744483286146,0.0,10.0,0.0,100.0,0.0,0.0,8.980743193747258E-16,14.66666666666667,0.0,-0.0,8.980743193747258E-16,14.66666666666667
20.100000000000016,1.8141101251369436E-13,2962.6666666666615,1154.338500310349,0.0,10.0,0.0,100.0,0.0,0.0,8.980743193747258E-16,14.66666666666667,0.0,-0.0,8.980743193747258E-16,14.66666666666667
20.200000000000017,1.8230908683306908E-13,2977.333333333328,1155.1025522920834,0.0,10.0,0.0,100.0,0.0,0.0,8.980743193747258E-16,14.66666666666667,0.0,-0.0,8.980743193747258E-16,14.66666666666667
20.30000000000002,1.832071611524438E-13,2991.9999999999945,1155.8666042738178,0.0,10.0,0.0,100.0,0.0,0.0,8.980743193747258E-16,14.66666666666667,0.0,-0.0,8.980743193747258E-16,14.66666666666667
20.40000000000002,1.8410523547181853E-13,3006.666666666661,1156.6306562555521,0.0,10.0,0.0,100.0,0.0,0.0,8.980743193747258E-16,14.66666666666667,0.0,-0.0,8.980743193747258E-16,14.66666666666667
20.50000000000002,1.8500330979119326E-13,3021.3333333333276,1157.3947082372865,0.0,10.0,0.0,100.0,0.0,0.0,8.980743193747258E-16,14.66666666666667,0.0,-0.0,8.980743193747258E-16,14.66666666666667
20.600000000000023,1.8590138411056798E-13,3035.999999999994,1158.158760219021,0.0,10.0,0.0,100.0,0.0,0.0,8.980743193747258E-16,14.66666666666667,0.0,-0.0,8.980743193747258E-16,14.66666666666667
20.700000000000024,1.867994584299427E-13,3050.6666666666606,1158.9228122007553,0.0,10.0,0.0,100.0,0.0,0.0,8.980743193747258E-16,14.66666666666667,0.0,-0.0,8.980743193747258E-16,14.66666666666667
20.800000000000026,1.8769753274931743E-13,3065.333333333327,1159.6868641824897,0.0,10.0,0.0,100.0,0.0,0.0,8.980743193747258E-16,14.66666666666667,0.0,-0.0,8.980743193747258E-16,14.66666666666667
20.900000000000027,1.8859560706869215E-13,3079.9999999999936,1160.450916164224,0.0,10.0,0.0,100.0,0.0,0.0,8.980743193747258E-16,14.66666666666667,0.0,-0.0,8.980743193747258E-16,14.66666666666667
21.00000000000003,1.8949368138806688E-13,3094.66666666666,1161.2149681459584,0.0,10.0,0.0,100.0,0.0,0.0,8.980743193747258E-16,14.66666666666667,0.0,-0.0,8.980743193747258E-16,14.66666666666667
21.10000000000003,1.903917557074416E-13,3109.3333333333267,1161.9790201276928,0.0,10.0,0.0,100.0,0.0,0.0,8.980743193747258E-16,14.66666666666667,0.0,-0.0,8.980743193747258E-16,14.66666666666667
21.20000000000003,1.9128983002681633E-13,3123.999999999993,1162.7430721094272,0.0,10.0,0.0,100.0,0.0,0.0,8.980743193747258E-16,14.66666666666667,0.0,-0.0,8.980743193747258E-16,14.66666666666667
21.300000000000033,1.9218790434619105E-13,3138.6666666666597,1163.5071240911616,0.0,10.0,0.0,100.0,0.0,0.0,8.980743193747258E-16,14.66666666666667,0.0,-0.0,8.980743193747258E-16,14.66666666666667
21.400000000000034,1.9308597866556578E-13,3153.333333333326,1164.271176072896,0.0,10.0,0.0,100.0,0.0,0.0,8.980743193747258E-16,14.66666666666667,0.0,-0.0,8.980743193747258E-16,14.66666666666667
21.500000000000036,1.939840529849405E-13,3167.9999999999927,1165.0352280546304,0.0,10.0,0.0,100.0,0.0,0.0,8.980743193747258E-16,14.66666666666667,0.0,-0.0,8.980743193747258E-16,14.66666666666667
21.600000000000037,1.9488212730431522E-13,3182.6666666666592,1165.7992800363647,0.0,10.0,0.0,100.0,0.0,0.0,8.980743193747258E-16,14.66666666666667,0.0,-0.0,8.980743193747258E-16,14.66666666666667
21.70000000000004,1.9578020162368995E-13,3197.3333333333258,1166.5633320180991,0.0,10.0,0.0,100.0,0.0,0.0,8.980743193747258E-16,14.66666666666667,0.0,-0.0,8.980743193747258E-16,14.66666666666667
21.80000000000004,1.9667827594306467E-13,3211.9999999999923,1167.3273839998335,0.0,10.0,0.0,100.0,0.0,0.0,8.980743193747258E-16,14.66666666666667,0.0,-0.0,8.980743193747258E-16,14.66666666666667
21.90000000000004,1.975763502624394E-13,3226.666666666659,1168.0914359815679,0.0,10.0,0.0,100.0,0.0,0.0,8.980743193747258E-16,14.66666666666667,0.0,-0.0,8.980743193747258E-16,14.66666666666667
22.000000000000043,1.9847442458181412E-13,3241.3333333333253,1168.8554879633023,0.0,10.0,0.0,100.0,0.0,0.0,8.980743193747258E-16,14.66666666666667,0.0,-0.0,8.980743193747258E-16,14.66666666666667
22.100000000000044,1.9937249890118885E-13,3255.999999999992,1169.6195399450366,0.0,10.0,0.0,100.0,0.0,0.0,8.980743193747258E-16,14.66666666666667,0.0,-0.0,8.980743193747258E-16,14.66666666666667
22.200000000000045,2.0027057322056357E-13,3270.6666666666583,1170.383591926771,0.0,10.0,0.0,100.0,0.0,0.0,8.980743193747258E-16,14.66666666666667,0.0,-0.0,8.980743193747258E-16,14.66666666666667
22.300000000000047,2.011686475399383E-13,3285.333333333325,1171.1476439085054,0.0,10.0,0.0,100.0,0.0,0.0,8.980743193747258E-16,14.66666666666667,0.0,-0.0,8.980743193747258E-16,14.66666666666667
22.40000000000005,2.0206672185931302E-13,3299.9999999999914,1171.9116958902398,0.0,10.0,0.0,100.0,0.0,0.0,8.980743193747258E-16,14.66666666666667,0.0,-0.0,8.980743193747258E-16,14.66666666666667
22.50000000000005,2.0296479617868774E-13,3314.666666666658,1172.6757478719742,0.0,10.0,0.0,100.0,0.0,0.0,8.980743193747258E-16,14.66666666666667,0.0,-0.0,8.980743193747258E-16,14.66666666666667
22.60000000000005,2.0386287049806247E-13,3329.3333333333244,1173.4397998537086,0.0,10.0,0.0,100.0,0.0,0.0,8.980743193747258E-16,14.66666666666667,0.0,-0.0,8.980743193747258E-16,14.66666666666667
22.700000000000053,2.047609448174372E-13,3343.999999999991,1174.203851835443,0.0,10.0,0.0,100.0,0.0,0.0,8.980743193747258E-16,14.66666666666667,0.0,-0.0,8.980743193747258E-16,14.66666666666667
22.800000000000054,2.0565901913681192E-13,3358.6666666666574,1174.9679038171773,0.0,10.0,0.0,100.0,0.0,0.0,8.980743193747258E-16,14.66666666666667,0.0,-0.0,8.980743193747258E-16,14.66666666666667
22.900000000000055,2.0655709345618664E-13,3373.333333333324,1175.7319557989117,0.0,10.0,0.0,100.0,0.0,0.0,8.980743193747258E-16,14.66666666666667,0.0,-0.0,8.980743193747258E-16,14.66666666666667
23.000000000000057,2.0745516777556137E-13,3387.9999999999905,1176.496007780646,0.0,10.0,0.0,100.0,0.0,0.0,8.980743193747258E-16,14.66666666666667,0.0,-0.0,8.980743193747258E-16,14.66666666666667
23.10000000000006,2.083532420949361E-13,3402.666666666657,1177.2600597623805,0.0,10.0,0.0,100.0,0.0,0.0,8.980743193747258E-16,14.66666666666667,0.0,-0.0,8.980743193747258E-16,14.66666666666667
23.20000000000006,2.0925131641431082E-13,3417.3333333333235,1178.0241117441149,0.0,10.0,0.0,100.0,0.0,0.0,8.980743193747258E-16,14.66666666666667,0.0,-0.0,8.980743193747258E-16,14.66666666666667
23.30000000000006,2.1014939073368554E-13,3431.99999999999,1178.7881637258492,0.0,10.0,0.0,100.0,0.0,0.0,8.980743193747258E-16,14.66666666666667,0.0,-0.0,8.980743193747258E-16,14.66666666666667
23.400000000000063,2.1104746505306026E-13,3446.6666666666565,1179.5522157075836,0.0,10.0,0.0,100.0,0.0,0.0,8.980743193747258E-16,14.66666666666667,0.0,-0.0,8.980743193747258E-16,14.66666666666667
23.500000000000064,2.11945539372435E-13,3461.333333333323,1180.316267689318,0.0,10.0,0.0,100.0,0.0,0.0,8.980743193747258E-16,14.66666666666667,0.0,-0.0,8.980743193747258E-16,14.66666666666667
23.600000000000065,2.1284361369180971E-13,3475.9999999999895,1181.0803196710524,0.0,10.0,0.0,100.0,0.0,0.0,8.980743193747258E-16,14.66666666666667,0.0,-0.0,8.980743193747258E-16,14.66666666666667
23.700000000000067,2.1374168801118444E-13,3490.666666666656,1181.8443716527868,0.0,10.0,0.0,100.0,0.0,0.0,8.980743193747258E-16,14.66666666666667,0.0,-0.0,8.980743193747258E-16,14.66666666666667
23.800000000000068,2.1463976233055916E-13,3505.3333333333226,1182.6084236345212,0.0,10.0,0.0,100.0,0.0,0.0,8.980743193747258E-16,14.66666666666667,0.0,-0.0,8.980743193747258E-16,14.66666666666667
23.90000000000007,2.1553783664993389E-13,3519.999999999989,1183.3724756162555,0.0,10.0,0.0,100.0,0.0,0.0,8.980743193747258E-16,14.66666666666667,0.0,-0.0,8.980743193747258E-16,14.66666666666667
24.00000000000007,2.164359109693086E-13,3534.6666666666556,1184.13652759799,0.0,10.0,0.0,100.0,0.0,0.0,8.980743193747258E-16,14.66666666666667,0.0,-0.0,8.980743193747258E-16,14.66666666666667
24.100000000000072,2.1733398528868333E-13,3549.333333333322,1184.9005795797243,0.0,10.0,0.0,100.0,0.0,0.0,8.980743193747258E-16,14.66666666666667,0.0,-0.0,8.980743193747258E-16,14.66666666666667
24.200000000000074,2.1823205960805806E-13,3563.9999999999886,1185.6646315614587,0.0,10.0,0.0,100.0,0.0,0.0,8.980743193747258E-16,14.66666666666667,0.0,-0.0,8.980743193747258E-16,14.66666666666667
24.300000000000075,2.1913013392743278E-13,3578.666666666655,1186.428683543193,0.0,10.0,0.0,100.0,0.0,0.0,8.980743193747258E-16,14.66666666666667,0.0,-0.0,8.980743193747258E-16,14.66666666666667
24.400000000000077,2.200282082468075E-13,3593.3333333333217,1187.1927355249275,0.0,10.0,0.0,100.0,0.0,0.0,8.980743193747258E-16,14.66666666666667,0.0,-0.0,8.980743193747258E-16,14.66666666666667
24.500000000000078,2.2092628256618223E-13,3607.999999999988,1187.9567875066618,0.0,10.0,0.0,100.0,0.0,0.0,8.980743193747258E-16,14.66666666666667,0.0,-0.0,8.980743193747258E-16,14.66666666666667
24.60000000000008,2.2182435688555696E-13,3622.6666666666547,1188.7208394883962,0.0,10.0,0.0,100.0,0.0,0.0,8.980743193747258E-16,14.66666666666667,0.0,-0.0,8.980743193747258E-16,14.66666666666667
24.70000000000008,2.2272243120493168E-13,3637.333333333321,1189.4848914701306,0.0,10.0,0.0,100.0,0.0,0.0,8.980743193747258E-16,14.66666666666667,0.0,-0.0,8.980743193747258E-16,14.66666666666667
24.800000000000082,2.236205055243064E-13,3651.9999999999877,1190.248943451865,0.0,10.0,0.0,100.0,0.0,0.0,8.980743193747258E-16,14.66666666666667,0.0,-0.0,8.980743193747258E-16,14.66666666666667
24.900000000000084,2.2451857984368113E-13,3666.6666666666542,1191.0129954335994,0.0,10.0,0.0,100.0,0.0,0.0,8.980743193747258E-16,14.66666666666667,0.0,-0.0,8.980743193747258E-16,14.66666666666667
25.000000000000085,2.2541665416305585E-13,3681.3333333333208,1191.7770474153338,0.0,10.0,0.0,100.0,0.0,0.0,8.980743193747258E-16,14.66666666666667,0.0,-0.0,8.980743193747258E-16,14.66666666666667
25.100000000000087,2.2631472848243058E-13,3695.9999999999873,1192.5410993970681,0.0,10.0,0.0,100.0,0.0,0.0,8.980743193747258E-16,14.66666666666667,0.0,-0.0,8.980743193747258E-16,14.66666666666667
25.200000000000088,2.272128028018053E-13,3710.666666666654,1193.3051513788025,0.0,10.0,0.0,100.0,0.0,0.0,8.980743193747258E-16,14.66666666666667,0.0,-0.0,8.980743193747258E-16,14.66666666666667
25.30000000000009,2.2811087712118005E-13,3725.3333333333203,1194.069203360537,0.0,10.0,0.0,100.0,0.0,0.0,8.980743193747258E-16,14.66666666666667,0.0,-0.0,8.980743193747258E-16,14.66666666666667
25.40000000000009,2.290089514405548E-13,3739.999999999987,1194.8332553422713,0.0,10.0,0.0,100.0,0.0,0.0,8.980743193747258E-16,14.66666666666667,0.0,-0.0,8.980743193747258E-16,14.66666666666667
25.500000000000092,2.299070257599295E-13,3754.6666666666533,1195.5973073240057,0.0,10.0,0.0,100.0,0.0,0.0,8.980743193747258E-16,14.66666666666667,0.0,-0.0,8.980743193747258E-16,14.66666666666667
25.600000000000094,2.3080510007930423E-13,3769.33333333332,1196.36135930574,0.0,10.0,0.0,100.0,0.0,0.0,8.980743193747258E-16,14.66666666666667,0.0,-0.0,8.980743193747258E-16,14.66666666666667
25.700000000000095,2.3170317439867895E-13,3783.9999999999864,1197.1254112874744,0.0,10.0,0.0,100.0,0.0,0.0,8.980743193747258E-16,14.66666666666667,0.0,-0.0,8.980743193747258E-16,14.66666666666667
25.800000000000097,2.326012487180537E-13,3798.666666666653,1197.8894632692088,0.0,10.0,0.0,100.0,0.0,0.0,8.980743193747258E-16,14.66666666666667,0.0,-0.0,8.980743193747258E-16,14.66666666666667
25.900000000000098,2.334993230374284E-13,3813.3333333333194,1198.6535152509432,0.0,10.0,0.0,100.0,0.0,0.0,8.980743193747258E-16,14.66666666666667,0.0,-0.0,8.980743193747258E-16,14.66666666666667
26.0000000000001,2.343973973568031E-13,3827.999999999986,1199.4175672326776,0.0,10.0,0.0,100.0,0.0,0.0,8.980743193747258E-16,14.66666666666667,0.0,-0.0,8.980743193747258E-16,14.66666666666667
26.1000000000001,2.3529547167617785E-13,3842.6666666666524,1200.181619214412,0.0,10.0,0.0,100.0,0.0,0.0,8.980743193747258E-16,14.66666666666667,0.0,-0.0,8.980743193747258E-16,14.66666666666667
26.200000000000102,2.3619354599555257E-13,3857.333333333319,1200.9456711961463,0.0,10.0,0.0,100.0,0.0,0.0,8.980743193747258E-16,14.66666666666667,0.0,-0.0,8.980743193747258E-16,14.66666666666667
26.300000000000104,2.370916203149273E-13,3871.9999999999854,1201.7097231778807,0.0,10.0,0.0,100.0,0.0,0.0,8.980743193747258E-16,14.66666666666667,0.0,-0.0,8.980743193747258E-16,14.66666666666667
26.400000000000105,2.37989694634302E-13,3886.666666666652,1202.4737751596151,0.0,10.0,0.0,100.0,0.0,0.0,8.980743193747258E-16,14.66666666666667,0.0,-0.0,8.980743193747258E-16,14.66666666666667
26.500000000000107,2.3888776895367675E-13,3901.3333333333185,1203.2378271413495,0.0,10.0,0.0,100.0,0.0,0.0,8.980743193747258E-16,14.66666666666667,0.0,-0.0,8.980743193747258E-16,14.66666666666667
26.600000000000108,2.3978584327305147E-13,3915.999999999985,1204.0018791230839,0.0,10.0,0.0,100.0,0.0,0.0,8.980743193747258E-16,14.66666666666667,0.0,-0.0,8.980743193747258E-16,14.66666666666667
26.70000000000011,2.406839175924262E-13,3930.6666666666515,1204.7659311048183,0.0,10.0,0.0,100.0,0.0,0.0,8.980743193747258E-16,14.66666666666667,0.0,-0.0,8.980743193747258E-16,14.66666666666667
26.80000000000011,2.415819919118009E-13,3945.333333333318,1205.5299830865526,0.0,10.0,0.0,100.0,0.0,0.0,8.980743193747258E-16,14.66666666666667,0.0,-0.0,8.980743193747258E-16,14.66666666666667
26.900000000000112,2.4248006623117564E-13,3959.9999999999845,1206.294035068287,0.0,10.0,0.0,100.0,0.0,0.0,8.980743193747258E-16,14.66666666666667,0.0,-0.0,8.980743193747258E-16,14.66666666666667
27.000000000000114,2.4337814055055037E-13,3974.666666666651,1207.0580870500214,0.0,10.0,0.0,100.0,0.0,0.0,8.980743193747258E-16,14.66666666666667,0.0,-0.0,8.980743193747258E-16,14.66666666666667
27.100000000000115,2.442762148699251E-13,3989.3333333333176,1207.8221390317558,0.0,10.0,0.0,100.0,0.0,0.0,8.980743193747258E-16,14.66666666666667,0.0,-0.0,8.980743193747258E-16,14.66666666666667
27.200000000000117,2.451742891892998E-13,4003.999999999984,1208.5861910134902,0.0,10.0,0.0,100.0,0.0,0.0,8.980743193747258E-16,14.66666666666667,0.0,-0.0,8.980743193747258E-16,14.66666666666667
27.300000000000118,2.4607236350867454E-13,4018.6666666666506,1209.3502429952246,0.0,10.0,0.0,100.0,0.0,0.0,8.980743193747258E-16,14.66666666666667,0.0,-0.0,8.980743193747258E-16,14.66666666666667
27.40000000000012,2.4697043782804927E-13,4033.333333333317,1210.114294976959,0.0,10.0,0.0,100.0,0.0,0.0,8.980743193747258E-16,14.66666666666667,0.0,-0.0,8.980743193747258E-16,14.66666666666667
27.50000000000012,2.47868512147424E-13,4047.9999999999836,1210.8783469586933,0.0,10.0,0.0,100.0,0.0,0.0,8.980743193747258E-16,14.66666666666667,0.0,-0.0,8.980743193747258E-16,14.66666666666667
27.600000000000122,2.487665864667987E-13,4062.66666666665,1211.6423989404277,0.0,10.0,0.0,100.0,0.0,0.0,8.980743193747258E-16,14.66666666666667,0.0,-0.0,8.980743193747258E-16,14.66666666666667
27.700000000000124,2.4966466078617344E-13,4077.3333333333167,1212.406450922162,0.0,10.0,0.0,100.0,0.0,0.0,8.980743193747258E-16,14.66666666666667,0.0,-0.0,8.980743193747258E-16,14.66666666666667
27.800000000000125,2.5056273510554816E-13,4091.999999999983,1213.1705029038965,0.0,10.0,0.0,100.0,0.0,0.0,8.980743193747258E-16,14.66666666666667,0.0,-0.0,8.980743193747258E-16,14.66666666666667
27.900000000000126,2.514608094249229E-13,4106.66666666665,1213.9345548856309,0.0,10.0,0.0,100.0,0.0,0.0,8.980743193747258E-16,14.66666666666667,0.0,-0.0,8.980743193747258E-16,14.66666666666667
28.000000000000128,2.523588837442976E-13,4121.333333333317,1214.6986068673652,0.0,10.0,0.0,100.0,0.0,0.0,8.980743193747258E-16,14.66666666666667,0.0,-0.0,8.980743193747258E-16,14.66666666666667
28.10000000000013,2.5325695806367234E-13,4135.999999999984,1215.4626588490996,0.0,10.0,0.0,100.0,0.0,0.0,8.980743193747258E-16,14.66666666666667,0.0,-0.0,8.980743193747258E-16,14.66666666666667
28.20000000000013,2.5415503238304706E-13,4150.666666666651,1216.226710830834,0.0,10.0,0.0,100.0,0.0,0.0,8.980743193747258E-16,14.66666666666667,0.0,-0.0,8.980743193747258E-16,14.66666666666667
28.300000000000132,2.550531067024218E-13,4165.333333333318,1216.9907628125684,0.0,10.0,0.0,100.0,0.0,0.0,8.980743193747258E-16,14.66666666666667,0.0,-0.0,8.980743193747258E-16,14.66666666666667
28.400000000000134,2.559511810217965E-13,4179.9999999999845,1217.7548147943028,0.0,10.0,0.0,100.0,0.0,0.0,8.980743193747258E-16,14.66666666666667,0.0,-0.0,8.980743193747258E-16,14.66666666666667
28.500000000000135,2.5684925534117123E-13,4194.6666666666515,1218.5188667760372,0.0,10.0,0.0,100.0,0.0,0.0,8.980743193747258E-16,14.66666666666667,0.0,-0.0,8.980743193747258E-16,14.66666666666667
28.600000000000136,2.5774732966054596E-13,4209.3333333333185,1219.2829187577715,0.0,10.0,0.0,100.0,0.0,0.0,8.980743193747258E-16,14.66666666666667,0.0,-0.0,8.980743193747258E-16,14.66666666666667
28.700000000000138,2.586454039799207E-13,4223.999999999985,1220.046970739506,0.0,10.0,0.0,100.0,0.0,0.0,8.980743193747258E-16,14.66666666666667,0.0,-0.0,8.980743193747258E-16,14.66666666666667
28.80000000000014,2.595434782992954E-13,4238.666666666652,1220.8110227212403,0.0,10.0,0.0,100.0,0.0,0.0,8.980743193747258E-16,14.66666666666667,0.0,-0.0,8.980743193747258E-16,14.66666666666667
28.90000000000014,2.6044155261867013E-13,4253.333333333319,1221.5750747029747,0.0,10.0,0.0,100.0,0.0,0.0,8.980743193747258E-16,14.66666666666667,0.0,-0.0,8.980743193747258E-16,14.66666666666667
29.000000000000142,2.6133962693804486E-13,4267.999999999986,1222.339126684709,0.0,10.0,0.0,100.0,0.0,0.0,8.980743193747258E-16,14.66666666666667,0.0,-0.0,8.980743193747258E-16,14.66666666666667
29.100000000000144,2.622377012574196E-13,4282.666666666653,1223.1031786664435,0.0,10.0,0.0,100.0,0.0,0.0,8.980743193747258E-16,14.66666666666667,0.0,-0.0,8.980743193747258E-16,14.66666666666667
29.200000000000145,2.631357755767943E-13,4297.33333333332,1223.8672306481778,0.0,10.0,0.0,100.0,0.0,0.0,8.980743193747258E-16,14.66666666666667,0.0,-0.0,8.980743193747258E-16,14.66666666666667
29.300000000000146,2.6403384989616903E-13,4311.999999999987,1224.6312826299122,0.0,10.0,0.0,100.0,0.0,0.0,8.980743193747258E-16,14.66666666666667,0.0,-0.0,8.980743193747258E-16,14.66666666666667
29.400000000000148,2.6493192421554375E-13,4326.666666666654,1225.3953346116466,0.0,10.0,0.0,100.0,0.0,0.0,8.980743193747258E-16,14.66666666666667,0.0,-0.0,8.980743193747258E-16,14.66666666666667
29.50000000000015,2.658299985349185E-13,4341.333333333321,1226.159386593381,0.0,10.0,0.0,100.0,0.0,0.0,8.980743193747258E-16,14.66666666666667,0.0,-0.0,8.980743193747258E-16,14.66666666666667
29.60000000000015,2.667280728542932E-13,4355.999999999988,1226.9234385751154,0.0,10.0,0.0,100.0,0.0,0.0,8.980743193747258E-16,14.66666666666667,0.0,-0.0,8.980743193747258E-16,14.66666666666667
29.700000000000152,2.6762614717366793E-13,4370.666666666655,1227.6874905568498,0.0,10.0,0.0,100.0,0.0,0.0,8.980743193747258E-16,14.66666666666667,0.0,-0.0,8.980743193747258E-16,14.66666666666667
29.800000000000153,2.6852422149304265E-13,4385.333333333322,1228.4515425385841,0.0,10.0,0.0,100.0,0.0,0.0,8.980743193747258E-16,14.66666666666667,0.0,-0.0,8.980743193747258E-16,14.66666666666667
29.900000000000155,2.694222958124174E-13,4399.999999999989,1229.2155945203185,0.0,10.0,0.0,100.0,0.0,0.0,8.980743193747258E-16,14.66666666666667,0.0,-0.0,8.980743193747258E-16,14.66666666666667
