time,x,y,altitude,yaw,pitch,roll,speed,wind_dir,wind_spd,dx,dy,wind_dx,wind_dy,vmg_dx,vmg_dy
0.0,-1.0326224504733594,13.6295760405225,999.9982547593563,0.01745240643728351,0.0,1.0,100.0,45.0,10.0,0.004467495266910038,14.66666598626277,-1.0370899457402696,-1.0370899457402698,-1.0326224504733594,13.6295760405225
0.1,-2.0607774060943145,27.259150039833358,999.9965095187126,0.03490481287456702,0.0,1.0,100.0,45.0,10.0,0.008934990119314468,14.666663945051129,-1.0370899457402696,-1.0370899457402698,-1.028154955620955,13.629573999310859
0.2,-3.0844648676918744,40.888720637125026,999.9947642780689,0.052357219311850535,0.0,1.0,100.0,45.0,10.0,0.013402484142709515,14.666660543031941,-1.0370899457402696,-1.0370899457402698,-1.02368746159756,13.629570597291671
0.30000000000000004,-4.1036848365095535,54.51828647159028,999.9930190374253,0.06980962574913405,0.0,1.0,100.0,45.0,10.0,0.017869976922590586,14.66665578020552,-1.0370899457402696,-1.0370899457402698,-1.019219968817679,13.62956583446525
0.4,-5.118437314205366,68.14784618242233,999.9912737967816,0.08726203218641757,0.0,1.0,100.0,45.0,10.0,0.022337468044456462,14.666649656572305,-1.0370899457402696,-1.0370899457402698,-1.0147524776958132,13.629559710832035
0.5,-6.128722302851839,81.77739840881493,999.9895285561379,0.10471443862370108,0.0,1.0,100.0,45.0,10.0,0.026804957093796298,14.666642172132871,-1.0370899457402696,-1.0370899457402698,-1.0102849886464733,13.629552226392601
0.6,-7.134539804935999,95.40694178996257,999.9877833154942,0.1221668450609846,0.0,1.0,100.0,45.0,10.0,0.03127244365610922,14.666633326887904,-1.0370899457402696,-1.0370899457402698,-1.0058175020841604,13.629543381147634
0.7,-8.135889823359374,109.03647496506053,999.9860380748505,0.13961925149826812,0.0,1.0,100.0,45.0,10.0,0.035739927316894585,14.666623120838231,-1.0370899457402696,-1.0370899457402698,-1.001350018423375,13.629533175097961
0.7999999999999999,-9.132772361438006,122.66599657330507,999.9842928342068,0.15707165793555164,0.0,1.0,100.0,45.0,10.0,0.04020740766163899,14.666611553984797,-1.0370899457402696,-1.0370899457402698,-0.9968825380786306,13.629521608244527
0.8999999999999999,-10.125187422902426,136.29550525389348,999.9825475935631,0.17452406437283516,0.0,1.0,100.0,45.0,10.0,0.04467488427584887,14.666598626328673,-1.0370899457402696,-1.0370899457402698,-0.9924150614644207,13.629508680588403
0.9999999999999999,-11.113135011897675,149.92499964602428,999.9808023529195,0.19197647081011868,0.0,1.0,100.0,45.0,10.0,0.04914235674502125,14.666584337871061,-1.0370899457402696,-1.0370899457402698,-0.9879475889952484,13.629494392130791
1.0999999999999999,-12.096615132983299,163.5544783888973,999.9790571122758,0.2094288772474022,0.0,1.0,100.0,45.0,10.0,0.05360982465464703,14.666568688613287,-1.0370899457402696,-1.0370899457402698,-0.9834801210856225,13.629478742873017
1.2,-13.07562779113334,177.18394012171385,999.9773118716321,0.22688128368468571,0.0,1.0,100.0,45.0,10.0,0.05807728759023055,14.666551678556802,-1.0370899457402696,-1.0370899457402698,-0.979012658150039,13.629461732816532
1.3,-14.050172991736348,190.81338348367677,999.9755666309884,0.24433369012196923,0.0,1.0,100.0,45.0,10.0,0.06254474513726033,14.666533307703185,-1.0370899457402696,-1.0370899457402698,-0.9745452006030093,13.629443361962915
1.4000000000000001,-15.020250740595372,204.44280711399065,999.9738213903447,0.2617860965592527,0.0,1.0,100.0,45.0,10.0,0.06701219688124492,14.666513576054138,-1.0370899457402696,-1.0370899457402698,-0.9700777488590246,13.629423630313868
1.5000000000000002,-15.985861043927962,218.0722096518619,999.972076149701,0.27923850299653624,0.0,1.0,100.0,45.0,10.0,0.0714796424076804,14.666492483611496,-1.0370899457402696,-1.0370899457402698,-0.9656103033325891,13.629402537871226
1.6000000000000003,-16.94700390836616,231.70158973649885,999.9703309090573,0.29669090943381976,0.0,1.0,100.0,45.0,10.0,0.07594708130206991,14.66647003037721,-1.0370899457402696,-1.0370899457402698,-0.9611428644381996,13.62938008463694
1.7000000000000004,-17.90367934095652,245.33094600711195,999.9685856684137,0.3141433158711033,0.0,1.0,100.0,45.0,10.0,0.08041451314991076,14.66644621635337,-1.0370899457402696,-1.0370899457402698,-0.9566754325903588,13.6293562706131
1.8000000000000005,-18.85588734916009,258.9602771029139,999.96684042777,0.3315957223083868,0.0,1.0,100.0,45.0,10.0,0.08488193753670083,14.666421041542181,-1.0370899457402696,-1.0370899457402698,-0.9522080082035688,13.629331095801911
1.9000000000000006,-19.803627940852415,272.5895816631196,999.9650951871263,0.3490481287456703,0.0,1.0,100.0,45.0,10.0,0.08934935404794199,14.666394505945979,-1.0370899457402696,-1.0370899457402698,-0.9477405916923276,13.629304560205709
2.0000000000000004,-20.746901124323543,286.21885832694653,999.9633499464826,0.36650053518295383,0.0,1.0,100.0,45.0,10.0,0.09381676226914337,14.666366609567229,-1.0370899457402696,-1.0370899457402698,-0.9432731834711262,13.629276663826959
2.1000000000000005,-21.685706908278004,299.8481057336148,999.9616047058389,0.38395294162023735,0.0,1.0,100.0,45.0,10.0,0.09828416178580832,14.666337352408517,-1.0370899457402696,-1.0370899457402698,-0.9388057839544612,13.629247406668247
2.2000000000000006,-22.62004530183484,313.4773225223471,999.9598594651952,0.40140534805752087,0.0,1.0,100.0,45.0,10.0,0.1027515521834345,14.666306734472556,-1.0370899457402696,-1.0370899457402698,-0.9343383935568351,13.629216788732286
2.3000000000000007,-23.549916314527575,327.106507332369,999.9581142245515,0.4188577544948044,0.0,1.0,100.0,45.0,10.0,0.10721893304753347,14.666274755762192,-1.0370899457402696,-1.0370899457402698,-0.9298710126927361,13.629184810021922
2.400000000000001,-24.47531995630424,340.73565880290914,999.9563689839079,0.4363101609320879,0.0,1.0,100.0,45.0,10.0,0.11168630396360457,14.666241416280387,-1.0370899457402696,-1.0370899457402698,-0.925403641776665,13.629151470540117
2.500000000000001,-25.396256237527357,354.3647755731991,999.9546237432642,0.45376256736937143,0.0,1.0,100.0,45.0,10.0,0.11615366451715466,14.666206716030237,-1.0370899457402696,-1.0370899457402698,-0.9209362812231149,13.629116770289967
2.600000000000001,-26.31272516897393,367.9938562824738,999.9528785026205,0.47121497380665495,0.0,1.0,100.0,45.0,10.0,0.12062101429369805,14.66617065501496,-1.0370899457402696,-1.0370899457402698,-0.9164689314465715,13.62908070927469
2.700000000000001,-27.224726761835456,381.6228995699715,999.9511332619768,0.48866738024393847,0.0,1.0,100.0,45.0,10.0,0.1250883528787435,14.666133233237904,-1.0370899457402696,-1.0370899457402698,-0.912001592861526,13.629043287497634
2.800000000000001,-28.13226102771793,395.25190407493375,999.9493880213331,0.5061197866812219,0.0,1.0,100.0,45.0,10.0,0.12955567985779437,14.666094450702538,-1.0370899457402696,-1.0370899457402698,-0.9075342658824752,13.629004504962268
2.9000000000000012,-29.03532797864183,408.88086843660597,999.9476427806894,0.5235721931185054,0.0,1.0,100.0,45.0,10.0,0.13402299481636806,14.666054307412463,-1.0370899457402696,-1.0370899457402698,-0.9030669509239015,13.628964361672192
3.0000000000000013,-29.933927627042138,422.5097912942371,999.9458975400457,0.541024599555789,0.0,1.0,100.0,45.0,10.0,0.13849029733996351,14.666012803371402,-1.0370899457402696,-1.0370899457402698,-0.898599648400306,13.628922857631132
3.1000000000000014,-30.828059985768295,436.13867128708006,999.944152299402,0.5584770059930725,0.0,1.0,100.0,45.0,10.0,0.1429575870141135,14.665969938583206,-1.0370899457402696,-1.0370899457402698,-0.894132358726156,13.628879992842936
3.2000000000000015,-31.717725068084242,449.7675070543917,999.9424070587584,0.575929412430356,0.0,1.0,100.0,45.0,10.0,0.1474248634243226,14.665925713051854,-1.0370899457402696,-1.0370899457402698,-0.889665082315947,13.628835767311584
3.3000000000000016,-32.602922887668406,463.3962972354328,999.9406618181147,0.5933818188676395,0.0,1.0,100.0,45.0,10.0,0.15189212615610315,14.665880126781445,-1.0370899457402696,-1.0370899457402698,-0.8851978195841664,13.628790181041175
3.4000000000000017,-33.4836534586137,477.02504046946876,999.938916577471,0.610834225304923,0.0,1.0,100.0,45.0,10.0,0.15635937479497528,14.665833179776214,-1.0370899457402696,-1.0370899457402698,-0.8807305709452943,13.628743234035944
3.5000000000000018,-34.359916795427516,490.653735395769,999.9371713368273,0.6282866317422066,0.0,1.0,100.0,45.0,10.0,0.16082660892645712,14.665784872040515,-1.0370899457402696,-1.0370899457402698,-0.8762633368138124,13.628694926300245
3.600000000000002,-35.23171291303172,504.28238065360756,999.9354260961836,0.6457390381794901,0.0,1.0,100.0,45.0,10.0,0.16529382813606824,14.665735203578828,-1.0370899457402696,-1.0370899457402698,-0.8717961176042013,13.628645257838558
3.700000000000002,-36.099041826762665,517.9109748822631,999.9336808555399,0.6631914446167736,0.0,1.0,100.0,45.0,10.0,0.16976103200932954,14.665684174395762,-1.0370899457402696,-1.0370899457402698,-0.86732891373094,13.628594228655492
3.800000000000002,-36.96190355237117,531.5395167210189,999.9319356148962,0.6806438510540571,0.0,1.0,100.0,45.0,10.0,0.17422822013176661,14.665631784496053,-1.0370899457402696,-1.0370899457402698,-0.8628617256085029,13.628541838755783
3.900000000000002,-37.82029810602254,545.1680048091632,999.9301903742526,0.6980962574913406,0.0,1.0,100.0,45.0,10.0,0.17869539208889668,14.665578033884563,-1.0370899457402696,-1.0370899457402698,-0.8583945536513728,13.628488088144293
4.000000000000002,-38.674225504296565,558.7964377859893,999.9284451336089,0.7155486639286242,0.0,1.0,100.0,45.0,10.0,0.18316254746624833,14.665522922566275,-1.0370899457402696,-1.0370899457402698,-0.8539273982740212,13.628432976826005
4.100000000000001,-39.52368576418748,572.4248142907953,999.9266998929652,0.7330010703659077,0.0,1.0,100.0,45.0,10.0,0.18762968584934836,14.665466450546306,-1.0370899457402696,-1.0370899457402698,-0.8494602598909212,13.628376504806036
4.200000000000001,-40.368678903104026,586.053132962885,999.9249546523215,0.7504534768031912,0.0,1.0,100.0,45.0,10.0,0.1920968068237252,14.665408617829895,-1.0370899457402696,-1.0370899457402698,-0.8449931389165444,13.628318672089625
4.300000000000001,-41.20920493886939,599.6813924415671,999.9232094116778,0.7679058832404747,0.0,1.0,100.0,45.0,10.0,0.19656390997490883,14.665349424422406,-1.0370899457402696,-1.0370899457402698,-0.8405260357653608,13.628259478682136
4.4,-42.04526388972123,613.3095913661562,999.9214641710341,0.7853582896777582,0.0,1.0,100.0,45.0,10.0,0.20103099488843423,14.66528887032933,-1.0370899457402696,-1.0370899457402698,-0.8360589508518353,13.62819892458906
4.5,-42.87685577431167,626.9377283759721,999.9197189303904,0.8028106961150417,0.0,1.0,100.0,45.0,10.0,0.20549806114982824,14.665226955556292,-1.0370899457402696,-1.0370899457402698,-0.8315918845904413,13.628137009816022
4.6,-43.703980611707316,640.5658021103409,999.9179736897468,0.8202631025523253,0.0,1.0,100.0,45.0,10.0,0.20996510834462917,14.665163680109028,-1.0370899457402696,-1.0370899457402698,-0.8271248373956404,13.628073734368758
4.699999999999999,-44.52663842138921,654.1938112085941,999.9162284491031,0.8377155089896088,0.0,1.0,100.0,45.0,10.0,0.2144321360583739,14.665099043993417,-1.0370899457402696,-1.0370899457402698,-0.8226578096818957,13.628009098253147
4.799999999999999,-45.34482922325288,667.8217543100693,999.9144832084594,0.8551679154268923,0.0,1.0,100.0,45.0,10.0,0.21889914387660112,14.66503304721545,-1.0370899457402696,-1.0370899457402698,-0.8181908018636684,13.62794310147518
4.899999999999999,-46.1585530376083,681.4496300541103,999.9127379678157,0.8726203218641758,0.0,1.0,100.0,45.0,10.0,0.2233661313848513,14.664965689781253,-1.0370899457402696,-1.0370899457402698,-0.8137238143554183,13.627875744040983
4.999999999999998,-46.967809885179896,695.0774370800672,999.910992727172,0.8900727283014593,0.0,1.0,100.0,45.0,10.0,0.22783309816867017,14.664896971697075,-1.0370899457402696,-1.0370899457402698,-0.8092568475715994,13.627807025956805
5.099999999999998,-47.77259978710657,708.7051740272962,999.9092474865283,0.9075251347387429,0.0,1.0,100.0,45.0,10.0,0.2323000438135955,14.664826892969293,-1.0370899457402696,-1.0370899457402698,-0.8047899019266741,13.627736947229023
5.1999999999999975,-48.572922764941666,722.3328395351602,999.9075022458846,0.9249775411760264,0.0,1.0,100.0,45.0,10.0,0.23676696790517684,14.664755453604405,-1.0370899457402696,-1.0370899457402698,-0.8003229778350928,13.627665507864135
5.299999999999997,-49.36877884065297,735.960432243029,999.905757005241,0.9424299476133099,0.0,1.0,100.0,45.0,10.0,0.24123387002896246,14.664682653609045,-1.0370899457402696,-1.0370899457402698,-0.7958560757113071,13.627592707868775
5.399999999999997,-50.16016803662274,749.5879507902787,999.9040117645973,0.9598823540505934,0.0,1.0,100.0,45.0,10.0,0.2457007497705027,14.664608492989966,-1.0370899457402696,-1.0370899457402698,-0.7913891959697669,13.627518547249696
5.4999999999999964,-50.94709037564766,763.2153938162925,999.9022665239536,0.9773347604878769,0.0,1.0,100.0,45.0,10.0,0.25016760671534993,14.664532971754044,-1.0370899457402696,-1.0370899457402698,-0.7869223390249196,13.627443026013774
5.599999999999996,-51.72954588093887,776.8427599604605,999.9005212833099,0.9947871669251604,0.0,1.0,100.0,45.0,10.0,0.254634440449062,14.664456089908292,-1.0370899457402696,-1.0370899457402698,-0.7824555052912076,13.627366144168022
5.699999999999996,-52.50753457612195,790.4700478621801,999.8987760426662,1.0122395733624439,0.0,1.0,100.0,45.0,10.0,0.25910125055719224,14.66437784745984,-1.0370899457402696,-1.0370899457402698,-0.7779886951830773,13.62728790171957
5.799999999999995,-53.28105648523693,804.0972561608557,999.8970308020225,1.0296919797997273,0.0,1.0,100.0,45.0,10.0,0.2635680366252897,14.66429824441595,-1.0370899457402696,-1.0370899457402698,-0.7735219091149799,13.62720829867568
5.899999999999995,-54.050111632738265,817.7243834958995,999.8952855613788,1.0471443862370107,0.0,1.0,100.0,45.0,10.0,0.26803479823893517,14.664217280784005,-1.0370899457402696,-1.0370899457402698,-0.7690551475013344,13.627127335043735
5.999999999999995,-54.81470004349485,831.3514285067307,999.8935403207352,1.064596792674294,0.0,1.0,100.0,45.0,10.0,0.27250153498367885,14.664134956571518,-1.0370899457402696,-1.0370899457402698,-0.7645884107565908,13.627045010831248
6.099999999999994,-55.57482174279003,844.9783898327765,999.8917950800915,1.0820491991115775,0.0,1.0,100.0,45.0,10.0,0.276968246445093,14.664051271786127,-1.0370899457402696,-1.0370899457402698,-0.7601216992951766,13.626961326045857
6.199999999999994,-56.33047675632156,858.6052661134719,999.8900498394478,1.099501605548861,0.0,1.0,100.0,45.0,10.0,0.28143493220873905,14.663966226435598,-1.0370899457402696,-1.0370899457402698,-0.7556550135315305,13.626876280695328
6.299999999999994,-57.08166511020164,872.2320559882594,999.8883045988041,1.1169540119861443,0.0,1.0,100.0,45.0,10.0,0.28590159186018743,14.66387982052782,-1.0370899457402696,-1.0370899457402698,-0.7511883538800821,13.62678987478755
6.399999999999993,-57.828386830956894,885.8587580965899,999.8865593581604,1.1344064184234277,0.0,1.0,100.0,45.0,10.0,0.2903682249850175,14.66379205407081,-1.0370899457402696,-1.0370899457402698,-0.7467217207552521,13.62670210833054
6.499999999999993,-58.57064194552836,899.4853710779223,999.8848141175167,1.1518588248607111,0.0,1.0,100.0,45.0,10.0,0.2948348311688045,14.663702927072714,-1.0370899457402696,-1.0370899457402698,-0.7422551145714651,13.626612981332444
6.5999999999999925,-59.30843048127151,913.1118935717238,999.883068876873,1.1693112312979945,0.0,1.0,100.0,45.0,10.0,0.29930140999712296,14.663612439541797,-1.0370899457402696,-1.0370899457402698,-0.7377885357431466,13.626522493801527
6.699999999999992,-60.04175246595623,926.73832421747,999.8813236362294,1.186763637735278,0.0,1.0,100.0,45.0,10.0,0.30376796105554993,14.663520591486456,-1.0370899457402696,-1.0370899457402698,-0.7333219846847197,13.626430645746186
6.799999999999992,-60.770607927766825,940.3646616546449,999.8795783955857,1.2042160441725613,0.0,1.0,100.0,45.0,10.0,0.3082344839296717,14.663427382915218,-1.0370899457402696,-1.0370899457402698,-0.7288554618105979,13.626337437174948
6.8999999999999915,-61.49499689530202,953.9909045227414,999.877833154942,1.2216684506098447,0.0,1.0,100.0,45.0,10.0,0.3127009782050703,14.663332813836723,-1.0370899457402696,-1.0370899457402698,-0.7243889675351993,13.626242868096453
6.999999999999991,-62.21491939757495,967.6170514612609,999.8760879142983,1.2391208570471282,0.0,1.0,100.0,45.0,10.0,0.3171674434673438,14.663236884259751,-1.0370899457402696,-1.0370899457402698,-0.7199225022729258,13.626146938519481
7.099999999999991,-62.930375464013146,981.2431011097138,999.8743426736546,1.2565732634844116,0.0,1.0,100.0,45.0,10.0,0.32163387930207654,14.663139594193199,-1.0370899457402696,-1.0370899457402698,-0.715456066438193,13.626049648452929
7.19999999999999,-63.64136512445856,994.8690521076197,999.8725974330109,1.274025669921695,0.0,1.0,100.0,45.0,10.0,0.3261002852948588,14.663040943646097,-1.0370899457402696,-1.0370899457402698,-0.7109896604454108,13.625950997905827
7.29999999999999,-64.34788840916754,1008.4949030945071,999.8708521923672,1.2914780763589784,0.0,1.0,100.0,45.0,10.0,0.33056666103129023,14.662940932627595,-1.0370899457402696,-1.0370899457402698,-0.7065232847089793,13.625850986887325
7.39999999999999,-65.04994534881084,1022.1206527099138,999.8691069517236,1.3089304827962618,0.0,1.0,100.0,45.0,10.0,0.33503300609696673,14.662839561146976,-1.0370899457402696,-1.0370899457402698,-0.7020569396433028,13.625749615406706
7.499999999999989,-65.7475359744736,1035.7462995933872,999.8673617110799,1.3263828892335452,0.0,1.0,100.0,45.0,10.0,0.3394993200774968,14.662736829213642,-1.0370899457402696,-1.0370899457402698,-0.6975906256627729,13.625646883473372
7.599999999999989,-66.44066031765539,1049.3718423844841,999.8656164704362,1.3438352956708286,0.0,1.0,100.0,45.0,10.0,0.34396560255848535,14.662632736837125,-1.0370899457402696,-1.0370899457402698,-0.6931243431817842,13.625542791096855
7.699999999999989,-67.12931841027012,1062.997279722771,999.8638712297925,1.361287702108112,0.0,1.0,100.0,45.0,10.0,0.3484318531255337,14.662527284027087,-1.0370899457402696,-1.0370899457402698,-0.6886580926147359,13.625437338286817
7.799999999999988,-67.81351028464611,1076.622610247824,999.8621259891488,1.3787401085453954,0.0,1.0,100.0,45.0,10.0,0.35289807136425916,14.662420470793306,-1.0370899457402696,-1.0370899457402698,-0.6841918743760105,13.625330525053036
7.899999999999988,-68.49323597352611,1090.2478325992295,999.8603807485051,1.3961925149826788,0.0,1.0,100.0,45.0,10.0,0.3573642568602624,14.662312297145697,-1.0370899457402696,-1.0370899457402698,-0.6797256888800072,13.625222351405426
7.999999999999988,-69.16849551006719,1103.8729454165834,999.8586355078614,1.4136449214199622,0.0,1.0,100.0,45.0,10.0,0.3618304091991798,14.662202763094294,-1.0370899457402696,-1.0370899457402698,-0.6752595365410898,13.625112817354024
8.099999999999987,-69.83928892784083,1117.4979473394924,999.8568902672178,1.4310973278572456,0.0,1.0,100.0,45.0,10.0,0.36629652796662154,14.662091868649261,-1.0370899457402696,-1.0370899457402698,-0.6707934177736481,13.625001922908991
8.199999999999987,-70.50561626083288,1131.122837007573,999.8551450265741,1.448549734294529,0.0,1.0,100.0,45.0,10.0,0.37076261274820727,14.661979613820888,-1.0370899457402696,-1.0370899457402698,-0.6663273329920623,13.624889668080618
8.299999999999986,-71.16747754344358,1144.7476130604523,999.8533997859304,1.4660021407318125,0.0,1.0,100.0,45.0,10.0,0.3752286631295665,14.661865998619588,-1.0370899457402696,-1.0370899457402698,-0.6618612826107031,13.624776052879318
8.399999999999986,-71.82487281048752,1158.372274137768,999.8516545452867,1.4834545471690959,0.0,1.0,100.0,45.0,10.0,0.3796946786963252,14.661751023055904,-1.0370899457402696,-1.0370899457402698,-0.6573952670439444,13.624661077315634
8.499999999999986,-72.47780209719366,1171.9968188791684,999.849909304643,1.5009069536063793,0.0,1.0,100.0,45.0,10.0,0.38416065903412594,14.661634687140506,-1.0370899457402696,-1.0370899457402698,-0.6529292867061436,13.624544741400236
8.599999999999985,-73.12626543920533,1185.6212459243122,999.8481640639993,1.5183593600436627,0.0,1.0,100.0,45.0,10.0,0.38862660372859786,14.661516990884182,-1.0370899457402696,-1.0370899457402698,-0.6484633420116717,13.624427045143912
8.699999999999985,-73.77026287258022,1199.2455539128698,999.8464188233556,1.535811766480946,0.0,1.0,100.0,45.0,10.0,0.39309251236537684,14.661397934297858,-1.0370899457402696,-1.0370899457402698,-0.6439974333748928,13.624307988557588
8.799999999999985,-74.40979443379037,1212.8697414845221,999.844673582712,1.5532641729182295,0.0,1.0,100.0,45.0,10.0,0.3975583845301088,14.661277517392575,-1.0370899457402696,-1.0370899457402698,-0.6395315612101609,13.624187571652305
8.899999999999984,-75.04486015972219,1226.4938072789614,999.8429283420683,1.570716579355513,0.0,1.0,100.0,45.0,10.0,0.4020242198084395,14.661155740179511,-1.0370899457402696,-1.0370899457402698,-0.6350657259318301,13.624065794439241
8.999999999999984,-75.67546008767644,1240.1177499358912,999.8411831014246,1.5881689857927963,0.0,1.0,100.0,45.0,10.0,0.4064900177860183,14.66103260266996,-1.0370899457402696,-1.0370899457402698,-0.6305999279542513,13.62394265692969
9.099999999999984,-76.3015942553682,1253.7415680950262,999.8394378607809,1.6056213922300797,0.0,1.0,100.0,45.0,10.0,0.4109557780484979,14.66090810487535,-1.0370899457402696,-1.0370899457402698,-0.6261341676917717,13.62381815913508
9.199999999999983,-76.92326270092693,1267.3652603960932,999.8376926201372,1.6230737986673631,0.0,1.0,100.0,45.0,10.0,0.41542150018153473,14.660782246807232,-1.0370899457402696,-1.0370899457402698,-0.6216684455587349,13.623692301066962
9.299999999999983,-77.54046546289639,1280.9888254788302,999.8359473794935,1.6405262051046465,0.0,1.0,100.0,45.0,10.0,0.4198871837707917,14.660655028477283,-1.0370899457402696,-1.0370899457402698,-0.6172027619694779,13.623565082737013
9.399999999999983,-78.15320258023473,1294.6122619829873,999.8342021388498,1.65797861154193,0.0,1.0,100.0,45.0,10.0,0.42435282840192573,14.660526449897306,-1.0370899457402696,-1.0370899457402698,-0.6127371173383438,13.623436504157036
9.499999999999982,-78.76147409231439,1308.2355685483262,999.8324568982061,1.6754310179792133,0.0,1.0,100.0,45.0,10.0,0.428818433660607,14.66039651107923,-1.0370899457402696,-1.0370899457402698,-0.6082715120796626,13.62330656533896
9.599999999999982,-79.36528003892214,1321.858743814621,999.8307116575625,1.6928834244164968,0.0,1.0,100.0,45.0,10.0,0.4332839991325063,14.660265212035114,-1.0370899457402696,-1.0370899457402698,-0.6038059466077632,13.623175266294844
9.699999999999982,-79.9646204602591,1335.481786421658,999.8289664169188,1.7103358308537802,0.0,1.0,100.0,45.0,10.0,0.43774952440329784,14.660132552777135,-1.0370899457402696,-1.0370899457402698,-0.5993404213369717,13.623042607036865
9.799999999999981,-80.5594953969407,1349.1046950092352,999.8272211762751,1.7277882372910636,0.0,1.0,100.0,45.0,10.0,0.44221500905865985,14.659998533317609,-1.0370899457402696,-1.0370899457402698,-0.5948749366816097,13.622908587577339
9.89999999999998,-81.14990488999669,1362.727468217164,999.8254759356314,1.745240643728347,0.0,1.0,100.0,45.0,10.0,0.4466804526842772,14.659863153668965,-1.0370899457402696,-1.0370899457402698,-0.5904094930559924,13.622773207928695
9.99999999999998,-81.73584898087113,1376.3501046852675,999.8237306949877,1.7626930501656304,0.0,1.0,100.0,45.0,10.0,0.4511458548658292,14.659726413843766,-1.0370899457402696,-1.0370899457402698,-0.5859440908744404,13.622636468103495
10.09999999999998,-82.31732771142238,1389.972603053382,999.821985454344,1.7801454566029138,0.0,1.0,100.0,45.0,10.0,0.4556112151890086,14.659588313854696,-1.0370899457402696,-1.0370899457402698,-0.581478730551261,13.622498368114426
10.19999999999998,-82.89434112392313,1403.5949619613564,999.8202402137003,1.7975978630401972,0.0,1.0,100.0,45.0,10.0,0.4600765332395086,14.659448853714574,-1.0370899457402696,-1.0370899457402698,-0.577013412500761,13.622358907974304
10.29999999999998,-83.46688926106036,1417.2171800490526,999.8184949730567,1.8150502694774806,0.0,1.0,100.0,45.0,10.0,0.46454180860302674,14.659308033436334,-1.0370899457402696,-1.0370899457402698,-0.5725481371372428,13.622218087696064
10.399999999999979,-84.03497216593536,1430.8392559563454,999.816749732413,1.832502675914764,0.0,1.0,100.0,45.0,10.0,0.4690070408652641,14.659165853033045,-1.0370899457402696,-1.0370899457402698,-0.5680829048750055,13.622075907292775
10.499999999999979,-84.59858988206369,1444.461188323123,999.8150044917693,1.8499550823520474,0.0,1.0,100.0,45.0,10.0,0.4734722296119292,14.659022312517894,-1.0370899457402696,-1.0370899457402698,-0.5636177161283404,13.621932366777624
10.599999999999978,-85.15774245337523,1458.082975789287,999.8132592511256,1.8674074887893308,0.0,1.0,100.0,45.0,10.0,0.47793737442872175,14.658877411904207,-1.0370899457402696,-1.0370899457402698,-0.5591525713115478,13.621787466163937
10.699999999999978,-85.71242992421413,1471.7046169947523,999.8115140104819,1.8848598952266142,0.0,1.0,100.0,45.0,10.0,0.48240247490136784,14.658731151205421,-1.0370899457402696,-1.0370899457402698,-0.5546874708389018,13.621641205465151
10.799999999999978,-86.26265233933883,1485.3261105794472,999.8097687698382,1.9023123016638976,0.0,1.0,100.0,45.0,10.0,0.4868675306155754,14.658583530435111,-1.0370899457402696,-1.0370899457402698,-0.5502224151246942,13.621493584694841
10.899999999999977,-86.80840974392203,1498.9474551833139,999.8080235291945,1.919764708101181,0.0,1.0,100.0,45.0,10.0,0.4913325411570694,14.658434549606971,-1.0370899457402696,-1.0370899457402698,-0.5457574045832001,13.621344603866701
10.999999999999977,-87.34970218355072,1512.5686494463084,999.8062782885509,1.9372171145384645,0.0,1.0,100.0,45.0,10.0,0.4957975061115787,14.658284208734825,-1.0370899457402696,-1.0370899457402698,-0.5412924396286909,13.621194262994555
11.099999999999977,-87.88652970422616,1526.1896920084007,999.8045330479072,1.9546695209757479,0.0,1.0,100.0,45.0,10.0,0.5002624250648238,14.658132507832622,-1.0370899457402696,-1.0370899457402698,-0.5368275206754458,13.621042562092352
11.199999999999976,-88.41889235236388,1539.8105815095748,999.8027878072635,1.9721219274130313,0.0,1.0,100.0,45.0,10.0,0.5047272976025485,14.657979446914435,-1.0370899457402696,-1.0370899457402698,-0.532362648137721,13.620889501174165
11.299999999999976,-88.94679017479366,1553.431316589829,999.8010425666198,1.9895743338503147,0.0,1.0,100.0,45.0,10.0,0.5091921233104885,14.657825025994468,-1.0370899457402696,-1.0370899457402698,-0.5278978224297811,13.620735080254198
11.399999999999975,-89.47022321875953,1567.0518958891757,999.7992973259761,2.007026740287598,0.0,1.0,100.0,45.0,10.0,0.5136569017743899,14.65766924508705,-1.0370899457402696,-1.0370899457402698,-0.5234330439658796,13.62057929934678
11.499999999999975,-89.9891915319198,1580.6723180476422,999.7975520853324,2.0244791467248815,0.0,1.0,100.0,45.0,10.0,0.5181216325799967,14.65751210420663,-1.0370899457402696,-1.0370899457402698,-0.5189683131602729,13.62042215846636
11.599999999999975,-90.50369516234701,1594.2925817052696,999.7958068446887,2.041931553162165,0.0,1.0,100.0,45.0,10.0,0.5225863153130543,14.65735360336779,-1.0370899457402696,-1.0370899457402698,-0.5145036304272153,13.62026365762752
11.699999999999974,-91.01373415852795,1607.9126855021145,999.794061604045,2.0593839595994483,0.0,1.0,100.0,45.0,10.0,0.5270509495593287,14.657193742585237,-1.0370899457402696,-1.0370899457402698,-0.5100389961809408,13.620103796844967
11.799999999999974,-91.51930856936364,1621.532628078248,999.7923163634014,2.0768363660367317,0.0,1.0,100.0,45.0,10.0,0.5315155349045776,14.657032521873802,-1.0370899457402696,-1.0370899457402698,-0.505574410835692,13.619942576133532
11.899999999999974,-92.02041844416934,1635.1524080737563,999.7905711227577,2.094288772474015,0.0,1.0,100.0,45.0,10.0,0.535980070934569,14.656869941248443,-1.0370899457402696,-1.0370899457402698,-0.5011098748057006,13.619779995508173
11.999999999999973,-92.51706383267452,1648.7720241287402,999.788825882114,2.1117411789112985,0.0,1.0,100.0,45.0,10.0,0.54044455723507,14.656706000724249,-1.0370899457402696,-1.0370899457402698,-0.49664538850519957,13.619616054983979
12.099999999999973,-93.00924478502293,1662.3914748833163,999.7870806414703,2.129193585348582,0.0,1.0,100.0,45.0,10.0,0.5449089933918516,14.656540700316425,-1.0370899457402696,-1.0370899457402698,-0.49218095234841797,13.619450754576155
12.199999999999973,-93.4969613517725,1676.0107589776164,999.7853354008266,2.1466459917858653,0.0,1.0,100.0,45.0,10.0,0.5493733789906928,14.656374040040312,-1.0370899457402696,-1.0370899457402698,-0.48771656674957675,13.619284094300042
12.299999999999972,-93.98021358389538,1689.6298750517876,999.7835901601829,2.1640983982231488,0.0,1.0,100.0,45.0,10.0,0.5538377136173842,14.65620601991137,-1.0370899457402696,-1.0370899457402698,-0.4832522321228854,13.6191160741711
12.399999999999972,-94.45900153277793,1703.2488217459925,999.7818449195393,2.181550804660432,0.0,1.0,100.0,45.0,10.0,0.5583019968577141,14.656036639945189,-1.0370899457402696,-1.0370899457402698,-0.4787879488825555,13.618946694204919
12.499999999999972,-94.93332525022073,1716.8675977004098,999.7800996788956,2.1990032110977156,0.0,1.0,100.0,45.0,10.0,0.5627662282974695,14.655865900157487,-1.0370899457402696,-1.0370899457402698,-0.4743237174428001,13.618775954417217
12.599999999999971,-95.40318478843854,1730.4862015552335,999.7783544382519,2.216455617534999,0.0,1.0,100.0,45.0,10.0,0.5672304075224549,14.655693800564103,-1.0370899457402696,-1.0370899457402698,-0.4698595382178147,13.618603854823833
12.69999999999997,-95.86858020006034,1744.1046319506743,999.7766091976082,2.2339080239722824,0.0,1.0,100.0,45.0,10.0,0.5716945341184604,14.655520341181006,-1.0370899457402696,-1.0370899457402698,-0.4653954116218092,13.618430395440736
12.79999999999997,-96.32951153812928,1757.7228875269584,999.7748639569645,2.251360430409566,0.0,1.0,100.0,45.0,10.0,0.576158607671313,14.655345522024291,-1.0370899457402696,-1.0370899457402698,-0.4609313380689566,13.618255576284021
12.89999999999997,-96.78597885610273,1771.3409669243283,999.7731187163208,2.268812836846849,0.0,1.0,100.0,45.0,10.0,0.580622627766813,14.655169343110177,-1.0370899457402696,-1.0370899457402698,-0.45646731797345663,13.618079397369907
12.99999999999997,-97.23798220785221,1784.958868783043,999.7713734756771,2.2862652432841326,0.0,1.0,100.0,45.0,10.0,0.5850865939907841,14.654991804455008,-1.0370899457402696,-1.0370899457402698,-0.45200335174948547,13.617901858714738
13.09999999999997,-97.68552164766344,1798.576591743378,999.7696282350335,2.303717649721416,0.0,1.0,100.0,45.0,10.0,0.5895505059290428,14.654812906075259,-1.0370899457402696,-1.0370899457402698,-0.4475394398112268,13.617722960334989
13.199999999999969,-98.12859723023628,1812.1941344456252,999.7678829943898,2.3211700561586994,0.0,1.0,100.0,45.0,10.0,0.59401436316742,14.65463264798753,-1.0370899457402696,-1.0370899457402698,-0.4430755825728496,13.61754270224726
13.299999999999969,-98.56720901068479,1825.8114955300935,999.7661377537461,2.338622462595983,0.0,1.0,100.0,45.0,10.0,0.5984781652917455,14.654451030208543,-1.0370899457402696,-1.0370899457402698,-0.4386117804485241,13.617361084468273
13.399999999999968,-99.00135704453719,1839.4286736371084,999.7643925131024,2.3560748690332662,0.0,1.0,100.0,45.0,10.0,0.6029419118878666,14.65426805275515,-1.0370899457402696,-1.0370899457402698,-0.43414803385240297,13.61717810701488
13.499999999999968,-99.43104138773583,1853.0456674070124,999.7626472724587,2.3735272754705496,0.0,1.0,100.0,45.0,10.0,0.6074056025416202,14.654083715644328,-1.0370899457402696,-1.0370899457402698,-0.42968434319864934,13.616993769904058
13.599999999999968,-99.85626209663724,1866.6624754801653,999.760902031815,2.390979681907833,0.0,1.0,100.0,45.0,10.0,0.6118692368388514,14.653898018893178,-1.0370899457402696,-1.0370899457402698,-0.42522070890141817,13.616808073152908
13.699999999999967,-100.27701922801208,1880.279096496944,999.7591567911713,2.4084320883451165,0.0,1.0,100.0,45.0,10.0,0.6163328143654168,14.653710962518934,-1.0370899457402696,-1.0370899457402698,-0.4207571313748528,13.616621016778664
13.799999999999967,-100.69331283904518,1893.8955290977426,999.7574115505276,2.4258844947824,0.0,1.0,100.0,45.0,10.0,0.620796334707172,14.65352254653895,-1.0370899457402696,-1.0370899457402698,-0.4162936110330976,13.61643260079868
13.899999999999967,-101.10514298733546,1907.5117719229731,999.755666309884,2.4433369012196833,0.0,1.0,100.0,45.0,10.0,0.6252597974499907,14.653332770970705,-1.0370899457402696,-1.0370899457402698,-0.41183014829027886,13.616242825230435
13.999999999999966,-101.51250973089599,1921.1278236130647,999.7539210692403,2.4607893076569667,0.0,1.0,100.0,45.0,10.0,0.6297232021797329,14.65314163583181,-1.0370899457402696,-1.0370899457402698,-0.4073667435605367,13.61605169009154
14.099999999999966,-101.91541312815397,1934.7436828084644,999.7521758285966,2.47824171409425,0.0,1.0,100.0,45.0,10.0,0.6341865484822796,14.652949141139995,-1.0370899457402696,-1.0370899457402698,-0.40290339725798996,13.615859195399725
14.199999999999966,-102.31385323795072,1948.3593481496373,999.7504305879529,2.4956941205315335,0.0,1.0,100.0,45.0,10.0,0.6386498359435048,14.652755286913125,-1.0370899457402696,-1.0370899457402698,-0.3984401097967648,13.615665341172855
14.299999999999965,-102.7078301195417,1961.974818277066,999.7486853473092,2.513146526968817,0.0,1.0,100.0,45.0,10.0,0.6431130641492939,14.652560073169182,-1.0370899457402696,-1.0370899457402698,-0.39397688159097566,13.615470127428912
14.399999999999965,-103.09734383259641,1975.590091831252,999.7469401066655,2.5305989334061003,0.0,1.0,100.0,45.0,10.0,0.6475762326855481,14.652363499926283,-1.0370899457402696,-1.0370899457402698,-0.3895137130547215,13.615273554186013
14.499999999999964,-103.48239443719852,1989.2051674527145,999.7451948660218,2.5480513398433837,0.0,1.0,100.0,45.0,10.0,0.6520393411381544,14.652165567202662,-1.0370899457402696,-1.0370899457402698,-0.38505060460211515,13.615075621462392
14.599999999999964,-103.86298199384576,2002.820043781991,999.7434496253782,2.565503746280667,0.0,1.0,100.0,45.0,10.0,0.6565023890930183,14.651966275016687,-1.0370899457402696,-1.0370899457402698,-0.3805875566472513,13.614876329276417
14.699999999999964,-104.23910656344998,2016.4347194596376,999.7417043847345,2.5829561527179505,0.0,1.0,100.0,45.0,10.0,0.6609653761360474,14.651765623386845,-1.0370899457402696,-1.0370899457402698,-0.37612456960422214,13.614675677646575
14.799999999999963,-104.61076820733709,2030.049193126229,999.7399591440908,2.600408559155234,0.0,1.0,100.0,45.0,10.0,0.6654283018531558,14.651563612331758,-1.0370899457402696,-1.0370899457402698,-0.37166164388711376,13.614473666591488
14.899999999999963,-104.97796698724709,2043.663463422359,999.7382139034471,2.6178609655925174,0.0,1.0,100.0,45.0,10.0,0.6698911658302658,14.651360241870163,-1.0370899457402696,-1.0370899457402698,-0.3671987799100038,13.614270296129893
14.999999999999963,-105.34070296533406,2057.2775289886395,999.7364686628034,2.6353133720298008,0.0,1.0,100.0,45.0,10.0,0.6743539676532958,14.651155512020937,-1.0370899457402696,-1.0370899457402698,-0.3627359780869738,13.614065566280667
15.099999999999962,-105.69897620416614,2070.891388465702,999.7347234221597,2.652765778467084,0.0,1.0,100.0,45.0,10.0,0.6788167069081799,14.650949422803068,-1.0370899457402696,-1.0370899457402698,-0.3582732388320897,13.613859477062798
15.199999999999962,-106.05278676672555,2084.5050404941976,999.732978181516,2.6702181849043676,0.0,1.0,100.0,45.0,10.0,0.6832793831808547,14.65074197423568,-1.0370899457402696,-1.0370899457402698,-0.3538105625594149,13.61365202849541
15.299999999999962,-106.40213471640854,2098.1184837147953,999.7312329408724,2.687670591341651,0.0,1.0,100.0,45.0,10.0,0.6877419960572624,14.650533166338022,-1.0370899457402696,-1.0370899457402698,-0.3493479496830072,13.613443220597752
15.399999999999961,-106.74702011702546,2111.7317167681845,999.7294877002287,2.7051229977789344,0.0,1.0,100.0,45.0,10.0,0.6922045451233515,14.650322999129465,-1.0370899457402696,-1.0370899457402698,-0.3448854006169181,13.613233053389195
15.499999999999961,-107.08744303280065,2125.3447382950735,999.727742459585,2.722575404216218,0.0,1.0,100.0,45.0,10.0,0.6966670299650761,14.650111472629511,-1.0370899457402696,-1.0370899457402698,-0.34042291577519346,13.613021526889241
15.59999999999996,-107.42340352837252,2138.957546936191,999.7259972189413,2.740027810653501,0.0,1.0,100.0,45.0,10.0,0.7011294501683998,14.649898586857786,-1.0370899457402696,-1.0370899457402698,-0.3359604955718698,13.612808641117516
15.69999999999996,-107.7549016687935,2152.570141332285,999.7242519782976,2.7574802170907846,0.0,1.0,100.0,45.0,10.0,0.705591805319282,14.64968434183404,-1.0370899457402696,-1.0370899457402698,-0.3314981404209876,13.61259439609377
15.79999999999996,-108.08193751953006,2166.1825201241227,999.7225067376539,2.774932623528068,0.0,1.0,100.0,45.0,10.0,0.7100540950036983,14.649468737578154,-1.0370899457402696,-1.0370899457402698,-0.32703585073657127,13.612378791837884
15.89999999999996,-108.4045111464627,2179.7946819524927,999.7207614970102,2.7923850299653514,0.0,1.0,100.0,45.0,10.0,0.7145163188076271,14.64925177411013,-1.0370899457402696,-1.0370899457402698,-0.32257362693264247,13.61216182836986
15.99999999999996,-108.72262261588591,2193.4066254582026,999.7190162563666,2.809837436402635,0.0,1.0,100.0,45.0,10.0,0.7189784763170526,14.6490334514501,-1.0370899457402696,-1.0370899457402698,-0.318111469423217,13.61194350570983
16.09999999999996,-109.03627199450821,2207.0183492820806,999.7172710157229,2.8272898428399182,0.0,1.0,100.0,45.0,10.0,0.7234405671179653,14.648813769618318,-1.0370899457402696,-1.0370899457402698,-0.31364937862230424,13.611723823878048
16.19999999999996,-109.34545934945211,2220.6298520649757,999.7155257750792,2.8447422492772017,0.0,1.0,100.0,45.0,10.0,0.7279025907963653,14.648592728635169,-1.0370899457402696,-1.0370899457402698,-0.30918735494390426,13.611502782894899
16.29999999999996,-109.65018474825413,2234.2411324477566,999.7137805344355,2.862194655714485,0.0,1.0,100.0,45.0,10.0,0.732364546938249,14.64837032852116,-1.0370899457402696,-1.0370899457402698,-0.30472539880202054,13.61128038278089
16.399999999999963,-109.95044825886477,2247.852189071313,999.7120352937918,2.8796470621517685,0.0,1.0,100.0,45.0,10.0,0.7368264351296323,14.648146569296928,-1.0370899457402696,-1.0370899457402698,-0.3002635106106373,13.611056623556658
16.499999999999964,-110.24624994964852,2261.463020576556,999.7102900531481,2.897099468589052,0.0,1.0,100.0,45.0,10.0,0.7412882549565207,14.647921450983233,-1.0370899457402696,-1.0370899457402698,-0.29580169078374885,13.610831505242963
16.599999999999966,-110.53758988938384,2275.073625604417,999.7085448125044,2.9145518750263353,0.0,1.0,100.0,45.0,10.0,0.745750006004946,14.64769497360096,-1.0370899457402696,-1.0370899457402698,-0.29133993973532357,13.61060502786069
16.699999999999967,-110.82446814726316,2288.684002795848,999.7067995718608,2.9320042814636187,0.0,1.0,100.0,45.0,10.0,0.7502116878609332,14.647467137171125,-1.0370899457402696,-1.0370899457402698,-0.2868782578793364,13.610377191430855
16.79999999999997,-111.1068847928929,2302.2941507918226,999.7050543312171,2.949456687900902,0.0,1.0,100.0,45.0,10.0,0.75467330011052,14.647237941714865,-1.0370899457402696,-1.0370899457402698,-0.28241664562974955,13.610147995974595
16.89999999999997,-111.38483989629341,2315.9040682333357,999.7033090905734,2.9669090943381855,0.0,1.0,100.0,45.0,10.0,0.7591348423397446,14.647007387253446,-1.0370899457402696,-1.0370899457402698,-0.277955103400525,13.609917441513176
16.99999999999997,-111.65833352789903,2329.5137537614037,999.7015638499297,2.984361500775469,0.0,1.0,100.0,45.0,10.0,0.7635963141346447,14.64677547380826,-1.0370899457402696,-1.0370899457402698,-0.2734936316056249,13.60968552806799
17.099999999999973,-111.927365758558,2343.123206017064,999.699818609286,3.0018139072127523,0.0,1.0,100.0,45.0,10.0,0.7680577150812941,14.646542201400823,-1.0370899457402696,-1.0370899457402698,-0.2690322306589755,13.609452255660553
17.199999999999974,-112.19193665953252,2356.7324236413765,999.6980733686423,3.0192663136500357,0.0,1.0,100.0,45.0,10.0,0.7725190447657402,14.646307570052782,-1.0370899457402696,-1.0370899457402698,-0.2645709009745294,13.609217624312512
17.299999999999976,-112.45204630249872,2370.341405275422,999.6963281279986,3.036718720087319,0.0,1.0,100.0,45.0,10.0,0.7769803027740572,14.646071579785902,-1.0370899457402696,-1.0370899457402698,-0.2601096429662124,13.608981634045632
17.399999999999977,-112.70769475954667,2383.9501495603035,999.694582887355,3.0541711265246025,0.0,1.0,100.0,45.0,10.0,0.7814414886923126,14.645834230622084,-1.0370899457402696,-1.0370899457402698,-0.255648457047957,13.608744284881814
17.49999999999998,-112.95888210318034,2397.5586551371466,999.6928376467113,3.071623532961886,0.0,1.0,100.0,45.0,10.0,0.7859026021065867,14.645595522583344,-1.0370899457402696,-1.0370899457402698,-0.2511873436336829,13.608505576843074
17.59999999999998,-113.20560840631764,2411.1669206470983,999.6910924060676,3.0890759393991694,0.0,1.0,100.0,45.0,10.0,0.7903636426029738,14.645355455691833,-1.0370899457402696,-1.0370899457402698,-0.24672630313729582,13.608265509951563
17.69999999999998,-113.44787374229033,2424.774944731328,999.6893471654239,3.1065283458364528,0.0,1.0,100.0,45.0,10.0,0.794824609767568,14.645114029969825,-1.0370899457402696,-1.0370899457402698,-0.2422653359727016,13.608024084229555
17.799999999999983,-113.68567818484412,2438.3827260310277,999.6876019247802,3.123980752273736,0.0,1.0,100.0,45.0,10.0,0.7992855031864636,14.64487124543972,-1.0370899457402696,-1.0370899457402698,-0.23780444255380595,13.60778129969945
17.899999999999984,-113.91902180813861,2451.9902631874115,999.6858566841365,3.1414331587110196,0.0,1.0,100.0,45.0,10.0,0.803746322445775,14.644627102124044,-1.0370899457402696,-1.0370899457402698,-0.23334362329449454,13.607537156383774
17.999999999999986,-114.14790468674727,2465.597554841717,999.6841114434928,3.158885565148303,0.0,1.0,100.0,45.0,10.0,0.8082070671316074,14.644381600045449,-1.0370899457402696,-1.0370899457402698,-0.2288828786086622,13.607291654305179
18.099999999999987,-114.37232689565744,2479.204599635203,999.6823662028492,3.1763379715855864,0.0,1.0,100.0,45.0,10.0,0.812667736830092,14.644134739226715,-1.0370899457402696,-1.0370899457402698,-0.2244222089101776,13.607044793486445
18.19999999999999,-114.59228851027035,2492.8113962091534,999.6806209622055,3.19379037802287,0.0,1.0,100.0,45.0,10.0,0.8171283311273541,14.643886519690742,-1.0370899457402696,-1.0370899457402698,-0.21996161461291552,13.606796573950472
18.29999999999999,-114.80778960640109,2506.4179432048736,999.6788757215618,3.211242784460153,0.0,1.0,100.0,45.0,10.0,0.8215888496095325,14.643636941460562,-1.0370899457402696,-1.0370899457402698,-0.2155010961307371,13.606546995720292
18.39999999999999,-115.01883026027858,2520.024239263693,999.6771304809181,3.2286951908974366,0.0,1.0,100.0,45.0,10.0,0.8260492918627667,14.643386004559336,-1.0370899457402696,-1.0370899457402698,-0.21104065387750293,13.606296058819066
18.499999999999993,-115.22541054854564,2533.630283026963,999.6753852402744,3.24614759733472,0.0,1.0,100.0,45.0,10.0,0.8305096574732029,14.64313370901034,-1.0370899457402696,-1.0370899457402698,-0.20658028826706665,13.60604376327007
18.599999999999994,-115.4275305482589,2547.2360731360595,999.6736399996307,3.2636000037720034,0.0,1.0,100.0,45.0,10.0,0.834969946026998,14.642880054836988,-1.0370899457402696,-1.0370899457402698,-0.20211999971327155,13.605790109096718
18.699999999999996,-115.62519033688883,2560.841608232382,999.671894758987,3.281052410209287,0.0,1.0,100.0,45.0,10.0,0.8394301571103227,14.64262504206281,-1.0370899457402696,-1.0370899457402698,-0.19765978862994693,13.60553509632254
18.799999999999997,-115.81838999231975,2574.4468869573534,999.6701495183434,3.2985048166465702,0.0,1.0,100.0,45.0,10.0,0.8438902903093478,14.64236867071147,-1.0370899457402696,-1.0370899457402698,-0.19319965543092177,13.6052787249712
18.9,-116.00712959284976,2588.0519079524197,999.6684042776997,3.3159572230838537,0.0,1.0,100.0,45.0,10.0,0.8483503452102453,14.642110940806756,-1.0370899457402696,-1.0370899457402698,-0.18873960053002425,13.605020995066486
19.0,-116.19140921719082,2601.656669859052,999.666659037056,3.333409629521137,0.0,1.0,100.0,45.0,10.0,0.8528103213992073,14.641851852372573,-1.0370899457402696,-1.0370899457402698,-0.18427962434106226,13.604761906632303
19.1,-116.37122894446867,2615.2611713187443,999.6649137964123,3.3508620359584205,0.0,1.0,100.0,45.0,10.0,0.8572702184624138,14.641591405432969,-1.0370899457402696,-1.0370899457402698,-0.17981972727785578,13.604501459692699
19.200000000000003,-116.54658885422285,2628.865410973016,999.6631685557686,3.368314442395704,0.0,1.0,100.0,45.0,10.0,0.8617300359860844,14.641329600012105,-1.0370899457402696,-1.0370899457402698,-0.17535990975418514,13.604239654271835
19.300000000000004,-116.7174890264067,2642.46938746341,999.6614233151249,3.3857668488329873,0.0,1.0,100.0,45.0,10.0,0.8661897735564171,14.64106643613427,-1.0370899457402696,-1.0370899457402698,-0.17090017218385245,13.603976490394
19.400000000000006,-116.88392954138733,2656.0730994314936,999.6596780744812,3.4032192552702707,0.0,1.0,100.0,45.0,10.0,0.8706494307596239,14.640801913823884,-1.0370899457402696,-1.0370899457402698,-0.16644051498064572,13.603711968083614
19.500000000000007,-117.04591047994566,2669.676545518859,999.6579328338375,3.420671661707554,0.0,1.0,100.0,45.0,10.0,0.8751090071819302,14.64053603310549,-1.0370899457402696,-1.0370899457402698,-0.1619809385583394,13.60344608736522
19.60000000000001,-117.20343192327636,2683.279724367122,999.6561875931939,3.4381240681448375,0.0,1.0,100.0,45.0,10.0,0.8795685024095696,14.640268794003756,-1.0370899457402696,-1.0370899457402698,-0.15752144333069995,13.603178848263486
19.70000000000001,-117.35649395298785,2696.8826346179253,999.6544423525502,3.455576474582121,0.0,1.0,100.0,45.0,10.0,0.8840279160287697,14.640000196543475,-1.0370899457402696,-1.0370899457402698,-0.15306202971149985,13.602910250803205
19.80000000000001,-117.50509665110232,2710.4852749129345,999.6526971119065,3.4730288810194043,0.0,1.0,100.0,45.0,10.0,0.8884872476257887,14.639730240749573,-1.0370899457402696,-1.0370899457402698,-0.1486026981144809,13.602640295009303
19.900000000000013,-117.64924010005572,2724.0876438938412,999.6509518712628,3.4904812874566877,0.0,1.0,100.0,45.0,10.0,0.8929464967868697,14.639458926647093,-1.0370899457402696,-1.0370899457402698,-0.14414344895339992,13.602368980906823
20.000000000000014,-117.7889243826977,2737.6897402023624,999.6492066306191,3.507933693893971,0.0,1.0,100.0,45.0,10.0,0.897405663098276,14.639186254261208,-1.0370899457402696,-1.0370899457402698,-0.13968428264199362,13.602096308520938
20.100000000000016,-117.92414958229169,2751.2915624802395,999.6474613899754,3.5253861003312545,0.0,1.0,100.0,45.0,10.0,0.901864746146276,14.638912223617222,-1.0370899457402696,-1.0370899457402698,-0.1352251995939936,13.601822277876952
20.200000000000017,-118.05491578251481,2764.89310936924,999.6457161493317,3.542838506768538,0.0,1.0,100.0,45.0,10.0,0.9063237455171452,14.638636834740554,-1.0370899457402696,-1.0370899457402698,-0.13076620022312435,13.601546889000284
20.30000000000002,-118.1812230674579,2778.4943795111562,999.6439709086881,3.5602909132058214,0.0,1.0,100.0,45.0,10.0,0.9107826607971676,14.63836008765676,-1.0370899457402696,-1.0370899457402698,-0.12630728494310195,13.60127014191649
20.40000000000002,-118.30307152162553,2792.0953715478076,999.6422256680444,3.5777433196431048,0.0,1.0,100.0,45.0,10.0,0.9152414915726373,14.638081982391515,-1.0370899457402696,-1.0370899457402698,-0.12184845416763224,13.600992036651245
20.50000000000002,-118.42046122993594,2805.696084121038,999.6404804274007,3.595195726080388,0.0,1.0,100.0,45.0,10.0,0.9197002374298475,14.637802518970622,-1.0370899457402696,-1.0370899457402698,-0.11738970831042206,13.600712573230352
20.600000000000023,-118.53339227772109,2819.296515872718,999.638735186757,3.6126481325176716,0.0,1.0,100.0,45.0,10.0,0.9241588979551081,14.637521697420011,-1.0370899457402696,-1.0370899457402698,-0.1129310477851615,13.600431751679741
20.700000000000024,-118.64186475072663,2832.8966654447436,999.6369899461133,3.630100538954955,0.0,1.0,100.0,45.0,10.0,0.9286174727347343,14.637239517765737,-1.0370899457402696,-1.0370899457402698,-0.10847247300553531,13.600149572025467
20.800000000000026,-118.74587873511184,2846.4965314790375,999.6352447054696,3.6475529453922384,0.0,1.0,100.0,45.0,10.0,0.9330759613550492,14.636955980033981,-1.0370899457402696,-1.0370899457402698,-0.10401398438522036,13.599866034293711
20.900000000000027,-118.84543431744973,2860.0961126175484,999.633499464826,3.665005351829522,0.0,1.0,100.0,45.0,10.0,0.9375343634023834,14.636671084251052,-1.0370899457402696,-1.0370899457402698,-0.0995555823378862,13.599581138510782
21.00000000000003,-118.94053158472691,2873.695407502252,999.6317542241823,3.682457758266805,0.0,1.0,100.0,45.0,10.0,0.9419926784630761,14.636384830443383,-1.0370899457402696,-1.0370899457402698,-0.09509726727719348,13.599294884703113
21.10000000000003,-119.0311706243437,2887.294414775149,999.6300089835386,3.6999101647040886,0.0,1.0,100.0,45.0,10.0,0.9464509061234774,14.636097218637529,-1.0370899457402696,-1.0370899457402698,-0.0906390396167922,13.599007272897259
21.20000000000003,-119.11735152411403,2900.893133078269,999.6282637428949,3.717362571141372,0.0,1.0,100.0,45.0,10.0,0.9509090459699331,14.635808248860181,-1.0370899457402696,-1.0370899457402698,-0.0861808997703365,13.598718303119911
21.300000000000033,-119.19907437226547,2914.491561053667,999.6265185022512,3.7348149775786554,0.0,1.0,100.0,45.0,10.0,0.9553670975888192,14.635517921138147,-1.0370899457402696,-1.0370899457402698,-0.08172284815145037,13.598427975397877
21.400000000000034,-119.27633925743923,2928.089697343425,999.6247732616075,3.752267384015939,0.0,1.0,100.0,45.0,10.0,0.9598250605664975,14.635226235498367,-1.0370899457402696,-1.0370899457402698,-0.07726488517377206,13.598136289758097
21.500000000000036,-119.34914626869015,2941.6875405896526,999.6230280209638,3.7697197904532223,0.0,1.0,100.0,45.0,10.0,0.9642829344893511,14.634933191967903,-1.0370899457402696,-1.0370899457402698,-0.07280701125091849,13.597843246227633
21.600000000000037,-119.41749549548665,2955.285089434486,999.6212827803201,3.7871721968905057,0.0,1.0,100.0,45.0,10.0,0.9687407189437678,14.634638790573941,-1.0370899457402696,-1.0370899457402698,-0.0683492267965018,13.597548844833671
21.70000000000004,-119.48138702771077,2968.8823425200894,999.6195375396765,3.804624603327789,0.0,1.0,100.0,45.0,10.0,0.973198413516147,14.6343430313438,-1.0370899457402696,-1.0370899457402698,-0.06389153222412258,13.59725308560353
21.80000000000004,-119.54082095565815,2982.479298488654,999.6177922990328,3.8220770097650725,0.0,1.0,100.0,45.0,10.0,0.977656017792884,14.634045914304922,-1.0370899457402696,-1.0370899457402698,-0.059433927947385556,13.596955968564652
21.90000000000004,-119.59579737003801,2996.0759559823987,999.6160470583891,3.839529416202356,0.0,1.0,100.0,45.0,10.0,0.9821135313604046,14.63374743948487,-1.0370899457402696,-1.0370899457402698,-0.054976414379865,13.5966574937446
22.000000000000043,-119.64631636197316,3009.67231364357,999.6143018177454,3.8569818226396393,0.0,1.0,100.0,45.0,10.0,0.9865709538051204,14.633447606911341,-1.0370899457402696,-1.0370899457402698,-0.05051899193514919,13.596357661171071
22.100000000000044,-119.69237802299996,3023.268370114442,999.6125565771017,3.8744342290769227,0.0,1.0,100.0,45.0,10.0,0.9910282847134646,14.633146416612153,-1.0370899457402696,-1.0370899457402698,-0.04606166102680498,13.596056470871883
22.200000000000045,-119.73398244506835,3036.8641240373167,999.610811336458,3.891886635514206,0.0,1.0,100.0,45.0,10.0,0.9954855236718786,14.63284386861525,-1.0370899457402696,-1.0370899457402698,-0.04160442206839099,13.59575392287498
22.300000000000047,-119.77112972054181,3050.459574054525,999.6090660958143,3.9093390419514895,0.0,1.0,100.0,45.0,10.0,0.9999426702667998,14.632539962948705,-1.0370899457402696,-1.0370899457402698,-0.03714727547346974,13.595450017208435
22.40000000000005,-119.80381994219738,3064.0547188084256,999.6073208551707,3.926791448388773,0.0,1.0,100.0,45.0,10.0,1.0043997240846934,14.632234699640714,-1.0370899457402696,-1.0370899457402698,-0.032690221655576224,13.595144753900444
22.50000000000005,-119.83205320322563,3077.649556941405,999.605575614527,3.9442438548260563,0.0,1.0,100.0,45.0,10.0,1.00885668471202,14.6319280787196,-1.0370899457402696,-1.0370899457402698,-0.028233261028249634,13.59483813297933
22.60000000000005,-119.85582959723064,3091.2440870958785,999.6038303738833,3.9616962612633397,0.0,1.0,100.0,45.0,10.0,1.0133135517352558,14.631620100213812,-1.0370899457402696,-1.0370899457402698,-0.023776394005013746,13.594530154473542
22.700000000000053,-119.87514921823002,3104.83830791429,999.6020851332396,3.979148667700623,0.0,1.0,100.0,45.0,10.0,1.0177703247408758,14.631310764151927,-1.0370899457402696,-1.0370899457402698,-0.019319620999393772,13.594220818411657
22.800000000000054,-119.8900121606549,3118.4322180391123,999.6003398925959,3.9966010741379066,0.0,1.0,100.0,45.0,10.0,1.0222270033153762,14.631000070562644,-1.0370899457402696,-1.0370899457402698,-0.014862942424893388,13.593910124822374
22.900000000000055,-119.90041851934993,3132.0258161128468,999.5985946519522,4.01405348057519,0.0,1.0,100.0,45.0,10.0,1.0266835870452464,14.630688019474787,-1.0370899457402696,-1.0370899457402698,-0.010406358695023155,13.593598073734517
23.000000000000057,-119.90636838957319,3145.619100778024,999.5968494113085,4.031505887012473,0.0,1.0,100.0,45.0,10.0,1.0311400755170042,14.630374610917315,-1.0370899457402696,-1.0370899457402698,-0.00594987022326543,13.593284665177045
23.10000000000006,-119.90786186699629,3159.212070677203,999.5951041706649,4.048958293449757,0.0,1.0,100.0,45.0,10.0,1.0355964683171621,14.630059844919304,-1.0370899457402696,-1.0370899457402698,-0.0014934774231074588,13.592969899179034
23.20000000000006,-119.9048990477043,3172.8047244529726,999.5933589300212,4.06641069988704,0.0,1.0,100.0,45.0,10.0,1.0400527650322493,14.629743721509955,-1.0370899457402696,-1.0370899457402698,0.0029628192919797236,13.592653775769685
23.30000000000006,-119.89748002819577,3186.397060747951,999.5916136893775,4.083863106324324,0.0,1.0,100.0,45.0,10.0,1.0445089652487967,14.629426240718605,-1.0370899457402696,-1.0370899457402698,0.0074190195085270805,13.592336294978335
23.400000000000063,-119.88560490538269,3199.9890782047855,999.5898684487338,4.101315512761607,0.0,1.0,100.0,45.0,10.0,1.0489650685533412,14.629107402574707,-1.0370899457402696,-1.0370899457402698,0.01187512281307157,13.592017456834437
23.500000000000064,-119.86927377659052,3213.580775466153,999.5881232080901,4.11876791919889,0.0,1.0,100.0,45.0,10.0,1.0534210745324444,14.628787207107845,-1.0370899457402696,-1.0370899457402698,0.0163311287921748,13.591697261367575
23.600000000000065,-119.84848673955811,3227.1721511747605,999.5863779674464,4.136220325636174,0.0,1.0,100.0,45.0,10.0,1.0578769827726648,14.628465654347725,-1.0370899457402696,-1.0370899457402698,0.02078703703239526,13.591375708607455
23.700000000000067,-119.8232438924378,3240.7632039733444,999.5846327268027,4.153672732073457,0.0,1.0,100.0,45.0,10.0,1.0623327928605761,14.628142744324183,-1.0370899457402696,-1.0370899457402698,0.025242847120306555,13.591052798583913
23.800000000000068,-119.79354533379531,3254.3539325046713,999.582887486159,4.171125138510741,0.0,1.0,100.0,45.0,10.0,1.0667885043827543,14.62781847706718,-1.0370899457402696,-1.0370899457402698,0.029698558642484718,13.59072853132691
23.90000000000007,-119.75939116260979,3267.944335411538,999.5811422455154,4.188577544948024,0.0,1.0,100.0,45.0,10.0,1.0712441169257778,14.627492852606803,-1.0370899457402696,-1.0370899457402698,0.03415417118550823,13.590402906866533
24.00000000000007,-119.72078147827379,3281.534411336771,999.5793970048717,4.206029951385307,0.0,1.0,100.0,45.0,10.0,1.0756996300762647,14.627165870973263,-1.0370899457402696,-1.0370899457402698,0.0386096843359951,13.590075925232993
24.100000000000072,-119.67771638059325,3295.1241589232277,999.577651764228,4.223482357822591,0.0,1.0,100.0,45.0,10.0,1.0801550434208087,14.626837532196896,-1.0370899457402696,-1.0370899457402698,0.04306509768053912,13.589747586456626
24.200000000000074,-119.63019596978748,3308.7135768137955,999.5759065235843,4.240934764259874,0.0,1.0,100.0,45.0,10.0,1.0846103565460323,14.62650783630817,-1.0370899457402696,-1.0370899457402698,0.04752041080576275,13.5894178905679
24.300000000000075,-119.57822034648919,3322.302663651393,999.5741612829406,4.258387170697158,0.0,1.0,100.0,45.0,10.0,1.089065569038555,14.626176783337671,-1.0370899457402696,-1.0370899457402698,0.05197562329828531,13.589086837597401
24.400000000000077,-119.52178961174444,3335.891418078969,999.5724160422969,4.275839577134441,0.0,1.0,100.0,45.0,10.0,1.0935206804850115,14.62584437331612,-1.0370899457402696,-1.0370899457402698,0.05643073474474192,13.58875442757585
24.500000000000078,-119.46090386701265,3349.479838739503,999.5706708016533,4.2932919835717245,0.0,1.0,100.0,45.0,10.0,1.0979756904720526,14.625510606274354,-1.0370899457402696,-1.0370899457402698,0.06088574473178299,13.588420660534084
24.60000000000008,-119.39556321416657,3363.067924276006,999.5689255610096,4.310744390009008,0.0,1.0,100.0,45.0,10.0,1.102430598586332,14.625175482243343,-1.0370899457402696,-1.0370899457402698,0.0653406528460625,13.588085536503073
24.70000000000008,-119.32576775549232,3376.65567333152,999.5671803203659,4.328196796446291,0.0,1.0,100.0,45.0,10.0,1.1068854044145098,14.624839001254179,-1.0370899457402696,-1.0370899457402698,0.0697954586742402,13.587749055513909
24.800000000000082,-119.25151759368933,3390.243084549118,999.5654350797222,4.345649202883575,0.0,1.0,100.0,45.0,10.0,1.111340107543255,14.624501163338083,-1.0370899457402696,-1.0370899457402698,0.07425016180298538,13.587411217597813
24.900000000000084,-119.17281283187033,3403.8301565719044,999.5636898390785,4.363101609320858,0.0,1.0,100.0,45.0,10.0,1.1157947075592534,14.6241619685264,-1.0370899457402696,-1.0370899457402698,0.07870476181898378,13.58707202278613
25.000000000000085,-119.0896535735614,3417.4168880430148,999.5619445984348,4.3805540157581415,0.0,1.0,100.0,45.0,10.0,1.1202492040491934,14.623821416850602,-1.0370899457402696,-1.0370899457402698,0.08315925830892379,13.586731471110332
25.100000000000087,-119.00203992270188,3431.003277605617,999.5601993577911,4.398006422195425,0.0,1.0,100.0,45.0,10.0,1.1247035965997858,14.623479508342283,-1.0370899457402696,-1.0370899457402698,0.08761365085951622,13.586389562602013
25.200000000000088,-118.90997198364441,3444.5893239029097,999.5584541171474,4.415458828632708,0.0,1.0,100.0,45.0,10.0,1.1291578847977322,14.623136243033173,-1.0370899457402696,-1.0370899457402698,0.09206793905746258,13.586046297292903
25.30000000000009,-118.81344986115491,3458.1750255781244,999.5567088765038,4.432911235069992,0.0,1.0,100.0,45.0,10.0,1.1336120682297597,14.622791620955113,-1.0370899457402696,-1.0370899457402698,0.0965221224894901,13.585701675214843
25.40000000000009,-118.71247366041258,3471.760381274524,999.5549636358601,4.450363641507275,0.0,1.0,100.0,45.0,10.0,1.138066146482592,14.622445642140082,-1.0370899457402696,-1.0370899457402698,0.1009762007423225,13.585355696399812
25.500000000000092,-118.60704348700988,3485.345389635404,999.5532183952164,4.4678160479445586,0.0,1.0,100.0,45.0,10.0,1.1425201191429697,14.62209830662018,-1.0370899457402696,-1.0370899457402698,0.10543017340270011,13.58500836087991
