time,x,y,altitude,yaw,pitch,roll,speed,wind_dir,wind_spd,dx,dy,wind_dx,wind_dy,vmg_dx,vmg_dy
0.0,-0.9091007584307857,13.629018259200912,999.9960758501115,0.49999999999999994,0.6,30.0,100.0,45.0,10.0,0.12798918730948383,14.666108204941182,-1.0370899457402696,-1.0370899457402698,-0.9091007584307857,13.629018259200912
0.1,-1.690222076424229,27.256361175754385,999.9921517002231,0.9999999999999999,0.6,30.0,100.0,45.0,10.0,0.25596862774682616,14.664432862293742,-1.0370899457402696,-1.0370899457402698,-0.7811213179934434,13.627342916553472
0.2,-2.3433834469823562,40.88091199632229,999.9882275503346,1.4999999999999998,0.6,30.0,100.0,45.0,10.0,0.3839285751821427,14.661640766308176,-1.0370899457402696,-1.0370899457402698,-0.653161370558127,13.624550820567906
0.30000000000000004,-2.86861410775261,54.50155418019543,999.9843034004462,1.9999999999999998,0.6,30.0,100.0,45.0,10.0,0.511859284970016,14.657732129613407,-1.0370899457402696,-1.0370899457402698,-0.5252306607702536,13.620642183873137
0.4,-3.2659530388012845,68.11717148432241,999.9803792505577,2.4999999999999996,0.6,30.0,100.0,45.0,10.0,0.6397510146915949,14.65270724986725,-1.0370899457402696,-1.0370899457402698,-0.3973389310486747,13.61561730412698
0.5,-3.5354489596450427,81.7266480483159,999.9764551006692,2.9999999999999996,0.6,30.0,100.0,45.0,10.0,0.7675940248965116,14.646566509733752,-1.0370899457402696,-1.0370899457402698,-0.26949592084375795,13.609476563993482
0.6,-3.677160325540744,95.32886847942969,999.9725309507808,3.4999999999999996,0.6,30.0,100.0,45.0,10.0,0.8953785798445681,14.63931037685405,-1.0370899457402696,-1.0370899457402698,-0.14171136589570144,13.60222043111378
0.7,-3.691155323033843,108.92271793750018,999.9686068008923,3.9999999999999996,0.6,30.0,100.0,45.0,10.0,1.0230949482471703,14.630939403810757,-1.0370899457402696,-1.0370899457402698,-0.013994997493099293,13.593849458070487
0.7999999999999999,-3.577511864765719,122.5070822198458,999.9646826510038,4.499999999999999,0.6,30.0,100.0,45.0,10.0,1.1507334040083936,14.621454228085879,-1.0370899457402696,-1.0370899457402698,0.11364345826812405,13.584364282345609
0.8999999999999999,-3.3363175835403323,136.08084784611782,999.9607585011154,4.999999999999999,0.6,30.0,100.0,45.0,10.0,1.2782842269656562,14.610855572012271,-1.0370899457402696,-1.0370899457402698,0.24119428122538666,13.573765626272001
0.9999999999999999,-2.967669825650648,149.6429021430962,999.9568343512269,5.499999999999999,0.6,30.0,100.0,45.0,10.0,1.4057377036299534,14.599144242718626,-1.0370899457402696,-1.0370899457402698,0.36864775788968385,13.562054296978356
1.0999999999999999,-2.4716756434653337,163.19213332942394,999.9529102013385,5.999999999999999,0.6,30.0,100.0,45.0,10.0,1.5330841279255842,14.586321132068012,-1.0370899457402696,-1.0370899457402698,0.49599418218531466,13.549231186327741
1.2,-1.8484517872763029,176.72743060027364,999.94898605145,6.499999999999999,0.6,30.0,100.0,45.0,10.0,1.6603138019293004,14.572387216589952,-1.0370899457402696,-1.0370899457402698,0.6232238561890309,13.535297270849682
1.3,-1.0981246964077422,190.24768421193943,999.9450619015615,6.999999999999999,0.6,30.0,100.0,45.0,10.0,1.7874170366088302,14.557343557406059,-1.0370899457402696,-1.0370899457402698,0.7503270908685606,13.520253611665789
1.4000000000000001,-0.22083048958725304,203.7517855663484,999.9411377516731,7.499999999999999,0.6,30.0,100.0,45.0,10.0,1.9143841525607588,14.541191300149222,-1.0370899457402696,-1.0370899457402698,0.8772942068204892,13.504101354408952
1.5000000000000002,0.7832850454201046,217.2386272954845,999.9372136017846,7.999999999999999,0.6,30.0,100.0,45.0,10.0,2.041205480747627,14.523931674876367,-1.0370899457402696,-1.0370899457402698,1.0041155350073576,13.486841729136097
1.6000000000000003,1.914066462914127,230.70710334571902,999.9332894518961,8.499999999999998,0.6,30.0,100.0,45.0,10.0,2.167871363234292,14.505565995974782,-1.0370899457402696,-1.0370899457402698,1.1307814174940223,13.468476050234512
1.7000000000000004,3.171348671097245,244.15610906204077,999.9293653020077,8.999999999999998,0.6,30.0,100.0,45.0,10.0,2.2943721539233874,14.486095662062024,-1.0370899457402696,-1.0370899457402698,1.2572822081831179,13.449005716321754
1.8000000000000005,4.554956944646914,257.5845412721799,999.9254411521192,9.499999999999998,0.6,30.0,100.0,45.0,10.0,2.4206982192899384,14.465522155879396,-1.0370899457402696,-1.0370899457402698,1.3836082735496689,13.428432210139126
1.9000000000000006,6.064706938021624,270.99129837061867,999.9215170022308,9.999999999999998,0.6,30.0,100.0,45.0,10.0,2.54683993911498,14.443847044179053,-1.0370899457402696,-1.0370899457402698,1.5097499933747103,13.406757098438783
2.0000000000000004,7.70040469949952,284.3752804024831,999.9175928523423,10.499999999999998,0.6,30.0,100.0,45.0,10.0,2.6727877072181663,14.421071977604669,-1.0370899457402696,-1.0370899457402698,1.6356977614778967,13.383982031864399
2.1000000000000005,9.461846685948576,297.7353891473086,999.9136687024538,10.999999999999998,0.6,30.0,100.0,45.0,10.0,2.798531932189326,14.397198690565741,-1.0370899457402696,-1.0370899457402698,1.7614419864490563,13.360108744825471
2.2000000000000006,11.348819778327199,311.0705282026738,999.9097445525654,11.499999999999998,0.6,30.0,100.0,45.0,10.0,2.924063038118893,14.372229001105504,-1.0370899457402696,-1.0370899457402698,1.8869730923786232,13.335139055365234
2.3000000000000007,13.361101297914065,324.37960306769605,999.9058204026769,11.999999999999998,0.6,30.0,100.0,45.0,10.0,3.049371465327136,14.346164810762486,-1.0370899457402696,-1.0370899457402698,2.0122815195868666,13.309074865022216
2.400000000000001,15.498459023265973,337.66152122638147,999.9018962527884,12.499999999999998,0.6,30.0,100.0,45.0,10.0,3.1744476710921767,14.319008104425691,-1.0370899457402696,-1.0370899457402698,2.137357725351907,13.281918158685421
2.500000000000001,17.76065120790239,350.91519223082463,999.8979721029,12.999999999999998,0.6,30.0,100.0,45.0,10.0,3.2992821303766893,14.290760950183452,-1.0370899457402696,-1.0370899457402698,2.2621921846364197,13.253671004443182
2.600000000000001,20.147426598715402,364.1395277842503,999.8940479530115,13.499999999999998,0.6,30.0,100.0,45.0,10.0,3.423865336553281,14.261425499165926,-1.0370899457402696,-1.0370899457402698,2.3867753908130114,13.224335553425655
2.700000000000001,22.658524455103592,377.3334418238913,999.8901238031231,13.999999999999998,0.6,30.0,100.0,45.0,10.0,3.54818780212846,14.231003985381285,-1.0370899457402696,-1.0370899457402698,2.5110978563881905,13.193914039641015
2.800000000000001,25.293674568828465,390.4958506036966,999.8861996532346,14.499999999999998,0.6,30.0,100.0,45.0,10.0,3.6722400594651425,14.199498725545583,-1.0370899457402696,-1.0370899457402698,2.635150113724873,13.162408779805313
2.9000000000000012,28.052597284591833,403.6256727768627,999.8822755033461,14.999999999999998,0.6,30.0,100.0,45.0,10.0,3.7960126615036383,14.166912118906339,-1.0370899457402696,-1.0370899457402698,2.7589227157633687,13.129822173166069
3.0000000000000013,30.935003521332668,416.72182947818226,999.8783513534577,15.499999999999998,0.6,30.0,100.0,45.0,10.0,3.9194961824811028,14.133246647059806,-1.0370899457402696,-1.0370899457402698,2.882406236740833,13.096156701319536
3.1000000000000014,33.94059479424172,429.783244406204,999.8744272035692,15.999999999999998,0.6,30.0,100.0,45.0,10.0,4.042681218649322,14.098504873762014,-1.0370899457402696,-1.0370899457402698,3.005591272909052,13.061414928021744
3.2000000000000015,37.069063237492315,442.80884390519725,999.8705030536807,16.499999999999996,0.6,30.0,100.0,45.0,10.0,4.165558388990868,14.0626894447335,-1.0370899457402696,-1.0370899457402698,3.1284684432505983,13.02559949899323
3.3000000000000016,40.32009162768552,455.79755704691485,999.8665789037923,16.999999999999996,0.6,30.0,100.0,45.0,10.0,4.288118335933474,14.025803087457856,-1.0370899457402696,-1.0370899457402698,3.251028390193204,12.988713141717586
3.4000000000000017,43.69335340800792,468.7483157121486,999.8626547539038,17.499999999999996,0.6,30.0,100.0,45.0,10.0,4.410351726062673,13.987848610973998,-1.0370899457402696,-1.0370899457402698,3.373261780322403,12.950758665233728
3.5000000000000018,47.188512713100216,481.6600546720706,999.8587306040154,17.999999999999996,0.6,30.0,100.0,45.0,10.0,4.532249250832564,13.948828905662255,-1.0370899457402696,-1.0370899457402698,3.495159305092294,12.911738959921985
3.600000000000002,50.805224394634635,494.5317116693546,999.8548064541269,18.499999999999996,0.6,30.0,100.0,45.0,10.0,4.653801627274688,13.90874694302426,-1.0370899457402696,-1.0370899457402698,3.6167116815344182,12.87165699728399
3.700000000000002,54.54313404759933,507.36222749907097,999.8508823042384,18.999999999999996,0.6,30.0,100.0,45.0,10.0,4.774999598704967,13.867605775456648,-1.0370899457402696,-1.0370899457402698,3.737909652964697,12.830515829716377
3.800000000000002,58.4018780372877,520.1505460893493,999.84695815435,19.499999999999996,0.6,30.0,100.0,45.0,10.0,4.895833935428641,13.82540853601862,-1.0370899457402696,-1.0370899457402698,3.8587439896883713,12.78831859027835
3.900000000000002,62.38108352699057,532.8956145818023,999.8430340044615,19.999999999999996,0.6,30.0,100.0,45.0,10.0,5.016295435443144,13.782158438193324,-1.0370899457402696,-1.0370899457402698,3.9792054897028746,12.745068492453054
4.000000000000002,66.48036850638917,545.5963834117052,999.839109854573,20.499999999999996,0.6,30.0,100.0,45.0,10.0,5.136374925138857,13.737858775643167,-1.0370899457402696,-1.0370899457402698,4.099284979398588,12.700768829902897
4.100000000000001,70.69934182064664,558.2518063879239,999.8351857046846,20.999999999999996,0.6,30.0,100.0,45.0,10.0,5.256063259997736,13.692512921958961,-1.0370899457402696,-1.0370899457402698,4.218973314257466,12.655422976218691
4.200000000000001,75.03760320019607,570.8608407725867,999.8312615547961,21.499999999999996,0.6,30.0,100.0,45.0,10.0,5.375351325289695,13.64612433040303,-1.0370899457402696,-1.0370899457402698,4.338261379549426,12.60903438466276
4.300000000000001,79.49474329122252,583.4224473604927,999.8273374049077,21.999999999999996,0.6,30.0,100.0,45.0,10.0,5.494230036766713,13.598696533646217,-1.0370899457402696,-1.0370899457402698,4.457140091026444,12.561606587905947
4.4,84.0703436868369,595.9355905582513,999.8234132550192,22.499999999999996,0.6,30.0,100.0,45.0,10.0,5.612690341354652,13.550233143498875,-1.0370899457402696,-1.0370899457402698,4.575600395614382,12.513143197758605
4.5,88.76397695893932,608.3992384631468,999.8194891051307,22.999999999999996,0.6,30.0,100.0,45.0,10.0,5.730723217842682,13.500737850635796,-1.0370899457402696,-1.0370899457402698,4.693633272102412,12.463647904895526
4.6,93.57520669076933,620.8123629417217,999.8155649552423,23.499999999999996,0.6,30.0,100.0,45.0,10.0,5.84831967757028,13.450214424315156,-1.0370899457402696,-1.0370899457402698,4.811229731830011,12.413124478574886
4.699999999999999,98.50358751014082,633.1739397080729,999.8116408053538,23.999999999999996,0.6,30.0,100.0,45.0,10.0,5.96547076511174,13.398666712091481,-1.0370899457402696,-1.0370899457402698,4.928380819371471,12.361576766351211
4.799999999999999,103.54866512335873,645.4829484018553,999.8077166554654,24.499999999999996,0.6,30.0,100.0,45.0,10.0,6.082167558958175,13.346098639522637,-1.0370899457402696,-1.0370899457402698,5.045077613217906,12.309008693782367
4.899999999999999,108.70997634981539,657.7383726659859,999.8037925055769,24.999999999999996,0.6,30.0,100.0,45.0,10.0,6.1984011721969265,13.292514209870868,-1.0370899457402696,-1.0370899457402698,5.161311226456657,12.255424264130598
4.999999999999998,113.98704915726346,669.9392002240436,999.7998683556884,25.499999999999996,0.6,30.0,100.0,45.0,10.0,6.314162753188332,13.237917503797958,-1.0370899457402696,-1.0370899457402698,5.277072807448063,12.200827558057687
5.099999999999998,119.379402697763,682.0844229573578,999.7959442058,25.999999999999996,0.6,30.0,100.0,45.0,10.0,6.429443486239804,13.182312679054453,-1.0370899457402696,-1.0370899457402698,5.392353540499535,12.145222733314183
5.1999999999999975,124.88654734429993,694.1730369817806,999.7920200559115,26.499999999999996,0.6,30.0,100.0,45.0,10.0,6.544234592277196,13.125703970163038,-1.0370899457402696,-1.0370899457402698,5.507144646536926,12.088614024422768
5.299999999999997,130.507984728073,706.2040427241363,999.788095906023,26.999999999999996,0.6,30.0,100.0,45.0,10.0,6.658527329513356,13.068095688096063,-1.0370899457402696,-1.0370899457402698,5.621437383773086,12.031005742355793
5.399999999999997,136.24320777644658,718.1764449983433,999.7841717561346,27.499999999999996,0.6,30.0,100.0,45.0,10.0,6.772312994113834,13.009492219947253,-1.0370899457402696,-1.0370899457402698,5.735223048373564,11.972402274206983
5.4999999999999964,142.09170075156607,730.0892530812006,999.7802476062461,27.999999999999996,0.6,30.0,100.0,45.0,10.0,6.885582920859734,12.949898028597596,-1.0370899457402696,-1.0370899457402698,5.8484929751194645,11.912808082857326
5.599999999999996,148.0529392896334,741.9414807878358,999.7763234563577,28.499999999999996,0.6,30.0,100.0,45.0,10.0,6.998328483807591,12.889317652375494,-1.0370899457402696,-1.0370899457402698,5.961238538067322,11.852227706635224
5.699999999999996,154.12639044083943,753.7321465468067,999.7723993064692,28.999999999999996,0.6,30.0,100.0,45.0,10.0,7.110541096946279,12.82775570471114,-1.0370899457402696,-1.0370899457402698,6.07345115120601,11.79066575897087
5.799999999999995,160.31151270995002,765.4602734748516,999.7684751565807,29.499999999999996,0.6,30.0,100.0,45.0,10.0,7.2222122148508525,12.765216873785198,-1.0370899457402696,-1.0370899457402698,6.1851222691105825,11.728126928044928
5.899999999999995,166.6077560975431,777.1248894512831,999.7645510066923,29.999999999999996,0.6,30.0,100.0,45.0,10.0,7.333333333333337,12.701705922171769,-1.0370899457402696,-1.0370899457402698,6.2962433875930675,11.664615976431499
5.999999999999995,173.01456214189318,788.7250271920186,999.7606268568038,30.499999999999996,0.6,30.0,100.0,45.0,10.0,7.44389599009033,12.637227686475713,-1.0370899457402696,-1.0370899457402698,6.406806044350061,11.600137740735443
6.099999999999994,179.53136396150038,800.2597243232427,999.7567027069153,30.999999999999996,0.6,30.0,100.0,45.0,10.0,7.5538917653474655,12.571787076964315,-1.0370899457402696,-1.0370899457402698,6.5168018196071955,11.534697131224044
6.199999999999994,186.1575862982607,811.7280234546959,999.7527785570269,31.499999999999996,0.6,30.0,100.0,45.0,10.0,7.663312282500586,12.505389077193355,-1.0370899457402696,-1.0370899457402698,6.626222336760316,11.468299131453085
6.299999999999994,192.8926455612741,823.1289722525831,999.7488544071384,31.999999999999996,0.6,30.0,100.0,45.0,10.0,7.772149208753674,12.438038743627585,-1.0370899457402696,-1.0370899457402698,6.7350592630134045,11.400948797887315
6.399999999999993,199.73594987128723,834.4616235120985,999.74493025725,32.49999999999999,0.6,30.0,100.0,45.0,10.0,7.880394255753416,12.36974120525566,-1.0370899457402696,-1.0370899457402698,6.843304310013146,11.33265125951539
6.499999999999993,206.68689910576737,845.7250352295578,999.7410061073615,32.99999999999999,0.6,30.0,100.0,45.0,10.0,7.988039180220399,12.300501663199555,-1.0370899457402696,-1.0370899457402698,6.950949234480129,11.263411717459284
6.5999999999999925,213.74488494460397,856.918270674136,999.737081957473,33.49999999999999,0.6,30.0,100.0,45.0,10.0,8.095075784576853,12.23032539031847,-1.0370899457402696,-1.0370899457402698,7.057985838836583,11.1932354445782
6.699999999999992,220.90929091643466,868.0403984592031,999.7331578075846,33.99999999999999,0.6,30.0,100.0,45.0,10.0,8.201495917570954,12.159217730807281,-1.0370899457402696,-1.0370899457402698,7.164405971830684,11.122127785067011
6.799999999999992,228.17949244559193,879.0904926132523,999.7292336576961,34.49999999999999,0.6,30.0,100.0,45.0,10.0,8.30729147489755,12.087184099789566,-1.0370899457402696,-1.0370899457402698,7.27020152915728,11.050094154049296
6.8999999999999915,235.55485689966702,890.0676326504173,999.7253095078077,34.99999999999999,0.6,30.0,100.0,45.0,10.0,8.412454399815344,12.014229982905215,-1.0370899457402696,-1.0370899457402698,7.375364454075074,10.977140037164945
6.999999999999991,243.0347436376872,900.9709036405698,999.7213853579192,35.49999999999999,0.6,30.0,100.0,45.0,10.0,8.51697668376045,11.940360935892684,-1.0370899457402696,-1.0370899457402698,7.479886738020181,10.903270990152414
7.099999999999991,250.6185040589032,911.7993962789953,999.7174612080307,35.99999999999999,0.6,30.0,100.0,45.0,10.0,8.620850366956272,11.865582584165898,-1.0370899457402696,-1.0370899457402698,7.583760421216002,10.828492638425628
7.19999999999999,258.3054816521826,922.5522069556409,999.7135370581423,36.49999999999999,0.6,30.0,100.0,45.0,10.0,8.724067539019671,11.789900622385858,-1.0370899457402696,-1.0370899457402698,7.686977593279401,10.752810676645588
7.29999999999999,266.0950120460057,933.2284378239276,999.7096129082538,36.99999999999999,0.6,30.0,100.0,45.0,10.0,8.826620339563375,11.713320814026966,-1.0370899457402696,-1.0370899457402698,7.789530393823105,10.676230868286696
7.39999999999999,273.98642305906003,943.8271968691255,999.7056887583653,37.49999999999999,0.6,30.0,100.0,45.0,10.0,8.928500958794572,11.635848990938118,-1.0370899457402696,-1.0370899457402698,7.891411013054302,10.598759045197848
7.499999999999989,281.9790347514294,954.3475979762839,999.7017646084769,37.99999999999999,0.6,30.0,100.0,45.0,10.0,9.029701638109657,11.557491052898591,-1.0370899457402696,-1.0370899457402698,7.992611692369387,10.520401107158321
7.599999999999989,290.0721594763742,964.7887609977123,999.6978404585884,38.49999999999999,0.6,30.0,100.0,45.0,10.0,9.130214670685087,11.478252967168741,-1.0370899457402696,-1.0370899457402698,8.093124724944817,10.441163021428471
7.699999999999989,298.26510193269826,975.1498118200076,999.6939163087,38.99999999999999,0.6,30.0,100.0,45.0,10.0,9.230032402064284,11.398140768035576,-1.0370899457402696,-1.0370899457402698,8.192942456324014,10.361050822295306
7.799999999999988,306.55715921769854,985.4298824306205,999.6899921588115,39.49999999999999,0.6,30.0,100.0,45.0,10.0,9.329147230740539,11.31716055635323,-1.0370899457402696,-1.0370899457402698,8.292057285000269,10.28007061061296
7.899999999999988,314.9476208806942,995.6281109839585,999.686068008923,39.99999999999999,0.6,30.0,100.0,45.0,10.0,9.427551608735913,11.235318499078346,-1.0370899457402696,-1.0370899457402698,8.390461662995643,10.198228553338076
7.999999999999988,323.43576897713,1005.7436418670187,999.6821438590346,40.49999999999999,0.6,30.0,100.0,45.0,10.0,9.525238042176028,11.152620828800458,-1.0370899457402696,-1.0370899457402698,8.488148096435758,10.115530883060188
8.099999999999987,332.0208781232505,1015.7756257645458,999.6782197091461,40.99999999999999,0.6,30.0,100.0,45.0,10.0,9.622199091860775,11.069073843267326,-1.0370899457402696,-1.0370899457402698,8.585109146120505,10.031983897527056
8.199999999999987,340.70221555134106,1025.7232197237108,999.6742955592576,41.49999999999999,0.6,30.0,100.0,45.0,10.0,9.718427373830817,10.984683904905367,-1.0370899457402696,-1.0370899457402698,8.681337428090547,9.947593959165097
8.299999999999986,349.4790411655307,1035.5855872183056,999.6703714093692,41.99999999999999,0.6,30.0,100.0,45.0,10.0,9.81391555992992,10.89945744033512,-1.0370899457402696,-1.0370899457402698,8.77682561418965,9.86236749459485
8.399999999999986,358.35060759815343,1045.3618982124472,999.6664472594807,42.49999999999999,0.6,30.0,100.0,45.0,10.0,9.908656378363018,10.813400939881822,-1.0370899457402696,-1.0370899457402698,8.871566432622748,9.776310994141552
8.499999999999986,367.31616026666313,1055.0513292237881,999.6625231095923,42.99999999999999,0.6,30.0,100.0,45.0,10.0,10.00264261424998,10.726520957081169,-1.0370899457402696,-1.0370899457402698,8.96555266850971,9.689431011340899
8.599999999999985,376.3749374310979,1064.653063386228,999.6585989597038,43.49999999999999,0.6,30.0,100.0,45.0,10.0,10.095867110175059,10.63882410818022,-1.0370899457402696,-1.0370899457402698,9.058777164434789,9.60173416243995
8.699999999999985,385.5261702520896,1074.1662905121213,999.6546748098153,43.99999999999999,0.6,30.0,100.0,45.0,10.0,10.188322766731961,10.550317071633552,-1.0370899457402696,-1.0370899457402698,9.15123282099169,9.513227125893282
8.799999999999985,394.76908284941385,1083.5902071539758,999.6507506599269,44.49999999999999,0.6,30.0,100.0,45.0,10.0,10.280002543064482,10.461006587594667,-1.0370899457402696,-1.0370899457402698,9.242912597324212,9.423916641854397
8.899999999999984,404.1028923610763,1092.9240166656382,999.6468265100384,44.99999999999999,0.6,30.0,100.0,45.0,10.0,10.370899457402697,10.370899457402702,-1.0370899457402696,-1.0370899457402698,9.333809511662427,9.333809511662432
8.999999999999984,413.5268090029307,1102.1669292629624,999.64290236015,45.49999999999999,0.6,30.0,100.0,45.0,10.0,10.461006587594666,10.280002543064482,-1.0370899457402696,-1.0370899457402698,9.423916641854396,9.242912597324212
9.099999999999984,423.040036128824,1111.3181620839541,999.6389782102615,45.99999999999999,0.6,30.0,100.0,45.0,10.0,10.55031707163355,10.188322766731963,-1.0370899457402696,-1.0370899457402698,9.51322712589328,9.151232820991693
9.199999999999983,432.641770291264,1120.376939248389,999.635054060373,46.49999999999999,0.6,30.0,100.0,45.0,10.0,10.63882410818022,10.09586711017506,-1.0370899457402696,-1.0370899457402698,9.60173416243995,9.05877716443479
9.299999999999983,442.3312013026049,1129.3424919168986,999.6311299104846,46.99999999999999,0.6,30.0,100.0,45.0,10.0,10.726520957081167,10.00264261424998,-1.0370899457402696,-1.0370899457402698,9.689431011340897,8.96555266850971
9.399999999999983,452.10751229674645,1138.2140583495213,999.6272057605961,47.49999999999999,0.6,30.0,100.0,45.0,10.0,10.81340093988182,9.90865637836302,-1.0370899457402696,-1.0370899457402698,9.77631099414155,8.87156643262275
9.499999999999982,461.9698797913413,1146.990883963711,999.6232816107076,47.99999999999999,0.6,30.0,100.0,45.0,10.0,10.899457440335116,9.813915559929924,-1.0370899457402696,-1.0370899457402698,9.862367494594846,8.776825614189654
9.599999999999982,471.9174737505064,1155.6722213918015,999.6193574608192,48.49999999999999,0.6,30.0,100.0,45.0,10.0,10.984683904905365,9.71842737383082,-1.0370899457402696,-1.0370899457402698,9.947593959165095,8.68133742809055
9.699999999999982,481.9494576480335,1164.257330537922,999.6154333109307,48.99999999999999,0.6,30.0,100.0,45.0,10.0,11.069073843267324,9.622199091860777,-1.0370899457402696,-1.0370899457402698,10.031983897527054,8.585109146120507
9.799999999999981,492.0649885310937,1172.7454786343576,999.6115091610422,49.49999999999999,0.6,30.0,100.0,45.0,10.0,11.152620828800456,9.52523804217603,-1.0370899457402696,-1.0370899457402698,10.115530883060186,8.48814809643576
9.89999999999998,502.2632170844318,1181.1359402973533,999.6075850111538,49.99999999999999,0.6,30.0,100.0,45.0,10.0,11.235318499078346,9.427551608735913,-1.0370899457402696,-1.0370899457402698,10.198228553338076,8.390461662995643
9.99999999999998,512.5432876950448,1189.4279975823536,999.6036608612653,50.49999999999999,0.6,30.0,100.0,45.0,10.0,11.317160556353228,9.329147230740542,-1.0370899457402696,-1.0370899457402698,10.280070610612958,8.292057285000272
10.09999999999998,522.9043385173401,1197.6209400386776,999.5997367113769,50.99999999999999,0.6,30.0,100.0,45.0,10.0,11.398140768035576,9.230032402064285,-1.0370899457402696,-1.0370899457402698,10.361050822295306,8.192942456324015
10.19999999999998,533.3455015387685,1205.7140647636224,999.5958125614884,51.49999999999999,0.6,30.0,100.0,45.0,10.0,11.478252967168737,9.13021467068509,-1.0370899457402696,-1.0370899457402698,10.441163021428467,8.09312472494482
10.29999999999998,543.8659026459269,1213.7066764559918,999.5918884115999,51.99999999999999,0.6,30.0,100.0,45.0,10.0,11.557491052898591,9.029701638109657,-1.0370899457402696,-1.0370899457402698,10.520401107158321,7.992611692369387
10.399999999999979,554.4646616911248,1221.598087469046,999.5879642617115,52.49999999999999,0.6,30.0,100.0,45.0,10.0,11.635848990938117,8.928500958794572,-1.0370899457402696,-1.0370899457402698,10.598759045197847,7.891411013054302
10.499999999999979,565.1408925594114,1229.387617862869,999.584040111823,52.99999999999999,0.6,30.0,100.0,45.0,10.0,11.713320814026964,8.826620339563378,-1.0370899457402696,-1.0370899457402698,10.676230868286694,7.789530393823108
10.599999999999978,575.893703236057,1237.0745954561485,999.5801159619346,53.49999999999999,0.6,30.0,100.0,45.0,10.0,11.789900622385856,8.724067539019675,-1.0370899457402696,-1.0370899457402698,10.752810676645586,7.686977593279405
10.699999999999978,586.7221958744826,1244.6583558773646,999.5761918120461,53.99999999999999,0.6,30.0,100.0,45.0,10.0,11.865582584165896,8.620850366956276,-1.0370899457402696,-1.0370899457402698,10.828492638425626,7.583760421216006
10.799999999999978,597.6254668646351,1252.1382426153848,999.5722676621576,54.49999999999999,0.6,30.0,100.0,45.0,10.0,11.940360935892683,8.516976683760452,-1.0370899457402696,-1.0370899457402698,10.903270990152413,7.479886738020182
10.899999999999977,608.6026069018001,1259.5136070694598,999.5683435122692,54.99999999999999,0.6,30.0,100.0,45.0,10.0,12.014229982905215,8.412454399815346,-1.0370899457402696,-1.0370899457402698,10.977140037164945,7.375364454075076
10.999999999999977,619.6527010558493,1266.783808598617,999.5644193623807,55.49999999999999,0.6,30.0,100.0,45.0,10.0,12.087184099789564,8.30729147489755,-1.0370899457402696,-1.0370899457402698,11.050094154049294,7.27020152915728
11.099999999999977,630.7748288409164,1273.9482145704478,999.5604952124922,55.99999999999999,0.6,30.0,100.0,45.0,10.0,12.15921773080728,8.201495917570956,-1.0370899457402696,-1.0370899457402698,11.12212778506701,7.164405971830686
11.199999999999976,641.9680642854946,1281.0062004092845,999.5565710626038,56.49999999999999,0.6,30.0,100.0,45.0,10.0,12.23032539031847,8.095075784576855,-1.0370899457402696,-1.0370899457402698,11.1932354445782,7.057985838836585
11.299999999999976,653.2314760029539,1287.9571496437645,999.5526469127153,56.99999999999999,0.6,30.0,100.0,45.0,10.0,12.300501663199553,7.9880391802204,-1.0370899457402696,-1.0370899457402698,11.263411717459283,6.95094923448013
11.399999999999975,664.5641272624692,1294.8004539537776,999.5487227628269,57.49999999999999,0.6,30.0,100.0,45.0,10.0,12.369741205255657,7.880394255753418,-1.0370899457402696,-1.0370899457402698,11.332651259515387,6.843304310013148
11.499999999999975,675.9650760603565,1301.535513216791,999.5447986129384,57.99999999999999,0.6,30.0,100.0,45.0,10.0,12.438038743627583,7.772149208753675,-1.0370899457402696,-1.0370899457402698,11.400948797887313,6.735059263013405
11.599999999999975,687.4333751918097,1308.1617355535514,999.5408744630499,58.49999999999999,0.6,30.0,100.0,45.0,10.0,12.505389077193355,7.663312282500586,-1.0370899457402696,-1.0370899457402698,11.468299131453085,6.626222336760316
11.699999999999974,698.9680723230338,1314.6785373731586,999.5369503131615,58.99999999999999,0.6,30.0,100.0,45.0,10.0,12.571787076964315,7.553891765347464,-1.0370899457402696,-1.0370899457402698,11.534697131224044,6.516801819607194
11.799999999999974,710.5682100637692,1321.0853434175087,999.533026163273,59.49999999999999,0.6,30.0,100.0,45.0,10.0,12.637227686475713,7.44389599009033,-1.0370899457402696,-1.0370899457402698,11.600137740735443,6.40680604435006
11.899999999999974,722.2328260402007,1327.3815868051017,999.5291020133845,59.99999999999999,0.6,30.0,100.0,45.0,10.0,12.701705922171769,7.333333333333337,-1.0370899457402696,-1.0370899457402698,11.664615976431499,6.296243387593067
11.999999999999973,733.9609529682457,1333.5667090742122,999.5251778634961,60.49999999999999,0.6,30.0,100.0,45.0,10.0,12.765216873785198,7.222212214850853,-1.0370899457402696,-1.0370899457402698,11.728126928044928,6.185122269110583
12.099999999999973,745.7516187272166,1339.6401602254182,999.5212537136076,60.99999999999999,0.6,30.0,100.0,45.0,10.0,12.82775570471114,7.11054109694628,-1.0370899457402696,-1.0370899457402698,11.79066575897087,6.07345115120601
12.199999999999973,757.6038464338518,1345.6013987634856,999.5173295637192,61.49999999999999,0.6,30.0,100.0,45.0,10.0,12.889317652375492,6.998328483807593,-1.0370899457402696,-1.0370899457402698,11.852227706635222,5.961238538067323
12.299999999999972,769.5166545167091,1351.449891738605,999.5134054138307,61.99999999999999,0.6,30.0,100.0,45.0,10.0,12.949898028597596,6.885582920859733,-1.0370899457402696,-1.0370899457402698,11.912808082857326,5.848492975119463
12.399999999999972,781.489056790916,1357.1851147869786,999.5094812639422,62.49999999999999,0.6,30.0,100.0,45.0,10.0,13.009492219947253,6.772312994113833,-1.0370899457402696,-1.0370899457402698,11.972402274206983,5.735223048373563
12.499999999999972,793.5200625332718,1362.8065521707517,999.5055571140538,62.99999999999999,0.6,30.0,100.0,45.0,10.0,13.068095688096063,6.6585273295133565,-1.0370899457402696,-1.0370899457402698,12.031005742355793,5.621437383773086
12.599999999999971,805.6086765576946,1368.3136968172887,999.5016329641653,63.49999999999999,0.6,30.0,100.0,45.0,10.0,13.125703970163036,6.544234592277198,-1.0370899457402696,-1.0370899457402698,12.088614024422766,5.507144646536928
12.69999999999997,817.7538992910088,1373.7060503577882,999.4977088142768,63.99999999999999,0.6,30.0,100.0,45.0,10.0,13.182312679054451,6.429443486239805,-1.0370899457402696,-1.0370899457402698,12.145222733314181,5.392353540499535
12.79999999999997,829.9547268490664,1378.9831231652363,999.4937846643884,64.49999999999999,0.6,30.0,100.0,45.0,10.0,13.237917503797958,6.3141627531883335,-1.0370899457402696,-1.0370899457402698,12.200827558057687,5.2770728074480635
12.89999999999997,842.2101511131971,1384.144434391693,999.4898605144999,64.99999999999999,0.6,30.0,100.0,45.0,10.0,13.292514209870866,6.198401172196929,-1.0370899457402696,-1.0370899457402698,12.255424264130596,5.161311226456659
12.99999999999997,854.5191598069795,1389.189512004911,999.4859363646115,65.49999999999999,0.6,30.0,100.0,45.0,10.0,13.346098639522635,6.082167558958177,-1.0370899457402696,-1.0370899457402698,12.309008693782365,5.045077613217907
13.09999999999997,866.8807365733306,1394.1178928242825,999.482012214723,65.99999999999999,0.6,30.0,100.0,45.0,10.0,13.398666712091481,5.965470765111741,-1.0370899457402696,-1.0370899457402698,12.361576766351211,4.928380819371471
13.199999999999969,879.2938610519055,1398.9291225561126,999.4780880648345,66.49999999999999,0.6,30.0,100.0,45.0,10.0,13.450214424315154,5.848319677570283,-1.0370899457402696,-1.0370899457402698,12.413124478574884,4.811229731830013
13.299999999999969,891.7575089568011,1403.622755828215,999.4741639149461,66.99999999999999,0.6,30.0,100.0,45.0,10.0,13.500737850635794,5.7307232178426855,-1.0370899457402696,-1.0370899457402698,12.463647904895524,4.693633272102415
13.399999999999968,904.2706521545597,1408.1983562238295,999.4702397650576,67.49999999999999,0.6,30.0,100.0,45.0,10.0,13.550233143498874,5.6126903413546545,-1.0370899457402696,-1.0370899457402698,12.513143197758604,4.5756003956143845
13.499999999999968,916.8322587424657,1412.655496314856,999.4663156151692,67.99999999999999,0.6,30.0,100.0,45.0,10.0,13.598696533646217,5.494230036766715,-1.0370899457402696,-1.0370899457402698,12.561606587905947,4.457140091026445
13.599999999999968,929.4412931271285,1416.9937576944055,999.4623914652807,68.49999999999999,0.6,30.0,100.0,45.0,10.0,13.646124330403028,5.3753513252896985,-1.0370899457402696,-1.0370899457402698,12.609034384662758,4.3382613795494285
13.699999999999967,942.0967161033471,1421.212731008663,999.4584673153922,68.99999999999999,0.6,30.0,100.0,45.0,10.0,13.69251292195896,5.256063259997742,-1.0370899457402696,-1.0370899457402698,12.65542297621869,4.218973314257472
13.799999999999967,954.7974849332501,1425.3120159880616,999.4545431655038,69.49999999999999,0.6,30.0,100.0,45.0,10.0,13.737858775643167,5.13637492513886,-1.0370899457402696,-1.0370899457402698,12.700768829902897,4.09928497939859
13.899999999999967,967.5425534257031,1429.2912214777646,999.4506190156153,69.99999999999999,0.6,30.0,100.0,45.0,10.0,13.782158438193324,5.016295435443145,-1.0370899457402696,-1.0370899457402698,12.745068492453054,3.979205489702875
13.999999999999966,980.3308720159814,1433.149965467453,999.4466948657268,70.49999999999999,0.6,30.0,100.0,45.0,10.0,13.825408536018617,4.895833935428644,-1.0370899457402696,-1.0370899457402698,12.788318590278347,3.8587439896883744
14.099999999999966,993.1613878456978,1436.8878751204177,999.4427707158384,70.99999999999999,0.6,30.0,100.0,45.0,10.0,13.867605775456648,4.7749995987049685,-1.0370899457402696,-1.0370899457402698,12.830515829716377,3.7379096529646985
14.199999999999966,1006.0330448429819,1440.5045868019522,999.4388465659499,71.49999999999999,0.6,30.0,100.0,45.0,10.0,13.908746943024259,4.653801627274689,-1.0370899457402696,-1.0370899457402698,12.871656997283988,3.6167116815344187
14.299999999999965,1018.9447838029039,1443.9997461070445,999.4349224160615,71.99999999999999,0.6,30.0,100.0,45.0,10.0,13.948828905662255,4.532249250832566,-1.0370899457402696,-1.0370899457402698,12.911738959921985,3.4951593050922956
14.399999999999965,1031.8955424681376,1447.3730078873668,999.430998266173,72.49999999999999,0.6,30.0,100.0,45.0,10.0,13.987848610973996,4.410351726062677,-1.0370899457402696,-1.0370899457402698,12.950758665233726,3.373261780322407
14.499999999999964,1044.8842556098552,1450.62403627756,999.4270741162845,72.99999999999999,0.6,30.0,100.0,45.0,10.0,14.025803087457856,4.288118335933476,-1.0370899457402696,-1.0370899457402698,12.988713141717586,3.2510283901932056
14.599999999999964,1057.9098551088484,1453.7525047208105,999.4231499663961,73.49999999999999,0.6,30.0,100.0,45.0,10.0,14.062689444733499,4.165558388990869,-1.0370899457402696,-1.0370899457402698,13.025599498993229,3.1284684432505987
14.699999999999964,1070.9712700368702,1456.7580959937195,999.4192258165076,73.99999999999999,0.6,30.0,100.0,45.0,10.0,14.098504873762012,4.042681218649325,-1.0370899457402696,-1.0370899457402698,13.061414928021742,3.0055912729090553
14.799999999999963,1084.0674267381899,1459.6405022304602,999.4153016666191,74.49999999999999,0.6,30.0,100.0,45.0,10.0,14.133246647059806,3.9194961824811054,-1.0370899457402696,-1.0370899457402698,13.096156701319536,2.8824062367408354
14.899999999999963,1097.197248911356,1462.3994249462237,999.4113775167307,74.99999999999999,0.6,30.0,100.0,45.0,10.0,14.166912118906337,3.7960126615036422,-1.0370899457402696,-1.0370899457402698,13.129822173166067,2.7589227157633722
14.999999999999963,1110.3596576911611,1465.0345750599486,999.4074533668422,75.49999999999999,0.6,30.0,100.0,45.0,10.0,14.199498725545583,3.672240059465145,-1.0370899457402696,-1.0370899457402698,13.162408779805313,2.635150113724875
15.099999999999962,1123.553571730802,1467.5456729163368,999.4035292169538,75.99999999999999,0.6,30.0,100.0,45.0,10.0,14.231003985381284,3.5481878021284645,-1.0370899457402696,-1.0370899457402698,13.193914039641014,2.5110978563881945
15.199999999999962,1136.7779072842277,1469.9324483071498,999.3996050670653,76.49999999999999,0.6,30.0,100.0,45.0,10.0,14.261425499165926,3.4238653365532836,-1.0370899457402696,-1.0370899457402698,13.224335553425655,2.386775390813014
15.299999999999962,1150.031578288671,1472.1946404917862,999.3956809171768,76.99999999999999,0.6,30.0,100.0,45.0,10.0,14.29076095018345,3.2992821303766906,-1.0370899457402696,-1.0370899457402698,13.25367100444318,2.2621921846364206
15.399999999999961,1163.3134964473563,1474.331998217138,999.3917567672884,77.49999999999999,0.6,30.0,100.0,45.0,10.0,14.319008104425691,3.1744476710921794,-1.0370899457402696,-1.0370899457402698,13.281918158685421,2.13735772535191
15.499999999999961,1176.6225713123786,1476.344279736725,999.3878326173999,77.99999999999999,0.6,30.0,100.0,45.0,10.0,14.346164810762485,3.049371465327141,-1.0370899457402696,-1.0370899457402698,13.309074865022215,2.012281519586871
15.59999999999996,1189.9577103677439,1478.2312528291036,999.3839084675114,78.49999999999999,0.6,30.0,100.0,45.0,10.0,14.372229001105504,2.924063038118896,-1.0370899457402696,-1.0370899457402698,13.335139055365234,1.886973092378626
15.69999999999996,1203.3178191125694,1479.9926948155526,999.379984317623,78.99999999999999,0.6,30.0,100.0,45.0,10.0,14.39719869056574,2.798531932189328,-1.0370899457402696,-1.0370899457402698,13.36010874482547,1.7614419864490583
15.79999999999996,1216.7018011444338,1481.6283925770306,999.3760601677345,79.49999999999999,0.6,30.0,100.0,45.0,10.0,14.421071977604669,2.6727877072181663,-1.0370899457402696,-1.0370899457402698,13.383982031864399,1.6356977614778965
15.89999999999996,1230.1085582428727,1483.1381425704053,999.3721360178461,79.99999999999999,0.6,30.0,100.0,45.0,10.0,14.443847044179053,2.5468399391149825,-1.0370899457402696,-1.0370899457402698,13.406757098438783,1.5097499933747127
15.99999999999996,1243.5369904530119,1484.521750843955,999.3682118679576,80.49999999999999,0.6,30.0,100.0,45.0,10.0,14.465522155879396,2.420698219289943,-1.0370899457402696,-1.0370899457402698,13.428432210139126,1.383608273549673
16.09999999999996,1256.9859961693337,1485.7790330521382,999.3642877180691,80.99999999999999,0.6,30.0,100.0,45.0,10.0,14.486095662062022,2.29437215392339,-1.0370899457402696,-1.0370899457402698,13.449005716321752,1.2572822081831203
16.19999999999996,1270.4544722195683,1486.9098144696322,999.3603635681807,81.49999999999999,0.6,30.0,100.0,45.0,10.0,14.505565995974782,2.167871363234293,-1.0370899457402696,-1.0370899457402698,13.468476050234512,1.1307814174940234
16.29999999999996,1283.9413139487044,1487.9139300046395,999.3564394182922,81.99999999999999,0.6,30.0,100.0,45.0,10.0,14.523931674876367,2.0412054807476303,-1.0370899457402696,-1.0370899457402698,13.486841729136097,1.0041155350073605
16.399999999999963,1297.4454153031134,1488.79122421146,999.3525152684037,82.49999999999999,0.6,30.0,100.0,45.0,10.0,14.541191300149222,1.9143841525607606,-1.0370899457402696,-1.0370899457402698,13.504101354408952,0.8772942068204908
16.499999999999964,1310.9656689147791,1489.5415513023286,999.3485911185153,82.99999999999999,0.6,30.0,100.0,45.0,10.0,14.557343557406059,1.7874170366088336,-1.0370899457402696,-1.0370899457402698,13.520253611665789,0.7503270908685638
16.599999999999966,1324.5009661856288,1490.1647751585176,999.3446669686268,83.49999999999999,0.6,30.0,100.0,45.0,10.0,14.572387216589952,1.6603138019293027,-1.0370899457402696,-1.0370899457402698,13.535297270849682,0.6232238561890329
16.699999999999967,1338.0501973719565,1490.660769340703,999.3407428187384,83.99999999999999,0.6,30.0,100.0,45.0,10.0,14.586321132068012,1.533084127925588,-1.0370899457402696,-1.0370899457402698,13.549231186327741,0.4959941821853182
16.79999999999997,1351.612251668935,1491.0294170985926,999.3368186688499,84.49999999999999,0.6,30.0,100.0,45.0,10.0,14.599144242718625,1.4057377036299556,-1.0370899457402696,-1.0370899457402698,13.562054296978355,0.36864775788968585
16.89999999999997,1365.186017295207,1491.270611379818,999.3328945189614,84.99999999999999,0.6,30.0,100.0,45.0,10.0,14.610855572012271,1.278284226965657,-1.0370899457402696,-1.0370899457402698,13.573765626272001,0.2411942812253871
16.99999999999997,1378.7703815775526,1491.3842548380862,999.328970369073,85.49999999999999,0.6,30.0,100.0,45.0,10.0,14.621454228085879,1.1507334040083963,-1.0370899457402696,-1.0370899457402698,13.584364282345609,0.1136434582681265
17.099999999999973,1392.364231035623,1491.3702598405932,999.3250462191845,85.99999999999999,0.6,30.0,100.0,45.0,10.0,14.630939403810757,1.023094948247175,-1.0370899457402696,-1.0370899457402698,13.593849458070487,-0.013994997493094852
17.199999999999974,1405.966451466737,1491.2285484746976,999.321122069296,86.49999999999999,0.6,30.0,100.0,45.0,10.0,14.63931037685405,0.8953785798445714,-1.0370899457402696,-1.0370899457402698,13.60222043111378,-0.14171136589569844
17.299999999999976,1419.5759280307304,1490.9590525538538,999.3171979194076,86.99999999999999,0.6,30.0,100.0,45.0,10.0,14.646566509733752,0.7675940248965133,-1.0370899457402696,-1.0370899457402698,13.609476563993482,-0.2694959208437565
17.399999999999977,1433.1915453348574,1490.5617136228052,999.3132737695191,87.49999999999999,0.6,30.0,100.0,45.0,10.0,14.65270724986725,0.6397510146915985,-1.0370899457402696,-1.0370899457402698,13.61561730412698,-0.39733893104867135
17.49999999999998,1446.8121875187305,1490.036482962035,999.3093496196307,87.99999999999999,0.6,30.0,100.0,45.0,10.0,14.657732129613407,0.5118592849700179,-1.0370899457402696,-1.0370899457402698,13.620642183873137,-0.5252306607702519
17.59999999999998,1460.4367383392985,1489.383321591477,999.3054254697422,88.49999999999999,0.6,30.0,100.0,45.0,10.0,14.661640766308176,0.38392857518214324,-1.0370899457402696,-1.0370899457402698,13.624550820567906,-0.6531613705581265
17.69999999999998,1474.064081255852,1488.6022002734835,999.3015013198537,88.99999999999999,0.6,30.0,100.0,45.0,10.0,14.664432862293742,0.25596862774682855,-1.0370899457402696,-1.0370899457402698,13.627342916553472,-0.7811213179934413
17.799999999999983,1487.6930995150528,1487.6930995150528,999.2975771699653,89.49999999999999,0.6,30.0,100.0,45.0,10.0,14.666108204941182,0.12798918730948805,-1.0370899457402696,-1.0370899457402698,13.629018259200912,-0.9091007584307818
17.899999999999984,1501.3226762359793,1486.6560095693126,999.2936530200768,89.99999999999999,0.6,30.0,100.0,45.0,10.0,14.66666666666667,3.6377176631082625E-15,-1.0370899457402696,-1.0370899457402698,13.6295767209264,-1.0370899457402663
17.999999999999986,1514.9516944951802,1485.490930436263,999.2897288701884,90.49999999999999,0.6,30.0,100.0,45.0,10.0,14.666108204941182,-0.12798918730948075,-1.0370899457402696,-1.0370899457402698,13.629018259200912,-1.1650791330497505
18.099999999999987,1528.5790374117337,1484.1978718627759,999.2858047202999,90.99999999999999,0.6,30.0,100.0,45.0,10.0,14.664432862293742,-0.2559686277468213,-1.0370899457402696,-1.0370899457402698,13.627342916553472,-1.293058573487091
18.19999999999999,1542.2035882323016,1482.7768533418534,999.2818805704114,91.49999999999999,0.6,30.0,100.0,45.0,10.0,14.661640766308176,-0.383928575182136,-1.0370899457402696,-1.0370899457402698,13.624550820567906,-1.4210185209224058
18.29999999999999,1555.8242304161747,1481.227904111143,999.277956420523,91.99999999999999,0.6,30.0,100.0,45.0,10.0,14.657732129613407,-0.5118592849700107,-1.0370899457402696,-1.0370899457402698,13.620642183873137,-1.5489492307102806
18.39999999999999,1569.4398477203017,1479.5510631507111,999.2740322706345,92.49999999999999,0.6,30.0,100.0,45.0,10.0,14.65270724986725,-0.6397510146915911,-1.0370899457402696,-1.0370899457402698,13.61561730412698,-1.676840960431861
18.499999999999993,1583.0493242842952,1477.7463791800744,999.270108120746,92.99999999999999,0.6,30.0,100.0,45.0,10.0,14.646566509733752,-0.767594024896506,-1.0370899457402696,-1.0370899457402698,13.609476563993482,-1.8046839706367757
18.599999999999994,1596.651544715409,1475.8139106544895,999.2661839708576,93.49999999999999,0.6,30.0,100.0,45.0,10.0,14.639310376854052,-0.895378579844564,-1.0370899457402696,-1.0370899457402698,13.602220431113782,-1.932468525584834
18.699999999999996,1610.2453941734796,1473.753725760502,999.2622598209691,93.99999999999999,0.6,30.0,100.0,45.0,10.0,14.630939403810759,-1.0230949482471676,-1.0370899457402696,-1.0370899457402698,13.593849458070489,-2.0601848939874374
18.799999999999997,1623.8297584558252,1471.5659024107533,999.2583356710807,94.49999999999999,0.6,30.0,100.0,45.0,10.0,14.621454228085879,-1.150733404008389,-1.0370899457402696,-1.0370899457402698,13.584364282345609,-2.1878233497486588
18.9,1637.4035240820972,1469.2505282380473,999.2544115211922,94.99999999999999,0.6,30.0,100.0,45.0,10.0,14.610855572012271,-1.2782842269656496,-1.0370899457402696,-1.0370899457402698,13.573765626272001,-2.315374172705919
19.0,1650.9655783790756,1466.807700588677,999.2504873713037,95.49999999999999,0.6,30.0,100.0,45.0,10.0,14.599144242718626,-1.4057377036299485,-1.0370899457402696,-1.0370899457402698,13.562054296978356,-2.4428276493702183
19.1,1664.5148095654033,1464.2375265150113,999.2465632214153,95.99999999999999,0.6,30.0,100.0,45.0,10.0,14.586321132068013,-1.5330841279255811,-1.0370899457402696,-1.0370899457402698,13.549231186327743,-2.570174073665851
19.200000000000003,1678.050106836253,1461.5401227673417,999.2426390715268,96.49999999999999,0.6,30.0,100.0,45.0,10.0,14.572387216589954,-1.6603138019292951,-1.0370899457402696,-1.0370899457402698,13.535297270849684,-2.697403747669565
19.300000000000004,1691.5703604479188,1458.7156157849927,999.2387149216383,96.99999999999999,0.6,30.0,100.0,45.0,10.0,14.55734355740606,-1.7874170366088264,-1.0370899457402696,-1.0370899457402698,13.52025361166579,-2.8245069823490963
19.400000000000006,1705.0744618023277,1455.7641416866916,999.2347907717499,97.49999999999999,0.6,30.0,100.0,45.0,10.0,14.541191300149224,-1.9143841525607532,-1.0370899457402696,-1.0370899457402698,13.504101354408954,-2.951474098301023
19.500000000000007,1718.5613035314639,1452.6858462602038,999.2308666218614,97.99999999999999,0.6,30.0,100.0,45.0,10.0,14.523931674876367,-2.041205480747623,-1.0370899457402696,-1.0370899457402698,13.486841729136097,-3.078295426487893
19.60000000000001,1732.0297795816984,1449.4808849512292,999.226942471973,98.49999999999999,0.6,30.0,100.0,45.0,10.0,14.505565995974782,-2.167871363234286,-1.0370899457402696,-1.0370899457402698,13.468476050234512,-3.204961308974556
19.70000000000001,1745.4787852980203,1446.1494228515655,999.2230183220845,98.99999999999999,0.6,30.0,100.0,45.0,10.0,14.486095662062024,-2.294372153923383,-1.0370899457402696,-1.0370899457402698,13.449005716321754,-3.3314620996636526
19.80000000000001,1758.9072175081594,1442.6916346865353,999.219094172196,99.49999999999999,0.6,30.0,100.0,45.0,10.0,14.465522155879396,-2.420698219289936,-1.0370899457402696,-1.0370899457402698,13.428432210139126,-3.4577881650302054
19.900000000000013,1772.3139746065983,1439.10770480168,999.2151700223076,99.99999999999999,0.6,30.0,100.0,45.0,10.0,14.443847044179055,-2.546839939114975,-1.0370899457402696,-1.0370899457402698,13.406757098438785,-3.5839298848552446
20.000000000000014,1785.6979566384628,1435.3978271487217,999.2112458724191,100.49999999999999,0.6,30.0,100.0,45.0,10.0,14.42107197760467,-2.672787707218159,-1.0370899457402696,-1.0370899457402698,13.3839820318644,-3.709877652958429
20.100000000000016,1799.0580653832883,1431.5622052707922,999.2073217225307,100.99999999999999,0.6,30.0,100.0,45.0,10.0,14.397198690565741,-2.7985319321893205,-1.0370899457402696,-1.0370899457402698,13.360108744825471,-3.83562187792959
20.200000000000017,1812.3932044386536,1427.601052286933,999.2033975726422,101.49999999999999,0.6,30.0,100.0,45.0,10.0,14.372229001105506,-2.9240630381188892,-1.0370899457402696,-1.0370899457402698,13.335139055365236,-3.961152983859159
20.30000000000002,1825.7022793036758,1423.5145908758657,999.1994734227537,101.99999999999999,0.6,30.0,100.0,45.0,10.0,14.346164810762486,-3.0493714653271335,-1.0370899457402696,-1.0370899457402698,13.309074865022216,-4.086461411067403
20.40000000000002,1838.9841974623612,1419.3030532590333,999.1955492728653,102.49999999999999,0.6,30.0,100.0,45.0,10.0,14.319008104425693,-3.1744476710921723,-1.0370899457402696,-1.0370899457402698,13.281918158685423,-4.211537616832442
20.50000000000002,1852.2378684668045,1414.9666811829163,999.1916251229768,102.99999999999999,0.6,30.0,100.0,45.0,10.0,14.290760950183452,-3.2992821303766835,-1.0370899457402696,-1.0370899457402698,13.253671004443182,-4.3363720761169535
20.600000000000023,1865.46220402023,1410.5057259006228,999.1877009730883,103.49999999999999,0.6,30.0,100.0,45.0,10.0,14.261425499165927,-3.423865336553277,-1.0370899457402696,-1.0370899457402698,13.224335553425657,-4.460955282293547
20.700000000000024,1878.656118059871,1405.920448152754,999.1837768231999,103.99999999999999,0.6,30.0,100.0,45.0,10.0,14.231003985381285,-3.5481878021284565,-1.0370899457402696,-1.0370899457402698,13.193914039641015,-4.5852777478687265
20.800000000000026,1891.8185268396762,1401.2111181475486,999.1798526733114,104.49999999999999,0.6,30.0,100.0,45.0,10.0,14.199498725545585,-3.6722400594651377,-1.0370899457402696,-1.0370899457402698,13.162408779805315,-4.709330005205407
20.900000000000027,1904.9483490128423,1396.3780155403047,999.175928523423,104.99999999999999,0.6,30.0,100.0,45.0,10.0,14.166912118906339,-3.796012661503635,-1.0370899457402696,-1.0370899457402698,13.129822173166069,-4.833102607243905
21.00000000000003,1918.044505714162,1391.4214294120834,999.1720043735345,105.49999999999999,0.6,30.0,100.0,45.0,10.0,14.133246647059808,-3.919496182481097,-1.0370899457402696,-1.0370899457402698,13.096156701319538,-4.956586128221367
21.10000000000003,1931.1059206421837,1386.3416582476939,999.168080223646,105.99999999999999,0.6,30.0,100.0,45.0,10.0,14.098504873762014,-4.042681218649319,-1.0370899457402696,-1.0370899457402698,13.061414928021744,-5.079771164389589
21.20000000000003,1944.131520141177,1381.1390099129628,999.1641560737576,106.49999999999999,0.6,30.0,100.0,45.0,10.0,14.062689444733502,-4.1655583889908625,-1.0370899457402696,-1.0370899457402698,13.025599498993232,-5.2026483347311325
21.300000000000033,1957.1202332828946,1375.8138016312892,999.1602319238691,106.99999999999999,0.6,30.0,100.0,45.0,10.0,14.025803087457858,-4.288118335933469,-1.0370899457402696,-1.0370899457402698,12.988713141717588,-5.325208281673739
21.400000000000034,1970.0709919481283,1370.3663599594863,999.1563077739806,107.49999999999999,0.6,30.0,100.0,45.0,10.0,13.987848610974,-4.41035172606267,-1.0370899457402696,-1.0370899457402698,12.95075866523373,-5.44744167180294
21.500000000000036,1982.9827309080504,1364.7970207629135,999.1523836240922,107.99999999999999,0.6,30.0,100.0,45.0,10.0,13.948828905662257,-4.532249250832559,-1.0370899457402696,-1.0370899457402698,12.911738959921987,-5.569339196572829
21.600000000000037,1995.8543879053343,1359.1061291898984,999.1484594742037,108.49999999999999,0.6,30.0,100.0,45.0,10.0,13.90874694302426,-4.6538016272746825,-1.0370899457402696,-1.0370899457402698,12.87165699728399,-5.6908915730149525
21.70000000000004,2008.6849037350507,1353.2940396454533,999.1445353243153,108.99999999999999,0.6,30.0,100.0,45.0,10.0,13.86760577545665,-4.774999598704962,-1.0370899457402696,-1.0370899457402698,12.83051582971638,-5.812089544445232
21.80000000000004,2021.473222325329,1347.3611157642845,999.1406111744268,109.49999999999999,0.6,30.0,100.0,45.0,10.0,13.82540853601862,-4.895833935428637,-1.0370899457402696,-1.0370899457402698,12.78831859027835,-5.932923881168907
21.90000000000004,2034.2182908177822,1341.307730383101,999.1366870245383,109.99999999999999,0.6,30.0,100.0,45.0,10.0,13.782158438193326,-5.016295435443139,-1.0370899457402696,-1.0370899457402698,12.745068492453056,-6.053385381183409
22.000000000000043,2046.9190596476851,1335.1342655122219,999.1327628746499,110.49999999999999,0.6,30.0,100.0,45.0,10.0,13.737858775643168,-5.1363749251388535,-1.0370899457402696,-1.0370899457402698,12.700768829902898,-6.1734648708791235
22.100000000000044,2059.574482623904,1328.8411123064839,999.1288387247614,110.99999999999999,0.6,30.0,100.0,45.0,10.0,13.692512921958963,-5.256063259997735,-1.0370899457402696,-1.0370899457402698,12.655422976218693,-6.293153205738005
22.200000000000045,2072.1835170085665,1322.4286710354538,999.124914574873,111.49999999999999,0.6,30.0,100.0,45.0,10.0,13.64612433040303,-5.3753513252896905,-1.0370899457402696,-1.0370899457402698,12.60903438466276,-6.4124412710299605
22.300000000000047,2084.7451235964722,1315.8973510529468,999.1209904249845,111.99999999999999,0.6,30.0,100.0,45.0,10.0,13.598696533646219,-5.494230036766707,-1.0370899457402696,-1.0370899457402698,12.561606587905949,-6.531319982506977
22.40000000000005,2097.258266794231,1309.2475707658518,999.117066275096,112.49999999999999,0.6,30.0,100.0,45.0,10.0,13.550233143498877,-5.612690341354647,-1.0370899457402696,-1.0370899457402698,12.513143197758607,-6.649780287094917
22.50000000000005,2109.7219146991265,1302.4797576022688,999.1131421252076,112.99999999999999,0.6,30.0,100.0,45.0,10.0,13.500737850635796,-5.73072321784268,-1.0370899457402696,-1.0370899457402698,12.463647904895526,-6.76781316358295
22.60000000000005,2122.1350391777014,1295.5943479789582,999.1092179753191,113.49999999999999,0.6,30.0,100.0,45.0,10.0,13.450214424315156,-5.8483196775702755,-1.0370899457402696,-1.0370899457402698,12.413124478574886,-6.8854096233105455
22.700000000000053,2134.496615944053,1288.5917872681061,999.1052938254306,113.99999999999999,0.6,30.0,100.0,45.0,10.0,13.398666712091483,-5.965470765111735,-1.0370899457402696,-1.0370899457402698,12.361576766351213,-7.002560710852005
22.800000000000054,2146.805624637835,1281.4725297634077,999.1013696755422,114.49999999999999,0.6,30.0,100.0,45.0,10.0,13.346098639522639,-6.0821675589581705,-1.0370899457402696,-1.0370899457402698,12.309008693782369,-7.1192575046984405
22.900000000000055,2159.0610489019655,1274.2370386454704,999.0974455256537,114.99999999999999,0.6,30.0,100.0,45.0,10.0,13.29251420987087,-6.198401172196923,-1.0370899457402696,-1.0370899457402698,12.2554242641306,-7.235491117937193
23.000000000000057,2171.2618764600234,1266.8857859465418,999.0935213757652,115.49999999999999,0.6,30.0,100.0,45.0,10.0,13.237917503797961,-6.314162753188326,-1.0370899457402696,-1.0370899457402698,12.200827558057691,-7.3512526989285965
23.10000000000006,2183.4070991933377,1259.4192525145618,999.0895972258768,115.99999999999999,0.6,30.0,100.0,45.0,10.0,13.182312679054453,-6.4294434862398,-1.0370899457402696,-1.0370899457402698,12.145222733314183,-7.4665334319800705
23.20000000000006,2195.4957132177606,1251.8379279765443,999.0856730759883,116.49999999999999,0.6,30.0,100.0,45.0,10.0,13.12570397016304,-6.544234592277193,-1.0370899457402696,-1.0370899457402698,12.08861402442277,-7.581324538017463
23.30000000000006,2207.5267189601163,1244.1423107012906,999.0817489260999,116.99999999999999,0.6,30.0,100.0,45.0,10.0,13.068095688096067,-6.65852732951335,-1.0370899457402696,-1.0370899457402698,12.031005742355797,-7.69561727525362
23.400000000000063,2219.4991212343234,1236.3329077614364,999.0778247762114,117.49999999999999,0.6,30.0,100.0,45.0,10.0,13.009492219947257,-6.77231299411383,-1.0370899457402696,-1.0370899457402698,11.972402274206987,-7.8094029398541
23.500000000000064,2231.4119293171807,1228.4102348948365,999.0739006263229,117.99999999999999,0.6,30.0,100.0,45.0,10.0,12.9498980285976,-6.885582920859729,-1.0370899457402696,-1.0370899457402698,11.91280808285733,-7.922672866599999
23.600000000000065,2243.264157023816,1220.3748164652886,999.0699764764345,118.49999999999999,0.6,30.0,100.0,45.0,10.0,12.889317652375496,-6.998328483807588,-1.0370899457402696,-1.0370899457402698,11.852227706635226,-8.035418429547857
23.700000000000067,2255.054822782787,1212.2271854226021,999.066052326546,118.99999999999999,0.6,30.0,100.0,45.0,10.0,12.827755704711143,-7.110541096946275,-1.0370899457402696,-1.0370899457402698,11.790665758970873,-8.147631042686545
23.800000000000068,2266.782949710832,1203.9678832620111,999.0621281766576,119.49999999999999,0.6,30.0,100.0,45.0,10.0,12.7652168737852,-7.222212214850849,-1.0370899457402696,-1.0370899457402698,11.72812692804493,-8.259302160591119
23.90000000000007,2278.4475656872632,1195.5974599829376,999.0582040267691,119.99999999999999,0.6,30.0,100.0,45.0,10.0,12.701705922171772,-7.333333333333331,-1.0370899457402696,-1.0370899457402698,11.664615976431502,-8.3704232790736
24.00000000000007,2290.047703427999,1187.116474047107,999.0542798768806,120.49999999999999,0.6,30.0,100.0,45.0,10.0,12.637227686475716,-7.4438959900903265,-1.0370899457402696,-1.0370899457402698,11.600137740735446,-8.480985935830596
24.100000000000072,2301.582400559223,1178.5254923360192,999.0503557269922,120.99999999999999,0.6,30.0,100.0,45.0,10.0,12.571787076964318,-7.553891765347461,-1.0370899457402696,-1.0370899457402698,11.534697131224048,-8.59098171108773
24.200000000000074,2313.050699690676,1169.8250901077784,999.0464315771037,121.49999999999999,0.6,30.0,100.0,45.0,10.0,12.505389077193358,-7.663312282500582,-1.0370899457402696,-1.0370899457402698,11.468299131453088,-8.700402228240852
24.300000000000075,2324.4516484885635,1161.0158509532844,999.0425074272152,121.99999999999999,0.6,30.0,100.0,45.0,10.0,12.438038743627585,-7.772149208753672,-1.0370899457402696,-1.0370899457402698,11.400948797887315,-8.809239154493941
24.400000000000077,2335.784299748079,1152.0983667517908,999.0385832773268,122.49999999999999,0.6,30.0,100.0,45.0,10.0,12.36974120525566,-7.880394255753414,-1.0370899457402696,-1.0370899457402698,11.33265125951539,-8.917484201493684
24.500000000000078,2347.047711465538,1143.0732376258302,999.0346591274383,122.99999999999999,0.6,30.0,100.0,45.0,10.0,12.300501663199556,-7.988039180220396,-1.0370899457402696,-1.0370899457402698,11.263411717459286,-9.025129125960666
24.60000000000008,2358.2409469101162,1133.941071895513,999.0307349775499,123.49999999999999,0.6,30.0,100.0,45.0,10.0,12.230325390318471,-8.095075784576851,-1.0370899457402696,-1.0370899457402698,11.193235444578201,-9.132165730317121
24.70000000000008,2369.363074695183,1124.7024860322017,999.0268108276614,123.99999999999999,0.6,30.0,100.0,45.0,10.0,12.159217730807283,-8.201495917570952,-1.0370899457402696,-1.0370899457402698,11.122127785067013,-9.238585863311222
24.800000000000082,2380.4131688492325,1115.358104611564,999.0228866777729,124.49999999999999,0.6,30.0,100.0,45.0,10.0,12.087184099789567,-8.307291474897546,-1.0370899457402696,-1.0370899457402698,11.050094154049297,-9.344381420637816
24.900000000000084,2391.3903088863976,1105.9085602660084,999.0189625278845,124.99999999999999,0.6,30.0,100.0,45.0,10.0,12.014229982905217,-8.41245439981534,-1.0370899457402696,-1.0370899457402698,10.977140037164947,-9.44954434555561
25.000000000000085,2402.29357987655,1096.3544936365076,999.015038377996,125.49999999999999,0.6,30.0,100.0,45.0,10.0,11.940360935892686,-8.516976683760449,-1.0370899457402696,-1.0370899457402698,10.903270990152416,-9.554066629500719
25.100000000000087,2413.122072514976,1086.696553323811,999.0111142281075,125.99999999999999,0.6,30.0,100.0,45.0,10.0,11.8655825841659,-8.62085036695627,-1.0370899457402696,-1.0370899457402698,10.82849263842563,-9.65794031269654
25.200000000000088,2423.874883191622,1076.9353958390511,999.0071900782191,126.49999999999999,0.6,30.0,100.0,45.0,10.0,11.78990062238586,-8.724067539019671,-1.0370899457402696,-1.0370899457402698,10.75281067664559,-9.761157484759941
25.30000000000009,2434.5511140599087,1067.0716855537476,999.0032659283306,126.99999999999999,0.6,30.0,100.0,45.0,10.0,11.713320814026966,-8.826620339563373,-1.0370899457402696,-1.0370899457402698,10.676230868286696,-9.863710285303643
25.40000000000009,2445.1498731051065,1057.1060946492128,998.9993417784422,127.49999999999999,0.6,30.0,100.0,45.0,10.0,11.63584899093812,-8.928500958794569,-1.0370899457402696,-1.0370899457402698,10.59875904519785,-9.965590904534839
25.500000000000092,2455.6702742122648,1047.039303065363,998.9954176285537,127.99999999999999,0.6,30.0,100.0,45.0,10.0,11.557491052898593,-9.029701638109653,-1.0370899457402696,-1.0370899457402698,10.520401107158323,-10.066791583849923
25.600000000000094,2466.1114372336933,1036.8719984489376,998.9914934786652,128.49999999999997,0.6,30.0,100.0,45.0,10.0,11.478252967168745,-9.130214670685083,-1.0370899457402696,-1.0370899457402698,10.441163021428475,-10.167304616425353
25.700000000000095,2476.472488055989,1026.604876101133,998.9875693287768,128.99999999999997,0.6,30.0,100.0,45.0,10.0,11.39814076803558,-9.230032402064278,-1.0370899457402696,-1.0370899457402698,10.36105082229531,-10.267122347804548
25.800000000000097,2486.752558666602,1016.2386389246522,998.9836451788883,129.49999999999997,0.6,30.0,100.0,45.0,10.0,11.317160556353233,-9.329147230740533,-1.0370899457402696,-1.0370899457402698,10.280070610612963,-10.366237176480803
