time,x,y,altitude,yaw,pitch,roll,speed,wind_dir,wind_spd,dx,dy,wind_dx,wind_dy,vmg_dx,vmg_dy
0.0,0.12798918730948383,14.666108204941182,999.9960758501115,0.49999999999999994,0.6,30.0,100.0,0.0,0.0,0.12798918730948383,14.666108204941182,0.0,-0.0,0.12798918730948383,14.666108204941182
0.1,0.38395781505631,29.330541067234925,999.9921517002231,0.9999999999999999,0.6,30.0,100.0,0.0,0.0,0.25596862774682616,14.664432862293742,0.0,-0.0,0.25596862774682616,14.664432862293742
0.2,0.7678863902384527,43.9921818335431,999.9882275503346,1.4999999999999998,0.6,30.0,100.0,0.0,0.0,0.3839285751821427,14.661640766308176,0.0,-0.0,0.3839285751821427,14.661640766308176
0.30000000000000004,1.2797456752084688,58.64991396315651,999.9843034004462,1.9999999999999998,0.6,30.0,100.0,0.0,0.0,0.511859284970016,14.657732129613407,0.0,-0.0,0.511859284970016,14.657732129613407
0.4,1.9194966899000638,73.30262121302376,999.9803792505577,2.4999999999999996,0.6,30.0,100.0,0.0,0.0,0.6397510146915949,14.65270724986725,0.0,-0.0,0.6397510146915949,14.65270724986725
0.5,2.6870907147965752,87.9491877227575,999.9764551006692,2.9999999999999996,0.6,30.0,100.0,0.0,0.0,0.7675940248965116,14.646566509733752,0.0,-0.0,0.7675940248965116,14.646566509733752
0.6,3.582469294641143,102.58849809961156,999.9725309507808,3.4999999999999996,0.6,30.0,100.0,0.0,0.0,0.8953785798445681,14.63931037685405,0.0,-0.0,0.8953785798445681,14.63931037685405
0.7,4.605564242888313,117.21943750342231,999.9686068008923,3.9999999999999996,0.6,30.0,100.0,0.0,0.0,1.0230949482471703,14.630939403810757,0.0,-0.0,1.0230949482471703,14.630939403810757
0.7999999999999999,5.756297646896707,131.84089173150818,999.9646826510038,4.499999999999999,0.6,30.0,100.0,0.0,0.0,1.1507334040083936,14.621454228085879,0.0,-0.0,1.1507334040083936,14.621454228085879
0.8999999999999999,7.034581873862363,146.45174730352045,999.9607585011154,4.999999999999999,0.6,30.0,100.0,0.0,0.0,1.2782842269656562,14.610855572012271,0.0,-0.0,1.2782842269656562,14.610855572012271
0.9999999999999999,8.440319577492316,161.0508915462391,999.9568343512269,5.499999999999999,0.6,30.0,100.0,0.0,0.0,1.4057377036299534,14.599144242718626,0.0,-0.0,1.4057377036299534,14.599144242718626
1.0999999999999999,9.9734037054179,175.6372126783071,999.9529102013385,5.999999999999999,0.6,30.0,100.0,0.0,0.0,1.5330841279255842,14.586321132068012,0.0,-0.0,1.5330841279255842,14.586321132068012
1.2,11.6337175073472,190.20959989489705,999.94898605145,6.499999999999999,0.6,30.0,100.0,0.0,0.0,1.6603138019293004,14.572387216589952,0.0,-0.0,1.6603138019293004,14.572387216589952
1.3,13.421134543956029,204.7669434523031,999.9450619015615,6.999999999999999,0.6,30.0,100.0,0.0,0.0,1.7874170366088302,14.557343557406059,0.0,-0.0,1.7874170366088302,14.557343557406059
1.4000000000000001,15.335518696516788,219.30813475245233,999.9411377516731,7.499999999999999,0.6,30.0,100.0,0.0,0.0,1.9143841525607588,14.541191300149222,0.0,-0.0,1.9143841525607588,14.541191300149222
1.5000000000000002,17.376724177264414,233.8320664273287,999.9372136017846,7.999999999999999,0.6,30.0,100.0,0.0,0.0,2.041205480747627,14.523931674876367,0.0,-0.0,2.041205480747627,14.523931674876367
1.6000000000000003,19.544595540498705,248.3376324233035,999.9332894518961,8.499999999999998,0.6,30.0,100.0,0.0,0.0,2.167871363234292,14.505565995974782,0.0,-0.0,2.167871363234292,14.505565995974782
1.7000000000000004,21.83896769442209,262.82372808536553,999.9293653020077,8.999999999999998,0.6,30.0,100.0,0.0,0.0,2.2943721539233874,14.486095662062024,0.0,-0.0,2.2943721539233874,14.486095662062024
1.8000000000000005,24.25966591371203,277.28925024124493,999.9254411521192,9.499999999999998,0.6,30.0,100.0,0.0,0.0,2.4206982192899384,14.465522155879396,0.0,-0.0,2.4206982192899384,14.465522155879396
1.9000000000000006,26.80650585282701,291.733097285424,999.9215170022308,9.999999999999998,0.6,30.0,100.0,0.0,0.0,2.54683993911498,14.443847044179053,0.0,-0.0,2.54683993911498,14.443847044179053
2.0000000000000004,29.479293560045175,306.1541692630286,999.9175928523423,10.499999999999998,0.6,30.0,100.0,0.0,0.0,2.6727877072181663,14.421071977604669,0.0,-0.0,2.6727877072181663,14.421071977604669
2.1000000000000005,32.2778254922345,320.55136795359437,999.9136687024538,10.999999999999998,0.6,30.0,100.0,0.0,0.0,2.798531932189326,14.397198690565741,0.0,-0.0,2.798531932189326,14.397198690565741
2.2000000000000006,35.20188853035339,334.92359695469986,999.9097445525654,11.499999999999998,0.6,30.0,100.0,0.0,0.0,2.924063038118893,14.372229001105504,0.0,-0.0,2.924063038118893,14.372229001105504
2.3000000000000007,38.25125999568053,349.26976176546236,999.9058204026769,11.999999999999998,0.6,30.0,100.0,0.0,0.0,3.049371465327136,14.346164810762486,0.0,-0.0,3.049371465327136,14.346164810762486
2.400000000000001,41.4257076667727,363.58876986988804,999.9018962527884,12.499999999999998,0.6,30.0,100.0,0.0,0.0,3.1744476710921767,14.319008104425691,0.0,-0.0,3.1744476710921767,14.319008104425691
2.500000000000001,44.72498979714939,377.87953082007147,999.8979721029,12.999999999999998,0.6,30.0,100.0,0.0,0.0,3.2992821303766893,14.290760950183452,0.0,-0.0,3.2992821303766893,14.290760950183452
2.600000000000001,48.148855133702675,392.1409563192374,999.8940479530115,13.499999999999998,0.6,30.0,100.0,0.0,0.0,3.423865336553281,14.261425499165926,0.0,-0.0,3.423865336553281,14.261425499165926
2.700000000000001,51.697042935831135,406.37196030461865,999.8901238031231,13.999999999999998,0.6,30.0,100.0,0.0,0.0,3.54818780212846,14.231003985381285,0.0,-0.0,3.54818780212846,14.231003985381285
2.800000000000001,55.369282995296274,420.57145903016425,999.8861996532346,14.499999999999998,0.6,30.0,100.0,0.0,0.0,3.6722400594651425,14.199498725545583,0.0,-0.0,3.6722400594651425,14.199498725545583
2.9000000000000012,59.16529565679991,434.7383711490706,999.8822755033461,14.999999999999998,0.6,30.0,100.0,0.0,0.0,3.7960126615036383,14.166912118906339,0.0,-0.0,3.7960126615036383,14.166912118906339
3.0000000000000013,63.08479183928102,448.8716177961304,999.8783513534577,15.499999999999998,0.6,30.0,100.0,0.0,0.0,3.9194961824811028,14.133246647059806,0.0,-0.0,3.9194961824811028,14.133246647059806
3.1000000000000014,67.12747305793035,462.9701226698924,999.8744272035692,15.999999999999998,0.6,30.0,100.0,0.0,0.0,4.042681218649322,14.098504873762014,0.0,-0.0,4.042681218649322,14.098504873762014
3.2000000000000015,71.29303144692122,477.0328121146259,999.8705030536807,16.499999999999996,0.6,30.0,100.0,0.0,0.0,4.165558388990868,14.0626894447335,0.0,-0.0,4.165558388990868,14.0626894447335
3.3000000000000016,75.5811497828547,491.0586152020838,999.8665789037923,16.999999999999996,0.6,30.0,100.0,0.0,0.0,4.288118335933474,14.025803087457856,0.0,-0.0,4.288118335933474,14.025803087457856
3.4000000000000017,79.99150150891737,505.0464638130578,999.8626547539038,17.499999999999996,0.6,30.0,100.0,0.0,0.0,4.410351726062673,13.987848610973998,0.0,-0.0,4.410351726062673,13.987848610973998
3.5000000000000018,84.52375075974993,518.9952927187201,999.8587306040154,17.999999999999996,0.6,30.0,100.0,0.0,0.0,4.532249250832564,13.948828905662255,0.0,-0.0,4.532249250832564,13.948828905662255
3.600000000000002,89.17755238702462,532.9040396617444,999.8548064541269,18.499999999999996,0.6,30.0,100.0,0.0,0.0,4.653801627274688,13.90874694302426,0.0,-0.0,4.653801627274688,13.90874694302426
3.700000000000002,93.95255198572958,546.7716454372011,999.8508823042384,18.999999999999996,0.6,30.0,100.0,0.0,0.0,4.774999598704967,13.867605775456648,0.0,-0.0,4.774999598704967,13.867605775456648
3.800000000000002,98.84838592115823,560.5970539732197,999.84695815435,19.499999999999996,0.6,30.0,100.0,0.0,0.0,4.895833935428641,13.82540853601862,0.0,-0.0,4.895833935428641,13.82540853601862
3.900000000000002,103.86468135660137,574.3792124114129,999.8430340044615,19.999999999999996,0.6,30.0,100.0,0.0,0.0,5.016295435443144,13.782158438193324,0.0,-0.0,5.016295435443144,13.782158438193324
4.000000000000002,109.00105628174022,588.1170711870561,999.839109854573,20.499999999999996,0.6,30.0,100.0,0.0,0.0,5.136374925138857,13.737858775643167,0.0,-0.0,5.136374925138857,13.737858775643167
4.100000000000001,114.25711954173795,601.8095841090151,999.8351857046846,20.999999999999996,0.6,30.0,100.0,0.0,0.0,5.256063259997736,13.692512921958961,0.0,-0.0,5.256063259997736,13.692512921958961
4.200000000000001,119.63247086702765,615.4557084394181,999.8312615547961,21.499999999999996,0.6,30.0,100.0,0.0,0.0,5.375351325289695,13.64612433040303,0.0,-0.0,5.375351325289695,13.64612433040303
4.300000000000001,125.12670090379436,629.0544049730644,999.8273374049077,21.999999999999996,0.6,30.0,100.0,0.0,0.0,5.494230036766713,13.598696533646217,0.0,-0.0,5.494230036766713,13.598696533646217
4.4,130.73939124514902,642.6046381165633,999.8234132550192,22.499999999999996,0.6,30.0,100.0,0.0,0.0,5.612690341354652,13.550233143498875,0.0,-0.0,5.612690341354652,13.550233143498875
4.5,136.47011446299172,656.105375967199,999.8194891051307,22.999999999999996,0.6,30.0,100.0,0.0,0.0,5.730723217842682,13.500737850635796,0.0,-0.0,5.730723217842682,13.500737850635796
4.6,142.318434140562,669.5555903915142,999.8155649552423,23.499999999999996,0.6,30.0,100.0,0.0,0.0,5.84831967757028,13.450214424315156,0.0,-0.0,5.84831967757028,13.450214424315156
4.699999999999999,148.28390490567375,682.9542571036056,999.8116408053538,23.999999999999996,0.6,30.0,100.0,0.0,0.0,5.96547076511174,13.398666712091481,0.0,-0.0,5.96547076511174,13.398666712091481
4.799999999999999,154.3660724646319,696.3003557431283,999.8077166554654,24.499999999999996,0.6,30.0,100.0,0.0,0.0,6.082167558958175,13.346098639522637,0.0,-0.0,6.082167558958175,13.346098639522637
4.899999999999999,160.56447363682884,709.5928699529992,999.8037925055769,24.999999999999996,0.6,30.0,100.0,0.0,0.0,6.1984011721969265,13.292514209870868,0.0,-0.0,6.1984011721969265,13.292514209870868
4.999999999999998,166.87863639001716,722.8307874567971,999.7998683556884,25.499999999999996,0.6,30.0,100.0,0.0,0.0,6.314162753188332,13.237917503797958,0.0,-0.0,6.314162753188332,13.237917503797958
5.099999999999998,173.30807987625695,736.0131001358516,999.7959442058,25.999999999999996,0.6,30.0,100.0,0.0,0.0,6.429443486239804,13.182312679054453,0.0,-0.0,6.429443486239804,13.182312679054453
5.1999999999999975,179.85231446853416,749.1388041060146,999.7920200559115,26.499999999999996,0.6,30.0,100.0,0.0,0.0,6.544234592277196,13.125703970163038,0.0,-0.0,6.544234592277196,13.125703970163038
5.299999999999997,186.51084179804752,762.2068997941107,999.788095906023,26.999999999999996,0.6,30.0,100.0,0.0,0.0,6.658527329513356,13.068095688096063,0.0,-0.0,6.658527329513356,13.068095688096063
5.399999999999997,193.28315479216135,775.2163920140579,999.7841717561346,27.499999999999996,0.6,30.0,100.0,0.0,0.0,6.772312994113834,13.009492219947253,0.0,-0.0,6.772312994113834,13.009492219947253
5.4999999999999964,200.1687377130211,788.1662900426554,999.7802476062461,27.999999999999996,0.6,30.0,100.0,0.0,0.0,6.885582920859734,12.949898028597596,0.0,-0.0,6.885582920859734,12.949898028597596
5.599999999999996,207.1670661968287,801.0556076950309,999.7763234563577,28.499999999999996,0.6,30.0,100.0,0.0,0.0,6.998328483807591,12.889317652375494,0.0,-0.0,6.998328483807591,12.889317652375494
5.699999999999996,214.277607293775,813.883363399742,999.7723993064692,28.999999999999996,0.6,30.0,100.0,0.0,0.0,7.110541096946279,12.82775570471114,0.0,-0.0,7.110541096946279,12.82775570471114
5.799999999999995,221.49981950862585,826.6485802735273,999.7684751565807,29.499999999999996,0.6,30.0,100.0,0.0,0.0,7.2222122148508525,12.765216873785198,0.0,-0.0,7.2222122148508525,12.765216873785198
5.899999999999995,228.8331528419592,839.350286195699,999.7645510066923,29.999999999999996,0.6,30.0,100.0,0.0,0.0,7.333333333333337,12.701705922171769,0.0,-0.0,7.333333333333337,12.701705922171769
5.999999999999995,236.27704883204953,851.9875138821748,999.7606268568038,30.499999999999996,0.6,30.0,100.0,0.0,0.0,7.44389599009033,12.637227686475713,0.0,-0.0,7.44389599009033,12.637227686475713
6.099999999999994,243.830940597397,864.5593009591391,999.7567027069153,30.999999999999996,0.6,30.0,100.0,0.0,0.0,7.5538917653474655,12.571787076964315,0.0,-0.0,7.5538917653474655,12.571787076964315
6.199999999999994,251.49425287989757,877.0646900363325,999.7527785570269,31.499999999999996,0.6,30.0,100.0,0.0,0.0,7.663312282500586,12.505389077193355,0.0,-0.0,7.663312282500586,12.505389077193355
6.299999999999994,259.26640208865126,889.5027287799601,999.7488544071384,31.999999999999996,0.6,30.0,100.0,0.0,0.0,7.772149208753674,12.438038743627585,0.0,-0.0,7.772149208753674,12.438038743627585
6.399999999999993,267.14679634440466,901.8724699852157,999.74493025725,32.49999999999999,0.6,30.0,100.0,0.0,0.0,7.880394255753416,12.36974120525566,0.0,-0.0,7.880394255753416,12.36974120525566
6.499999999999993,275.1348355246251,914.1729716484153,999.7410061073615,32.99999999999999,0.6,30.0,100.0,0.0,0.0,7.988039180220399,12.300501663199555,0.0,-0.0,7.988039180220399,12.300501663199555
6.5999999999999925,283.22991130920195,926.4032970387339,999.737081957473,33.49999999999999,0.6,30.0,100.0,0.0,0.0,8.095075784576853,12.23032539031847,0.0,-0.0,8.095075784576853,12.23032539031847
6.699999999999992,291.43140722677293,938.5625147695412,999.7331578075846,33.99999999999999,0.6,30.0,100.0,0.0,0.0,8.201495917570954,12.159217730807281,0.0,-0.0,8.201495917570954,12.159217730807281
6.799999999999992,299.7386987016705,950.6496988693307,999.7292336576961,34.49999999999999,0.6,30.0,100.0,0.0,0.0,8.30729147489755,12.087184099789566,0.0,-0.0,8.30729147489755,12.087184099789566
6.8999999999999915,308.1511531014858,962.6639288522359,999.7253095078077,34.99999999999999,0.6,30.0,100.0,0.0,0.0,8.412454399815344,12.014229982905215,0.0,-0.0,8.412454399815344,12.014229982905215
6.999999999999991,316.66812978524626,974.6042897881287,999.7213853579192,35.49999999999999,0.6,30.0,100.0,0.0,0.0,8.51697668376045,11.940360935892684,0.0,-0.0,8.51697668376045,11.940360935892684
7.099999999999991,325.28898015220256,986.4698723722945,999.7174612080307,35.99999999999999,0.6,30.0,100.0,0.0,0.0,8.620850366956272,11.865582584165898,0.0,-0.0,8.620850366956272,11.865582584165898
7.19999999999999,334.01304769122225,998.2597729946804,999.7135370581423,36.49999999999999,0.6,30.0,100.0,0.0,0.0,8.724067539019671,11.789900622385858,0.0,-0.0,8.724067539019671,11.789900622385858
7.29999999999999,342.8396680307856,1009.9730938087073,999.7096129082538,36.99999999999999,0.6,30.0,100.0,0.0,0.0,8.826620339563375,11.713320814026966,0.0,-0.0,8.826620339563375,11.713320814026966
7.39999999999999,351.7681689895802,1021.6089427996454,999.7056887583653,37.49999999999999,0.6,30.0,100.0,0.0,0.0,8.928500958794572,11.635848990938118,0.0,-0.0,8.928500958794572,11.635848990938118
7.499999999999989,360.79787062768986,1033.166433852544,999.7017646084769,37.99999999999999,0.6,30.0,100.0,0.0,0.0,9.029701638109657,11.557491052898591,0.0,-0.0,9.029701638109657,11.557491052898591
7.599999999999989,369.9280852983749,1044.644686819713,999.6978404585884,38.49999999999999,0.6,30.0,100.0,0.0,0.0,9.130214670685087,11.478252967168741,0.0,-0.0,9.130214670685087,11.478252967168741
7.699999999999989,379.1581177004392,1056.0428275877484,999.6939163087,38.99999999999999,0.6,30.0,100.0,0.0,0.0,9.230032402064284,11.398140768035576,0.0,-0.0,9.230032402064284,11.398140768035576
7.799999999999988,388.48726493117977,1067.3599881441016,999.6899921588115,39.49999999999999,0.6,30.0,100.0,0.0,0.0,9.329147230740539,11.31716055635323,0.0,-0.0,9.329147230740539,11.31716055635323
7.899999999999988,397.9148165399157,1078.59530664318,999.686068008923,39.99999999999999,0.6,30.0,100.0,0.0,0.0,9.427551608735913,11.235318499078346,0.0,-0.0,9.427551608735913,11.235318499078346
7.999999999999988,407.44005458209176,1089.7479274719806,999.6821438590346,40.49999999999999,0.6,30.0,100.0,0.0,0.0,9.525238042176028,11.152620828800458,0.0,-0.0,9.525238042176028,11.152620828800458
8.099999999999987,417.0622536739525,1100.8170013152478,999.6782197091461,40.99999999999999,0.6,30.0,100.0,0.0,0.0,9.622199091860775,11.069073843267326,0.0,-0.0,9.622199091860775,11.069073843267326
8.199999999999987,426.78068104778333,1111.801685220153,999.6742955592576,41.49999999999999,0.6,30.0,100.0,0.0,0.0,9.718427373830817,10.984683904905367,0.0,-0.0,9.718427373830817,10.984683904905367
8.299999999999986,436.59459660771324,1122.7011426604881,999.6703714093692,41.99999999999999,0.6,30.0,100.0,0.0,0.0,9.81391555992992,10.89945744033512,0.0,-0.0,9.81391555992992,10.89945744033512
8.399999999999986,446.50325298607623,1133.51454360037,999.6664472594807,42.49999999999999,0.6,30.0,100.0,0.0,0.0,9.908656378363018,10.813400939881822,0.0,-0.0,9.908656378363018,10.813400939881822
8.499999999999986,456.5058956003262,1144.2410645574512,999.6625231095923,42.99999999999999,0.6,30.0,100.0,0.0,0.0,10.00264261424998,10.726520957081169,0.0,-0.0,10.00264261424998,10.726520957081169
8.599999999999985,466.60176271050125,1154.8798886656314,999.6585989597038,43.49999999999999,0.6,30.0,100.0,0.0,0.0,10.095867110175059,10.63882410818022,0.0,-0.0,10.095867110175059,10.63882410818022
8.699999999999985,476.7900854772332,1165.430205737265,999.6546748098153,43.99999999999999,0.6,30.0,100.0,0.0,0.0,10.188322766731961,10.550317071633552,0.0,-0.0,10.188322766731961,10.550317071633552
8.799999999999985,487.0700880202977,1175.8912123248597,999.6507506599269,44.49999999999999,0.6,30.0,100.0,0.0,0.0,10.280002543064482,10.461006587594667,0.0,-0.0,10.280002543064482,10.461006587594667
8.899999999999984,497.4409874777004,1186.2621117822623,999.6468265100384,44.99999999999999,0.6,30.0,100.0,0.0,0.0,10.370899457402697,10.370899457402702,0.0,-0.0,10.370899457402697,10.370899457402702
8.999999999999984,507.90199406529507,1196.5421143253268,999.64290236015,45.49999999999999,0.6,30.0,100.0,0.0,0.0,10.461006587594666,10.280002543064482,0.0,-0.0,10.461006587594666,10.280002543064482
9.099999999999984,518.4523111369286,1206.7304370920588,999.6389782102615,45.99999999999999,0.6,30.0,100.0,0.0,0.0,10.55031707163355,10.188322766731963,0.0,-0.0,10.55031707163355,10.188322766731963
9.199999999999983,529.0911352451088,1216.8263042022338,999.635054060373,46.49999999999999,0.6,30.0,100.0,0.0,0.0,10.63882410818022,10.09586711017506,0.0,-0.0,10.63882410818022,10.09586711017506
9.299999999999983,539.81765620219,1226.8289468164837,999.6311299104846,46.99999999999999,0.6,30.0,100.0,0.0,0.0,10.726520957081167,10.00264261424998,0.0,-0.0,10.726520957081167,10.00264261424998
9.399999999999983,550.6310571420719,1236.7376031948468,999.6272057605961,47.49999999999999,0.6,30.0,100.0,0.0,0.0,10.81340093988182,9.90865637836302,0.0,-0.0,10.81340093988182,9.90865637836302
9.499999999999982,561.530514582407,1246.5515187547767,999.6232816107076,47.99999999999999,0.6,30.0,100.0,0.0,0.0,10.899457440335116,9.813915559929924,0.0,-0.0,10.899457440335116,9.813915559929924
9.599999999999982,572.5151984873124,1256.2699461286074,999.6193574608192,48.49999999999999,0.6,30.0,100.0,0.0,0.0,10.984683904905365,9.71842737383082,0.0,-0.0,10.984683904905365,9.71842737383082
9.699999999999982,583.5842723305798,1265.8921452204681,999.6154333109307,48.99999999999999,0.6,30.0,100.0,0.0,0.0,11.069073843267324,9.622199091860777,0.0,-0.0,11.069073843267324,9.622199091860777
9.799999999999981,594.7368931593802,1275.417383262644,999.6115091610422,49.49999999999999,0.6,30.0,100.0,0.0,0.0,11.152620828800456,9.52523804217603,0.0,-0.0,11.152620828800456,9.52523804217603
9.89999999999998,605.9722116584585,1284.84493487138,999.6075850111538,49.99999999999999,0.6,30.0,100.0,0.0,0.0,11.235318499078346,9.427551608735913,0.0,-0.0,11.235318499078346,9.427551608735913
9.99999999999998,617.2893722148117,1294.1740821021206,999.6036608612653,50.49999999999999,0.6,30.0,100.0,0.0,0.0,11.317160556353228,9.329147230740542,0.0,-0.0,11.317160556353228,9.329147230740542
10.09999999999998,628.6875129828472,1303.404114504185,999.5997367113769,50.99999999999999,0.6,30.0,100.0,0.0,0.0,11.398140768035576,9.230032402064285,0.0,-0.0,11.398140768035576,9.230032402064285
10.19999999999998,640.165765950016,1312.53432917487,999.5958125614884,51.49999999999999,0.6,30.0,100.0,0.0,0.0,11.478252967168737,9.13021467068509,0.0,-0.0,11.478252967168737,9.13021467068509
10.29999999999998,651.7232570029146,1321.5640308129796,999.5918884115999,51.99999999999999,0.6,30.0,100.0,0.0,0.0,11.557491052898591,9.029701638109657,0.0,-0.0,11.557491052898591,9.029701638109657
10.399999999999979,663.3591059938527,1330.492531771774,999.5879642617115,52.49999999999999,0.6,30.0,100.0,0.0,0.0,11.635848990938117,8.928500958794572,0.0,-0.0,11.635848990938117,8.928500958794572
10.499999999999979,675.0724268078797,1339.3191521113374,999.584040111823,52.99999999999999,0.6,30.0,100.0,0.0,0.0,11.713320814026964,8.826620339563378,0.0,-0.0,11.713320814026964,8.826620339563378
10.599999999999978,686.8623274302655,1348.043219650357,999.5801159619346,53.49999999999999,0.6,30.0,100.0,0.0,0.0,11.789900622385856,8.724067539019675,0.0,-0.0,11.789900622385856,8.724067539019675
10.699999999999978,698.7279100144314,1356.6640700173134,999.5761918120461,53.99999999999999,0.6,30.0,100.0,0.0,0.0,11.865582584165896,8.620850366956276,0.0,-0.0,11.865582584165896,8.620850366956276
10.799999999999978,710.6682709503241,1365.181046701074,999.5722676621576,54.49999999999999,0.6,30.0,100.0,0.0,0.0,11.940360935892683,8.516976683760452,0.0,-0.0,11.940360935892683,8.516976683760452
10.899999999999977,722.6825009332293,1373.5935011008892,999.5683435122692,54.99999999999999,0.6,30.0,100.0,0.0,0.0,12.014229982905215,8.412454399815346,0.0,-0.0,12.014229982905215,8.412454399815346
10.999999999999977,734.7696850330188,1381.9007925757867,999.5644193623807,55.49999999999999,0.6,30.0,100.0,0.0,0.0,12.087184099789564,8.30729147489755,0.0,-0.0,12.087184099789564,8.30729147489755
11.099999999999977,746.9289027638262,1390.1022884933577,999.5604952124922,55.99999999999999,0.6,30.0,100.0,0.0,0.0,12.15921773080728,8.201495917570956,0.0,-0.0,12.15921773080728,8.201495917570956
11.199999999999976,759.1592281541447,1398.1973642779346,999.5565710626038,56.49999999999999,0.6,30.0,100.0,0.0,0.0,12.23032539031847,8.095075784576855,0.0,-0.0,12.23032539031847,8.095075784576855
11.299999999999976,771.4597298173442,1406.185403458155,999.5526469127153,56.99999999999999,0.6,30.0,100.0,0.0,0.0,12.300501663199553,7.9880391802204,0.0,-0.0,12.300501663199553,7.9880391802204
11.399999999999975,783.8294710225998,1414.0657977139083,999.5487227628269,57.49999999999999,0.6,30.0,100.0,0.0,0.0,12.369741205255657,7.880394255753418,0.0,-0.0,12.369741205255657,7.880394255753418
11.499999999999975,796.2675097662274,1421.837946922662,999.5447986129384,57.99999999999999,0.6,30.0,100.0,0.0,0.0,12.438038743627583,7.772149208753675,0.0,-0.0,12.438038743627583,7.772149208753675
11.599999999999975,808.7728988434208,1429.5012592051626,999.5408744630499,58.49999999999999,0.6,30.0,100.0,0.0,0.0,12.505389077193355,7.663312282500586,0.0,-0.0,12.505389077193355,7.663312282500586
11.699999999999974,821.3446859203851,1437.05515097051,999.5369503131615,58.99999999999999,0.6,30.0,100.0,0.0,0.0,12.571787076964315,7.553891765347464,0.0,-0.0,12.571787076964315,7.553891765347464
11.799999999999974,833.9819136068609,1444.4990469606005,999.533026163273,59.49999999999999,0.6,30.0,100.0,0.0,0.0,12.637227686475713,7.44389599009033,0.0,-0.0,12.637227686475713,7.44389599009033
11.899999999999974,846.6836195290326,1451.8323802939337,999.5291020133845,59.99999999999999,0.6,30.0,100.0,0.0,0.0,12.701705922171769,7.333333333333337,0.0,-0.0,12.701705922171769,7.333333333333337
11.999999999999973,859.4488364028178,1459.0545925087845,999.5251778634961,60.49999999999999,0.6,30.0,100.0,0.0,0.0,12.765216873785198,7.222212214850853,0.0,-0.0,12.765216873785198,7.222212214850853
12.099999999999973,872.276592107529,1466.1651336057307,999.5212537136076,60.99999999999999,0.6,30.0,100.0,0.0,0.0,12.82775570471114,7.11054109694628,0.0,-0.0,12.82775570471114,7.11054109694628
12.199999999999973,885.1659097599045,1473.1634620895384,999.5173295637192,61.49999999999999,0.6,30.0,100.0,0.0,0.0,12.889317652375492,6.998328483807593,0.0,-0.0,12.889317652375492,6.998328483807593
12.299999999999972,898.115807788502,1480.049045010398,999.5134054138307,61.99999999999999,0.6,30.0,100.0,0.0,0.0,12.949898028597596,6.885582920859733,0.0,-0.0,12.949898028597596,6.885582920859733
12.399999999999972,911.1253000084492,1486.821358004512,999.5094812639422,62.49999999999999,0.6,30.0,100.0,0.0,0.0,13.009492219947253,6.772312994113833,0.0,-0.0,13.009492219947253,6.772312994113833
12.499999999999972,924.1933956965453,1493.4798853340253,999.5055571140538,62.99999999999999,0.6,30.0,100.0,0.0,0.0,13.068095688096063,6.6585273295133565,0.0,-0.0,13.068095688096063,6.6585273295133565
12.599999999999971,937.3190996667083,1500.0241199263025,999.5016329641653,63.49999999999999,0.6,30.0,100.0,0.0,0.0,13.125703970163036,6.544234592277198,0.0,-0.0,13.125703970163036,6.544234592277198
12.69999999999997,950.5014123457628,1506.4535634125423,999.4977088142768,63.99999999999999,0.6,30.0,100.0,0.0,0.0,13.182312679054451,6.429443486239805,0.0,-0.0,13.182312679054451,6.429443486239805
12.79999999999997,963.7393298495607,1512.7677261657307,999.4937846643884,64.49999999999999,0.6,30.0,100.0,0.0,0.0,13.237917503797958,6.3141627531883335,0.0,-0.0,13.237917503797958,6.3141627531883335
12.89999999999997,977.0318440594316,1518.9661273379277,999.4898605144999,64.99999999999999,0.6,30.0,100.0,0.0,0.0,13.292514209870866,6.198401172196929,0.0,-0.0,13.292514209870866,6.198401172196929
12.99999999999997,990.3779426989543,1525.0482948968859,999.4859363646115,65.49999999999999,0.6,30.0,100.0,0.0,0.0,13.346098639522635,6.082167558958177,0.0,-0.0,13.346098639522635,6.082167558958177
13.09999999999997,1003.7766094110457,1531.0137656619977,999.482012214723,65.99999999999999,0.6,30.0,100.0,0.0,0.0,13.398666712091481,5.965470765111741,0.0,-0.0,13.398666712091481,5.965470765111741
13.199999999999969,1017.2268238353608,1536.862085339568,999.4780880648345,66.49999999999999,0.6,30.0,100.0,0.0,0.0,13.450214424315154,5.848319677570283,0.0,-0.0,13.450214424315154,5.848319677570283
13.299999999999969,1030.7275616859965,1542.5928085574108,999.4741639149461,66.99999999999999,0.6,30.0,100.0,0.0,0.0,13.500737850635794,5.7307232178426855,0.0,-0.0,13.500737850635794,5.7307232178426855
13.399999999999968,1044.2777948294954,1548.2054988987654,999.4702397650576,67.49999999999999,0.6,30.0,100.0,0.0,0.0,13.550233143498874,5.6126903413546545,0.0,-0.0,13.550233143498874,5.6126903413546545
13.499999999999968,1057.8764913631417,1553.6997289355322,999.4663156151692,67.99999999999999,0.6,30.0,100.0,0.0,0.0,13.598696533646217,5.494230036766715,0.0,-0.0,13.598696533646217,5.494230036766715
13.599999999999968,1071.5226156935446,1559.075080260822,999.4623914652807,68.49999999999999,0.6,30.0,100.0,0.0,0.0,13.646124330403028,5.3753513252896985,0.0,-0.0,13.646124330403028,5.3753513252896985
13.699999999999967,1085.2151286155035,1564.3311435208198,999.4584673153922,68.99999999999999,0.6,30.0,100.0,0.0,0.0,13.69251292195896,5.256063259997742,0.0,-0.0,13.69251292195896,5.256063259997742
13.799999999999967,1098.9529873911467,1569.4675184459586,999.4545431655038,69.49999999999999,0.6,30.0,100.0,0.0,0.0,13.737858775643167,5.13637492513886,0.0,-0.0,13.737858775643167,5.13637492513886
13.899999999999967,1112.7351458293401,1574.4838138814018,999.4506190156153,69.99999999999999,0.6,30.0,100.0,0.0,0.0,13.782158438193324,5.016295435443145,0.0,-0.0,13.782158438193324,5.016295435443145
13.999999999999966,1126.5605543653587,1579.3796478168306,999.4466948657268,70.49999999999999,0.6,30.0,100.0,0.0,0.0,13.825408536018617,4.895833935428644,0.0,-0.0,13.825408536018617,4.895833935428644
14.099999999999966,1140.4281601408154,1584.1546474155355,999.4427707158384,70.99999999999999,0.6,30.0,100.0,0.0,0.0,13.867605775456648,4.7749995987049685,0.0,-0.0,13.867605775456648,4.7749995987049685
14.199999999999966,1154.3369070838396,1588.8084490428103,999.4388465659499,71.49999999999999,0.6,30.0,100.0,0.0,0.0,13.908746943024259,4.653801627274689,0.0,-0.0,13.908746943024259,4.653801627274689
14.299999999999965,1168.285735989502,1593.3406982936428,999.4349224160615,71.99999999999999,0.6,30.0,100.0,0.0,0.0,13.948828905662255,4.532249250832566,0.0,-0.0,13.948828905662255,4.532249250832566
14.399999999999965,1182.273584600476,1597.7510500197054,999.430998266173,72.49999999999999,0.6,30.0,100.0,0.0,0.0,13.987848610973996,4.410351726062677,0.0,-0.0,13.987848610973996,4.410351726062677
14.499999999999964,1196.2993876879339,1602.0391683556388,999.4270741162845,72.99999999999999,0.6,30.0,100.0,0.0,0.0,14.025803087457856,4.288118335933476,0.0,-0.0,14.025803087457856,4.288118335933476
14.599999999999964,1210.3620771326673,1606.2047267446296,999.4231499663961,73.49999999999999,0.6,30.0,100.0,0.0,0.0,14.062689444733499,4.165558388990869,0.0,-0.0,14.062689444733499,4.165558388990869
14.699999999999964,1224.4605820064294,1610.2474079632789,999.4192258165076,73.99999999999999,0.6,30.0,100.0,0.0,0.0,14.098504873762012,4.042681218649325,0.0,-0.0,14.098504873762012,4.042681218649325
14.799999999999963,1238.5938286534893,1614.1669041457599,999.4153016666191,74.49999999999999,0.6,30.0,100.0,0.0,0.0,14.133246647059806,3.9194961824811054,0.0,-0.0,14.133246647059806,3.9194961824811054
14.899999999999963,1252.7607407723956,1617.9629168072636,999.4113775167307,74.99999999999999,0.6,30.0,100.0,0.0,0.0,14.166912118906337,3.7960126615036422,0.0,-0.0,14.166912118906337,3.7960126615036422
14.999999999999963,1266.960239497941,1621.6351568667287,999.4074533668422,75.49999999999999,0.6,30.0,100.0,0.0,0.0,14.199498725545583,3.672240059465145,0.0,-0.0,14.199498725545583,3.672240059465145
15.099999999999962,1281.1912434833223,1625.1833446688572,999.4035292169538,75.99999999999999,0.6,30.0,100.0,0.0,0.0,14.231003985381284,3.5481878021284645,0.0,-0.0,14.231003985381284,3.5481878021284645
15.199999999999962,1295.4526689824881,1628.6072100054105,999.3996050670653,76.49999999999999,0.6,30.0,100.0,0.0,0.0,14.261425499165926,3.4238653365532836,0.0,-0.0,14.261425499165926,3.4238653365532836
15.299999999999962,1309.7434299326717,1631.9064921357872,999.3956809171768,76.99999999999999,0.6,30.0,100.0,0.0,0.0,14.29076095018345,3.2992821303766906,0.0,-0.0,14.29076095018345,3.2992821303766906
15.399999999999961,1324.0624380370973,1635.0809398068793,999.3917567672884,77.49999999999999,0.6,30.0,100.0,0.0,0.0,14.319008104425691,3.1744476710921794,0.0,-0.0,14.319008104425691,3.1744476710921794
15.499999999999961,1338.4086028478598,1638.1303112722064,999.3878326173999,77.99999999999999,0.6,30.0,100.0,0.0,0.0,14.346164810762485,3.049371465327141,0.0,-0.0,14.346164810762485,3.049371465327141
15.59999999999996,1352.7808318489654,1641.0543743103253,999.3839084675114,78.49999999999999,0.6,30.0,100.0,0.0,0.0,14.372229001105504,2.924063038118896,0.0,-0.0,14.372229001105504,2.924063038118896
15.69999999999996,1367.1780305395312,1643.8529062425146,999.379984317623,78.99999999999999,0.6,30.0,100.0,0.0,0.0,14.39719869056574,2.798531932189328,0.0,-0.0,14.39719869056574,2.798531932189328
15.79999999999996,1381.5991025171359,1646.5256939497328,999.3760601677345,79.49999999999999,0.6,30.0,100.0,0.0,0.0,14.421071977604669,2.6727877072181663,0.0,-0.0,14.421071977604669,2.6727877072181663
15.89999999999996,1396.042949561315,1649.0725338888478,999.3721360178461,79.99999999999999,0.6,30.0,100.0,0.0,0.0,14.443847044179053,2.5468399391149825,0.0,-0.0,14.443847044179053,2.5468399391149825
15.99999999999996,1410.5084717171944,1651.4932321081378,999.3682118679576,80.49999999999999,0.6,30.0,100.0,0.0,0.0,14.465522155879396,2.420698219289943,0.0,-0.0,14.465522155879396,2.420698219289943
16.09999999999996,1424.9945673792565,1653.7876042620612,999.3642877180691,80.99999999999999,0.6,30.0,100.0,0.0,0.0,14.486095662062022,2.29437215392339,0.0,-0.0,14.486095662062022,2.29437215392339
16.19999999999996,1439.5001333752314,1655.9554756252955,999.3603635681807,81.49999999999999,0.6,30.0,100.0,0.0,0.0,14.505565995974782,2.167871363234293,0.0,-0.0,14.505565995974782,2.167871363234293
16.29999999999996,1454.0240650501078,1657.996681106043,999.3564394182922,81.99999999999999,0.6,30.0,100.0,0.0,0.0,14.523931674876367,2.0412054807476303,0.0,-0.0,14.523931674876367,2.0412054807476303
16.399999999999963,1468.565256350257,1659.911065258604,999.3525152684037,82.49999999999999,0.6,30.0,100.0,0.0,0.0,14.541191300149222,1.9143841525607606,0.0,-0.0,14.541191300149222,1.9143841525607606
16.499999999999964,1483.122599907663,1661.6984822952127,999.3485911185153,82.99999999999999,0.6,30.0,100.0,0.0,0.0,14.557343557406059,1.7874170366088336,0.0,-0.0,14.557343557406059,1.7874170366088336
16.599999999999966,1497.694987124253,1663.358796097142,999.3446669686268,83.49999999999999,0.6,30.0,100.0,0.0,0.0,14.572387216589952,1.6603138019293027,0.0,-0.0,14.572387216589952,1.6603138019293027
16.699999999999967,1512.281308256321,1664.8918802250676,999.3407428187384,83.99999999999999,0.6,30.0,100.0,0.0,0.0,14.586321132068012,1.533084127925588,0.0,-0.0,14.586321132068012,1.533084127925588
16.79999999999997,1526.8804524990396,1666.2976179286975,999.3368186688499,84.49999999999999,0.6,30.0,100.0,0.0,0.0,14.599144242718625,1.4057377036299556,0.0,-0.0,14.599144242718625,1.4057377036299556
16.89999999999997,1541.491308071052,1667.5759021556632,999.3328945189614,84.99999999999999,0.6,30.0,100.0,0.0,0.0,14.610855572012271,1.278284226965657,0.0,-0.0,14.610855572012271,1.278284226965657
16.99999999999997,1556.1127622991378,1668.7266355596716,999.328970369073,85.49999999999999,0.6,30.0,100.0,0.0,0.0,14.621454228085879,1.1507334040083963,0.0,-0.0,14.621454228085879,1.1507334040083963
17.099999999999973,1570.7437017029486,1669.749730507919,999.3250462191845,85.99999999999999,0.6,30.0,100.0,0.0,0.0,14.630939403810757,1.023094948247175,0.0,-0.0,14.630939403810757,1.023094948247175
17.199999999999974,1585.3830120798027,1670.6451090877636,999.321122069296,86.49999999999999,0.6,30.0,100.0,0.0,0.0,14.63931037685405,0.8953785798445714,0.0,-0.0,14.63931037685405,0.8953785798445714
17.299999999999976,1600.0295785895364,1671.41270311266,999.3171979194076,86.99999999999999,0.6,30.0,100.0,0.0,0.0,14.646566509733752,0.7675940248965133,0.0,-0.0,14.646566509733752,0.7675940248965133
17.399999999999977,1614.6822858394037,1672.0524541273517,999.3132737695191,87.49999999999999,0.6,30.0,100.0,0.0,0.0,14.65270724986725,0.6397510146915985,0.0,-0.0,14.65270724986725,0.6397510146915985
17.49999999999998,1629.340017969017,1672.5643134123218,999.3093496196307,87.99999999999999,0.6,30.0,100.0,0.0,0.0,14.657732129613407,0.5118592849700179,0.0,-0.0,14.657732129613407,0.5118592849700179
17.59999999999998,1644.0016587353252,1672.948241987504,999.3054254697422,88.49999999999999,0.6,30.0,100.0,0.0,0.0,14.661640766308176,0.38392857518214324,0.0,-0.0,14.661640766308176,0.38392857518214324
17.69999999999998,1658.666091597619,1673.2042106152508,999.3015013198537,88.99999999999999,0.6,30.0,100.0,0.0,0.0,14.664432862293742,0.25596862774682855,0.0,-0.0,14.664432862293742,0.25596862774682855
17.799999999999983,1673.3321998025601,1673.3321998025604,999.2975771699653,89.49999999999999,0.6,30.0,100.0,0.0,0.0,14.666108204941182,0.12798918730948805,0.0,-0.0,14.666108204941182,0.12798918730948805
17.899999999999984,1687.9988664692269,1673.3321998025604,999.2936530200768,89.99999999999999,0.6,30.0,100.0,0.0,0.0,14.66666666666667,3.6377176631082625E-15,0.0,-0.0,14.66666666666667,3.6377176631082625E-15
17.999999999999986,1702.664974674168,1673.204210615251,999.2897288701884,90.49999999999999,0.6,30.0,100.0,0.0,0.0,14.666108204941182,-0.12798918730948075,0.0,-0.0,14.666108204941182,-0.12798918730948075
18.099999999999987,1717.3294075364618,1672.9482419875042,999.2858047202999,90.99999999999999,0.6,30.0,100.0,0.0,0.0,14.664432862293742,-0.2559686277468213,0.0,-0.0,14.664432862293742,-0.2559686277468213
18.19999999999999,1731.99104830277,1672.564313412322,999.2818805704114,91.49999999999999,0.6,30.0,100.0,0.0,0.0,14.661640766308176,-0.383928575182136,0.0,-0.0,14.661640766308176,-0.383928575182136
18.29999999999999,1746.6487804323833,1672.052454127352,999.277956420523,91.99999999999999,0.6,30.0,100.0,0.0,0.0,14.657732129613407,-0.5118592849700107,0.0,-0.0,14.657732129613407,-0.5118592849700107
18.39999999999999,1761.3014876822506,1671.4127031126602,999.2740322706345,92.49999999999999,0.6,30.0,100.0,0.0,0.0,14.65270724986725,-0.6397510146915911,0.0,-0.0,14.65270724986725,-0.6397510146915911
18.499999999999993,1775.9480541919843,1670.6451090877638,999.270108120746,92.99999999999999,0.6,30.0,100.0,0.0,0.0,14.646566509733752,-0.767594024896506,0.0,-0.0,14.646566509733752,-0.767594024896506
18.599999999999994,1790.5873645688384,1669.7497305079191,999.2661839708576,93.49999999999999,0.6,30.0,100.0,0.0,0.0,14.639310376854052,-0.895378579844564,0.0,-0.0,14.639310376854052,-0.895378579844564
18.699999999999996,1805.2183039726492,1668.7266355596719,999.2622598209691,93.99999999999999,0.6,30.0,100.0,0.0,0.0,14.630939403810759,-1.0230949482471676,0.0,-0.0,14.630939403810759,-1.0230949482471676
18.799999999999997,1819.839758200735,1667.5759021556635,999.2583356710807,94.49999999999999,0.6,30.0,100.0,0.0,0.0,14.621454228085879,-1.150733404008389,0.0,-0.0,14.621454228085879,-1.150733404008389
18.9,1834.4506137727474,1666.2976179286977,999.2544115211922,94.99999999999999,0.6,30.0,100.0,0.0,0.0,14.610855572012271,-1.2782842269656496,0.0,-0.0,14.610855572012271,-1.2782842269656496
19.0,1849.049758015466,1664.8918802250678,999.2504873713037,95.49999999999999,0.6,30.0,100.0,0.0,0.0,14.599144242718626,-1.4057377036299485,0.0,-0.0,14.599144242718626,-1.4057377036299485
19.1,1863.636079147534,1663.3587960971422,999.2465632214153,95.99999999999999,0.6,30.0,100.0,0.0,0.0,14.586321132068013,-1.5330841279255811,0.0,-0.0,14.586321132068013,-1.5330841279255811
19.200000000000003,1878.208466364124,1661.698482295213,999.2426390715268,96.49999999999999,0.6,30.0,100.0,0.0,0.0,14.572387216589954,-1.6603138019292951,0.0,-0.0,14.572387216589954,-1.6603138019292951
19.300000000000004,1892.76580992153,1659.9110652586041,999.2387149216383,96.99999999999999,0.6,30.0,100.0,0.0,0.0,14.55734355740606,-1.7874170366088264,0.0,-0.0,14.55734355740606,-1.7874170366088264
19.400000000000006,1907.3070012216792,1657.9966811060433,999.2347907717499,97.49999999999999,0.6,30.0,100.0,0.0,0.0,14.541191300149224,-1.9143841525607532,0.0,-0.0,14.541191300149224,-1.9143841525607532
19.500000000000007,1921.8309328965556,1655.9554756252958,999.2308666218614,97.99999999999999,0.6,30.0,100.0,0.0,0.0,14.523931674876367,-2.041205480747623,0.0,-0.0,14.523931674876367,-2.041205480747623
19.60000000000001,1936.3364988925305,1653.7876042620614,999.226942471973,98.49999999999999,0.6,30.0,100.0,0.0,0.0,14.505565995974782,-2.167871363234286,0.0,-0.0,14.505565995974782,-2.167871363234286
19.70000000000001,1950.8225945545926,1651.493232108138,999.2230183220845,98.99999999999999,0.6,30.0,100.0,0.0,0.0,14.486095662062024,-2.294372153923383,0.0,-0.0,14.486095662062024,-2.294372153923383
19.80000000000001,1965.288116710472,1649.072533888848,999.219094172196,99.49999999999999,0.6,30.0,100.0,0.0,0.0,14.465522155879396,-2.420698219289936,0.0,-0.0,14.465522155879396,-2.420698219289936
19.900000000000013,1979.7319637546511,1646.525693949733,999.2151700223076,99.99999999999999,0.6,30.0,100.0,0.0,0.0,14.443847044179055,-2.546839939114975,0.0,-0.0,14.443847044179055,-2.546839939114975
20.000000000000014,1994.1530357322558,1643.852906242515,999.2112458724191,100.49999999999999,0.6,30.0,100.0,0.0,0.0,14.42107197760467,-2.672787707218159,0.0,-0.0,14.42107197760467,-2.672787707218159
20.100000000000016,2008.5502344228216,1641.0543743103258,999.2073217225307,100.99999999999999,0.6,30.0,100.0,0.0,0.0,14.397198690565741,-2.7985319321893205,0.0,-0.0,14.397198690565741,-2.7985319321893205
20.200000000000017,2022.9224634239272,1638.1303112722069,999.2033975726422,101.49999999999999,0.6,30.0,100.0,0.0,0.0,14.372229001105506,-2.9240630381188892,0.0,-0.0,14.372229001105506,-2.9240630381188892
20.30000000000002,2037.2686282346897,1635.0809398068798,999.1994734227537,101.99999999999999,0.6,30.0,100.0,0.0,0.0,14.346164810762486,-3.0493714653271335,0.0,-0.0,14.346164810762486,-3.0493714653271335
20.40000000000002,2051.5876363391153,1631.9064921357876,999.1955492728653,102.49999999999999,0.6,30.0,100.0,0.0,0.0,14.319008104425693,-3.1744476710921723,0.0,-0.0,14.319008104425693,-3.1744476710921723
20.50000000000002,2065.878397289299,1628.607210005411,999.1916251229768,102.99999999999999,0.6,30.0,100.0,0.0,0.0,14.290760950183452,-3.2992821303766835,0.0,-0.0,14.290760950183452,-3.2992821303766835
20.600000000000023,2080.1398227884647,1625.1833446688577,999.1877009730883,103.49999999999999,0.6,30.0,100.0,0.0,0.0,14.261425499165927,-3.423865336553277,0.0,-0.0,14.261425499165927,-3.423865336553277
20.700000000000024,2094.370826773846,1621.6351568667292,999.1837768231999,103.99999999999999,0.6,30.0,100.0,0.0,0.0,14.231003985381285,-3.5481878021284565,0.0,-0.0,14.231003985381285,-3.5481878021284565
20.800000000000026,2108.570325499392,1617.962916807264,999.1798526733114,104.49999999999999,0.6,30.0,100.0,0.0,0.0,14.199498725545585,-3.6722400594651377,0.0,-0.0,14.199498725545585,-3.6722400594651377
20.900000000000027,2122.7372376182984,1614.1669041457603,999.175928523423,104.99999999999999,0.6,30.0,100.0,0.0,0.0,14.166912118906339,-3.796012661503635,0.0,-0.0,14.166912118906339,-3.796012661503635
21.00000000000003,2136.8704842653583,1610.2474079632793,999.1720043735345,105.49999999999999,0.6,30.0,100.0,0.0,0.0,14.133246647059808,-3.919496182481097,0.0,-0.0,14.133246647059808,-3.919496182481097
21.10000000000003,2150.9689891391204,1606.20472674463,999.168080223646,105.99999999999999,0.6,30.0,100.0,0.0,0.0,14.098504873762014,-4.042681218649319,0.0,-0.0,14.098504873762014,-4.042681218649319
21.20000000000003,2165.031678583854,1602.0391683556393,999.1641560737576,106.49999999999999,0.6,30.0,100.0,0.0,0.0,14.062689444733502,-4.1655583889908625,0.0,-0.0,14.062689444733502,-4.1655583889908625
21.300000000000033,2179.057481671312,1597.7510500197059,999.1602319238691,106.99999999999999,0.6,30.0,100.0,0.0,0.0,14.025803087457858,-4.288118335933469,0.0,-0.0,14.025803087457858,-4.288118335933469
21.400000000000034,2193.045330282286,1593.3406982936433,999.1563077739806,107.49999999999999,0.6,30.0,100.0,0.0,0.0,13.987848610974,-4.41035172606267,0.0,-0.0,13.987848610974,-4.41035172606267
21.500000000000036,2206.9941591879483,1588.8084490428107,999.1523836240922,107.99999999999999,0.6,30.0,100.0,0.0,0.0,13.948828905662257,-4.532249250832559,0.0,-0.0,13.948828905662257,-4.532249250832559
21.600000000000037,2220.9029061309725,1584.154647415536,999.1484594742037,108.49999999999999,0.6,30.0,100.0,0.0,0.0,13.90874694302426,-4.6538016272746825,0.0,-0.0,13.90874694302426,-4.6538016272746825
21.70000000000004,2234.770511906429,1579.379647816831,999.1445353243153,108.99999999999999,0.6,30.0,100.0,0.0,0.0,13.86760577545665,-4.774999598704962,0.0,-0.0,13.86760577545665,-4.774999598704962
21.80000000000004,2248.5959204424476,1574.4838138814025,999.1406111744268,109.49999999999999,0.6,30.0,100.0,0.0,0.0,13.82540853601862,-4.895833935428637,0.0,-0.0,13.82540853601862,-4.895833935428637
21.90000000000004,2262.3780788806407,1569.4675184459593,999.1366870245383,109.99999999999999,0.6,30.0,100.0,0.0,0.0,13.782158438193326,-5.016295435443139,0.0,-0.0,13.782158438193326,-5.016295435443139
22.000000000000043,2276.1159376562837,1564.3311435208204,999.1327628746499,110.49999999999999,0.6,30.0,100.0,0.0,0.0,13.737858775643168,-5.1363749251388535,0.0,-0.0,13.737858775643168,-5.1363749251388535
22.100000000000044,2289.8084505782426,1559.0750802608227,999.1288387247614,110.99999999999999,0.6,30.0,100.0,0.0,0.0,13.692512921958963,-5.256063259997735,0.0,-0.0,13.692512921958963,-5.256063259997735
22.200000000000045,2303.4545749086456,1553.699728935533,999.124914574873,111.49999999999999,0.6,30.0,100.0,0.0,0.0,13.64612433040303,-5.3753513252896905,0.0,-0.0,13.64612433040303,-5.3753513252896905
22.300000000000047,2317.0532714422916,1548.205498898766,999.1209904249845,111.99999999999999,0.6,30.0,100.0,0.0,0.0,13.598696533646219,-5.494230036766707,0.0,-0.0,13.598696533646219,-5.494230036766707
22.40000000000005,2330.6035045857907,1542.5928085574114,999.117066275096,112.49999999999999,0.6,30.0,100.0,0.0,0.0,13.550233143498877,-5.612690341354647,0.0,-0.0,13.550233143498877,-5.612690341354647
22.50000000000005,2344.1042424364264,1536.8620853395687,999.1131421252076,112.99999999999999,0.6,30.0,100.0,0.0,0.0,13.500737850635796,-5.73072321784268,0.0,-0.0,13.500737850635796,-5.73072321784268
22.60000000000005,2357.5544568607415,1531.0137656619984,999.1092179753191,113.49999999999999,0.6,30.0,100.0,0.0,0.0,13.450214424315156,-5.8483196775702755,0.0,-0.0,13.450214424315156,-5.8483196775702755
22.700000000000053,2370.953123572833,1525.0482948968865,999.1052938254306,113.99999999999999,0.6,30.0,100.0,0.0,0.0,13.398666712091483,-5.965470765111735,0.0,-0.0,13.398666712091483,-5.965470765111735
22.800000000000054,2384.2992222123557,1518.9661273379284,999.1013696755422,114.49999999999999,0.6,30.0,100.0,0.0,0.0,13.346098639522639,-6.0821675589581705,0.0,-0.0,13.346098639522639,-6.0821675589581705
22.900000000000055,2397.5917364222264,1512.7677261657313,999.0974455256537,114.99999999999999,0.6,30.0,100.0,0.0,0.0,13.29251420987087,-6.198401172196923,0.0,-0.0,13.29251420987087,-6.198401172196923
23.000000000000057,2410.8296539260245,1506.453563412543,999.0935213757652,115.49999999999999,0.6,30.0,100.0,0.0,0.0,13.237917503797961,-6.314162753188326,0.0,-0.0,13.237917503797961,-6.314162753188326
23.10000000000006,2424.011966605079,1500.0241199263032,999.0895972258768,115.99999999999999,0.6,30.0,100.0,0.0,0.0,13.182312679054453,-6.4294434862398,0.0,-0.0,13.182312679054453,-6.4294434862398
23.20000000000006,2437.1376705752423,1493.479885334026,999.0856730759883,116.49999999999999,0.6,30.0,100.0,0.0,0.0,13.12570397016304,-6.544234592277193,0.0,-0.0,13.12570397016304,-6.544234592277193
23.30000000000006,2450.2057662633383,1486.8213580045126,999.0817489260999,116.99999999999999,0.6,30.0,100.0,0.0,0.0,13.068095688096067,-6.65852732951335,0.0,-0.0,13.068095688096067,-6.65852732951335
23.400000000000063,2463.2152584832857,1480.0490450103987,999.0778247762114,117.49999999999999,0.6,30.0,100.0,0.0,0.0,13.009492219947257,-6.77231299411383,0.0,-0.0,13.009492219947257,-6.77231299411383
23.500000000000064,2476.165156511883,1473.163462089539,999.0739006263229,117.99999999999999,0.6,30.0,100.0,0.0,0.0,12.9498980285976,-6.885582920859729,0.0,-0.0,12.9498980285976,-6.885582920859729
23.600000000000065,2489.054474164259,1466.1651336057314,999.0699764764345,118.49999999999999,0.6,30.0,100.0,0.0,0.0,12.889317652375496,-6.998328483807588,0.0,-0.0,12.889317652375496,-6.998328483807588
23.700000000000067,2501.88222986897,1459.0545925087852,999.066052326546,118.99999999999999,0.6,30.0,100.0,0.0,0.0,12.827755704711143,-7.110541096946275,0.0,-0.0,12.827755704711143,-7.110541096946275
23.800000000000068,2514.647446742755,1451.8323802939344,999.0621281766576,119.49999999999999,0.6,30.0,100.0,0.0,0.0,12.7652168737852,-7.222212214850849,0.0,-0.0,12.7652168737852,-7.222212214850849
23.90000000000007,2527.349152664927,1444.4990469606012,999.0582040267691,119.99999999999999,0.6,30.0,100.0,0.0,0.0,12.701705922171772,-7.333333333333331,0.0,-0.0,12.701705922171772,-7.333333333333331
24.00000000000007,2539.9863803514027,1437.0551509705108,999.0542798768806,120.49999999999999,0.6,30.0,100.0,0.0,0.0,12.637227686475716,-7.4438959900903265,0.0,-0.0,12.637227686475716,-7.4438959900903265
24.100000000000072,2552.558167428367,1429.5012592051633,999.0503557269922,120.99999999999999,0.6,30.0,100.0,0.0,0.0,12.571787076964318,-7.553891765347461,0.0,-0.0,12.571787076964318,-7.553891765347461
24.200000000000074,2565.0635565055604,1421.8379469226627,999.0464315771037,121.49999999999999,0.6,30.0,100.0,0.0,0.0,12.505389077193358,-7.663312282500582,0.0,-0.0,12.505389077193358,-7.663312282500582
24.300000000000075,2577.501595249188,1414.065797713909,999.0425074272152,121.99999999999999,0.6,30.0,100.0,0.0,0.0,12.438038743627585,-7.772149208753672,0.0,-0.0,12.438038743627585,-7.772149208753672
24.400000000000077,2589.8713364544437,1406.1854034581556,999.0385832773268,122.49999999999999,0.6,30.0,100.0,0.0,0.0,12.36974120525566,-7.880394255753414,0.0,-0.0,12.36974120525566,-7.880394255753414
24.500000000000078,2602.1718381176433,1398.1973642779353,999.0346591274383,122.99999999999999,0.6,30.0,100.0,0.0,0.0,12.300501663199556,-7.988039180220396,0.0,-0.0,12.300501663199556,-7.988039180220396
24.60000000000008,2614.4021635079616,1390.1022884933584,999.0307349775499,123.49999999999999,0.6,30.0,100.0,0.0,0.0,12.230325390318471,-8.095075784576851,0.0,-0.0,12.230325390318471,-8.095075784576851
24.70000000000008,2626.5613812387687,1381.9007925757874,999.0268108276614,123.99999999999999,0.6,30.0,100.0,0.0,0.0,12.159217730807283,-8.201495917570952,0.0,-0.0,12.159217730807283,-8.201495917570952
24.800000000000082,2638.6485653385585,1373.5935011008899,999.0228866777729,124.49999999999999,0.6,30.0,100.0,0.0,0.0,12.087184099789567,-8.307291474897546,0.0,-0.0,12.087184099789567,-8.307291474897546
24.900000000000084,2650.662795321464,1365.1810467010746,999.0189625278845,124.99999999999999,0.6,30.0,100.0,0.0,0.0,12.014229982905217,-8.41245439981534,0.0,-0.0,12.014229982905217,-8.41245439981534
25.000000000000085,2662.6031562573567,1356.664070017314,999.015038377996,125.49999999999999,0.6,30.0,100.0,0.0,0.0,11.940360935892686,-8.516976683760449,0.0,-0.0,11.940360935892686,-8.516976683760449
25.100000000000087,2674.4687388415227,1348.0432196503577,999.0111142281075,125.99999999999999,0.6,30.0,100.0,0.0,0.0,11.8655825841659,-8.62085036695627,0.0,-0.0,11.8655825841659,-8.62085036695627
25.200000000000088,2686.258639463909,1339.319152111338,999.0071900782191,126.49999999999999,0.6,30.0,100.0,0.0,0.0,11.78990062238586,-8.724067539019671,0.0,-0.0,11.78990062238586,-8.724067539019671
25.30000000000009,2697.971960277936,1330.4925317717748,999.0032659283306,126.99999999999999,0.6,30.0,100.0,0.0,0.0,11.713320814026966,-8.826620339563373,0.0,-0.0,11.713320814026966,-8.826620339563373
25.40000000000009,2709.607809268874,1321.5640308129803,998.9993417784422,127.49999999999999,0.6,30.0,100.0,0.0,0.0,11.63584899093812,-8.928500958794569,0.0,-0.0,11.63584899093812,-8.928500958794569
25.500000000000092,2721.1653003217725,1312.5343291748707,998.9954176285537,127.99999999999999,0.6,30.0,100.0,0.0,0.0,11.557491052898593,-9.029701638109653,0.0,-0.0,11.557491052898593,-9.029701638109653
25.600000000000094,2732.6435532889413,1303.4041145041856,998.9914934786652,128.49999999999997,0.6,30.0,100.0,0.0,0.0,11.478252967168745,-9.130214670685083,0.0,-0.0,11.478252967168745,-9.130214670685083
25.700000000000095,2744.041694056977,1294.1740821021212,998.9875693287768,128.99999999999997,0.6,30.0,100.0,0.0,0.0,11.39814076803558,-9.230032402064278,0.0,-0.0,11.39814076803558,-9.230032402064278
25.800000000000097,2755.3588546133305,1284.8449348713807,998.9836451788883,129.49999999999997,0.6,30.0,100.0,0.0,0.0,11.317160556353233,-9.329147230740533,0.0,-0.0,11.317160556353233,-9.329147230740533
25.900000000000098,2766.594173112409,1275.4173832626448,998.9797210289998,129.99999999999997,0.6,30.0,100.0,0.0,0.0,11.235318499078351,-9.427551608735905,0.0,-0.0,11.235318499078351,-9.427551608735905
26.0000000000001,2777.7467939412095,1265.8921452204688,998.9757968791114,130.49999999999997,0.6,30.0,100.0,0.0,0.0,11.15262082880046,-9.525238042176023,0.0,-0.0,11.15262082880046,-9.525238042176023
26.1000000000001,2788.8158677844767,1256.2699461286081,998.9718727292229,130.99999999999997,0.6,30.0,100.0,0.0,0.0,11.06907384326733,-9.622199091860768,0.0,-0.0,11.06907384326733,-9.622199091860768
26.200000000000102,2799.8005516893822,1246.5515187547774,998.9679485793345,131.49999999999997,0.6,30.0,100.0,0.0,0.0,10.984683904905372,-9.718427373830812,0.0,-0.0,10.984683904905372,-9.718427373830812
26.300000000000104,2810.7000091297173,1236.7376031948475,998.964024429446,131.99999999999997,0.6,30.0,100.0,0.0,0.0,10.899457440335123,-9.813915559929915,0.0,-0.0,10.899457440335123,-9.813915559929915
26.400000000000105,2821.513410069599,1226.8289468164844,998.9601002795575,132.49999999999997,0.6,30.0,100.0,0.0,0.0,10.813400939881827,-9.908656378363013,0.0,-0.0,10.813400939881827,-9.908656378363013
26.500000000000107,2832.23993102668,1216.8263042022345,998.9561761296691,132.99999999999997,0.6,30.0,100.0,0.0,0.0,10.726520957081174,-10.002642614249975,0.0,-0.0,10.726520957081174,-10.002642614249975
26.600000000000108,2842.8787551348605,1206.7304370920594,998.9522519797806,133.49999999999997,0.6,30.0,100.0,0.0,0.0,10.638824108180225,-10.095867110175055,0.0,-0.0,10.638824108180225,-10.095867110175055
26.70000000000011,2853.429072206494,1196.5421143253275,998.9483278298922,133.99999999999997,0.6,30.0,100.0,0.0,0.0,10.550317071633557,-10.188322766731957,0.0,-0.0,10.550317071633557,-10.188322766731957
26.80000000000011,2863.8900787940884,1186.262111782263,998.9444036800037,134.49999999999997,0.6,30.0,100.0,0.0,0.0,10.46100658759467,-10.280002543064477,0.0,-0.0,10.46100658759467,-10.280002543064477
26.900000000000112,2874.260978251491,1175.8912123248604,998.9404795301152,134.99999999999997,0.6,30.0,100.0,0.0,0.0,10.370899457402706,-10.370899457402693,0.0,-0.0,10.370899457402706,-10.370899457402693
27.000000000000114,2884.5409807945557,1165.4302057372656,998.9365553802268,135.49999999999997,0.6,30.0,100.0,0.0,0.0,10.280002543064489,-10.461006587594659,0.0,-0.0,10.280002543064489,-10.461006587594659
27.100000000000115,2894.7293035612875,1154.879888665632,998.9326312303383,135.99999999999997,0.6,30.0,100.0,0.0,0.0,10.188322766731966,-10.550317071633549,0.0,-0.0,10.188322766731966,-10.550317071633549
27.200000000000117,2904.8251706714627,1144.2410645574519,998.9287070804498,136.49999999999997,0.6,30.0,100.0,0.0,0.0,10.095867110175064,-10.638824108180216,0.0,-0.0,10.095867110175064,-10.638824108180216
27.300000000000118,2914.8278132857126,1133.5145436003706,998.9247829305614,136.99999999999997,0.6,30.0,100.0,0.0,0.0,10.002642614249986,-10.726520957081163,0.0,-0.0,10.002642614249986,-10.726520957081163
27.40000000000012,2924.7364696640757,1122.7011426604888,998.9208587806729,137.49999999999997,0.6,30.0,100.0,0.0,0.0,9.908656378363023,-10.813400939881815,0.0,-0.0,9.908656378363023,-10.813400939881815
27.50000000000012,2934.550385224006,1111.8016852201538,998.9169346307845,137.99999999999997,0.6,30.0,100.0,0.0,0.0,9.813915559929928,-10.899457440335112,0.0,-0.0,9.813915559929928,-10.899457440335112
27.600000000000122,2944.2688125978366,1100.8170013152485,998.913010480896,138.49999999999997,0.6,30.0,100.0,0.0,0.0,9.718427373830826,-10.984683904905362,0.0,-0.0,9.718427373830826,-10.984683904905362
27.700000000000124,2953.8910116896973,1089.7479274719813,998.9090863310075,138.99999999999997,0.6,30.0,100.0,0.0,0.0,9.62219909186078,-11.06907384326732,0.0,-0.0,9.62219909186078,-11.06907384326732
27.800000000000125,2963.4162497318734,1078.5953066431807,998.9051621811191,139.49999999999997,0.6,30.0,100.0,0.0,0.0,9.525238042176033,-11.152620828800451,0.0,-0.0,9.525238042176033,-11.152620828800451
27.900000000000126,2972.8438013406094,1067.3599881441023,998.9012380312306,139.99999999999997,0.6,30.0,100.0,0.0,0.0,9.427551608735918,-11.23531849907834,0.0,-0.0,9.427551608735918,-11.23531849907834
28.000000000000128,2982.17294857135,1056.0428275877491,998.8973138813421,140.49999999999997,0.6,30.0,100.0,0.0,0.0,9.329147230740546,-11.317160556353222,0.0,-0.0,9.329147230740546,-11.317160556353222
28.10000000000013,2991.4029809734143,1044.6446868197136,998.8933897314537,140.99999999999997,0.6,30.0,100.0,0.0,0.0,9.23003240206429,-11.39814076803557,0.0,-0.0,9.23003240206429,-11.39814076803557
28.20000000000013,3000.5331956440996,1033.1664338525447,998.8894655815652,141.49999999999997,0.6,30.0,100.0,0.0,0.0,9.130214670685096,-11.478252967168734,0.0,-0.0,9.130214670685096,-11.478252967168734
28.300000000000132,3009.562897282209,1021.6089427996461,998.8855414316768,141.99999999999997,0.6,30.0,100.0,0.0,0.0,9.029701638109662,-11.557491052898587,0.0,-0.0,9.029701638109662,-11.557491052898587
28.400000000000134,3018.491398241004,1009.973093808708,998.8816172817883,142.49999999999997,0.6,30.0,100.0,0.0,0.0,8.928500958794578,-11.635848990938113,0.0,-0.0,8.928500958794578,-11.635848990938113
28.500000000000135,3027.3180185805672,998.259772994681,998.8776931318998,142.99999999999997,0.6,30.0,100.0,0.0,0.0,8.826620339563384,-11.71332081402696,0.0,-0.0,8.826620339563384,-11.71332081402696
28.600000000000136,3036.042086119587,986.4698723722952,998.8737689820114,143.49999999999997,0.6,30.0,100.0,0.0,0.0,8.724067539019682,-11.78990062238585,0.0,-0.0,8.724067539019682,-11.78990062238585
28.700000000000138,3044.6629364865435,974.6042897881293,998.8698448321229,143.99999999999997,0.6,30.0,100.0,0.0,0.0,8.620850366956281,-11.865582584165894,0.0,-0.0,8.620850366956281,-11.865582584165894
28.80000000000014,3053.1799131703037,962.6639288522366,998.8659206822344,144.49999999999997,0.6,30.0,100.0,0.0,0.0,8.516976683760456,-11.940360935892679,0.0,-0.0,8.516976683760456,-11.940360935892679
28.90000000000014,3061.592367570119,950.6496988693314,998.861996532346,144.99999999999997,0.6,30.0,100.0,0.0,0.0,8.412454399815351,-12.014229982905212,0.0,-0.0,8.412454399815351,-12.014229982905212
29.000000000000142,3069.899659045017,938.5625147695418,998.8580723824575,145.49999999999997,0.6,30.0,100.0,0.0,0.0,8.307291474897557,-12.08718409978956,0.0,-0.0,8.307291474897557,-12.08718409978956
29.100000000000144,3078.1011549625878,926.4032970387345,998.8541482325691,145.99999999999997,0.6,30.0,100.0,0.0,0.0,8.201495917570961,-12.159217730807276,0.0,-0.0,8.201495917570961,-12.159217730807276
29.200000000000145,3086.1962307471645,914.172971648416,998.8502240826806,146.49999999999997,0.6,30.0,100.0,0.0,0.0,8.095075784576862,-12.230325390318464,0.0,-0.0,8.095075784576862,-12.230325390318464
29.300000000000146,3094.184269927385,901.8724699852165,998.8462999327921,146.99999999999997,0.6,30.0,100.0,0.0,0.0,7.988039180220407,-12.300501663199551,0.0,-0.0,7.988039180220407,-12.300501663199551
29.400000000000148,3102.064664183138,889.5027287799609,998.8423757829037,147.49999999999997,0.6,30.0,100.0,0.0,0.0,7.880394255753424,-12.369741205255655,0.0,-0.0,7.880394255753424,-12.369741205255655
29.50000000000015,3109.8368133918916,877.0646900363333,998.8384516330152,147.99999999999997,0.6,30.0,100.0,0.0,0.0,7.772149208753682,-12.438038743627578,0.0,-0.0,7.772149208753682,-12.438038743627578
29.60000000000015,3117.500125674392,864.5593009591399,998.8345274831267,148.49999999999997,0.6,30.0,100.0,0.0,0.0,7.66331228250059,-12.505389077193351,0.0,-0.0,7.66331228250059,-12.505389077193351
29.700000000000152,3125.0540174397397,851.9875138821756,998.8306033332383,148.99999999999997,0.6,30.0,100.0,0.0,0.0,7.553891765347471,-12.571787076964313,0.0,-0.0,7.553891765347471,-12.571787076964313
29.800000000000153,3132.49791342983,839.3502861956998,998.8266791833498,149.49999999999997,0.6,30.0,100.0,0.0,0.0,7.443895990090338,-12.637227686475708,0.0,-0.0,7.443895990090338,-12.637227686475708
29.900000000000155,3139.8312467631636,826.6485802735281,998.8227550334614,149.99999999999997,0.6,30.0,100.0,0.0,0.0,7.333333333333341,-12.701705922171765,0.0,-0.0,7.333333333333341,-12.701705922171765
30.000000000000156,3147.0534589780145,813.8833633997428,998.8188308835729,150.49999999999997,0.6,30.0,100.0,0.0,0.0,7.222212214850858,-12.765216873785194,0.0,-0.0,7.222212214850858,-12.765216873785194
30.100000000000158,3154.1640000749608,801.0556076950318,998.8149067336844,150.99999999999997,0.6,30.0,100.0,0.0,0.0,7.110541096946285,-12.827755704711137,0.0,-0.0,7.110541096946285,-12.827755704711137
