time,x,y,altitude,yaw,pitch,roll,speed,wind_dir,wind_spd,dx,dy,wind_dx,wind_dy,vmg_dx,vmg_dy
0.0,-1.0370899457402687,13.6295767209264,1000.0,0.0,0.0,0.0,100.0,45.0,10.0,8.980743193747258E-16,14.66666666666667,-1.0370899457402696,-1.0370899457402698,-1.0370899457402687,13.6295767209264
0.1,-2.0741798914805374,27.2591534418528,1000.0,0.0,0.0,0.0,100.0,45.0,10.0,8.980743193747258E-16,14.66666666666667,-1.0370899457402696,-1.0370899457402698,-1.0370899457402687,13.6295767209264
0.2,-3.111269837220806,40.8887301627792,1000.0,0.0,0.0,0.0,100.0,45.0,10.0,8.980743193747258E-16,14.66666666666667,-1.0370899457402696,-1.0370899457402698,-1.0370899457402687,13.6295767209264
0.30000000000000004,-4.148359782961075,54.5183068837056,1000.0,0.0,0.0,0.0,100.0,45.0,10.0,8.980743193747258E-16,14.66666666666667,-1.0370899457402696,-1.0370899457402698,-1.0370899457402687,13.6295767209264
0.4,-5.185449728701343,68.147883604632,1000.0,0.0,0.0,0.0,100.0,45.0,10.0,8.980743193747258E-16,14.66666666666667,-1.0370899457402696,-1.0370899457402698,-1.0370899457402687,13.6295767209264
0.5,-6.222539674441611,81.77746032555841,1000.0,0.0,0.0,0.0,100.0,45.0,10.0,8.980743193747258E-16,14.66666666666667,-1.0370899457402696,-1.0370899457402698,-1.0370899457402687,13.6295767209264
0.6,-7.2596296201818795,95.40703704648482,1000.0,0.0,0.0,0.0,100.0,45.0,10.0,8.980743193747258E-16,14.66666666666667,-1.0370899457402696,-1.0370899457402698,-1.0370899457402687,13.6295767209264
0.7,-8.296719565922148,109.03661376741123,1000.0,0.0,0.0,0.0,100.0,45.0,10.0,8.980743193747258E-16,14.66666666666667,-1.0370899457402696,-1.0370899457402698,-1.0370899457402687,13.6295767209264
0.7999999999999999,-9.333809511662416,122.66619048833763,1000.0,0.0,0.0,0.0,100.0,45.0,10.0,8.980743193747258E-16,14.66666666666667,-1.0370899457402696,-1.0370899457402698,-1.0370899457402687,13.6295767209264
0.8999999999999999,-10.370899457402684,136.29576720926403,1000.0,0.0,0.0,0.0,100.0,45.0,10.0,8.980743193747258E-16,14.66666666666667,-1.0370899457402696,-1.0370899457402698,-1.0370899457402687,13.6295767209264
0.9999999999999999,-11.407989403142953,149.92534393019042,1000.0,0.0,0.0,0.0,100.0,45.0,10.0,8.980743193747258E-16,14.66666666666667,-1.0370899457402696,-1.0370899457402698,-1.0370899457402687,13.6295767209264
1.0999999999999999,-12.44507934888322,163.55492065111682,1000.0,0.0,0.0,0.0,100.0,45.0,10.0,8.980743193747258E-16,14.66666666666667,-1.0370899457402696,-1.0370899457402698,-1.0370899457402687,13.6295767209264
1.2,-13.482169294623489,177.1844973720432,1000.0,0.0,0.0,0.0,100.0,45.0,10.0,8.980743193747258E-16,14.66666666666667,-1.0370899457402696,-1.0370899457402698,-1.0370899457402687,13.6295767209264
1.3,-14.519259240363757,190.8140740929696,1000.0,0.0,0.0,0.0,100.0,45.0,10.0,8.980743193747258E-16,14.66666666666667,-1.0370899457402696,-1.0370899457402698,-1.0370899457402687,13.6295767209264
1.4000000000000001,-15.556349186104026,204.443650813896,1000.0,0.0,0.0,0.0,100.0,45.0,10.0,8.980743193747258E-16,14.66666666666667,-1.0370899457402696,-1.0370899457402698,-1.0370899457402687,13.6295767209264
1.5000000000000002,-16.593439131844292,218.0732275348224,1000.0,0.0,0.0,0.0,100.0,45.0,10.0,8.980743193747258E-16,14.66666666666667,-1.0370899457402696,-1.0370899457402698,-1.0370899457402687,13.6295767209264
1.6000000000000003,-17.630529077584562,231.7028042557488,1000.0,0.0,0.0,0.0,100.0,45.0,10.0,8.980743193747258E-16,14.66666666666667,-1.0370899457402696,-1.0370899457402698,-1.0370899457402687,13.6295767209264
1.7000000000000004,-18.667619023324832,245.33238097667518,1000.0,0.0,0.0,0.0,100.0,45.0,10.0,8.980743193747258E-16,14.66666666666667,-1.0370899457402696,-1.0370899457402698,-1.0370899457402687,13.6295767209264
1.8000000000000005,-19.704708969065102,258.9619576976016,1000.0,0.0,0.0,0.0,100.0,45.0,10.0,8.980743193747258E-16,14.66666666666667,-1.0370899457402696,-1.0370899457402698,-1.0370899457402687,13.6295767209264
1.9000000000000006,-20.741798914805372,272.591534418528,1000.0,0.0,0.0,0.0,100.0,45.0,10.0,8.980743193747258E-16,14.66666666666667,-1.0370899457402696,-1.0370899457402698,-1.0370899457402687,13.6295767209264
2.0000000000000004,-21.778888860545642,286.2211111394544,1000.0,0.0,0.0,0.0,100.0,45.0,10.0,8.980743193747258E-16,14.66666666666667,-1.0370899457402696,-1.0370899457402698,-1.0370899457402687,13.6295767209264
2.1000000000000005,-22.815978806285912,299.85068786038084,1000.0,0.0,0.0,0.0,100.0,45.0,10.0,8.980743193747258E-16,14.66666666666667,-1.0370899457402696,-1.0370899457402698,-1.0370899457402687,13.6295767209264
2.2000000000000006,-23.853068752026182,313.48026458130727,1000.0,0.0,0.0,0.0,100.0,45.0,10.0,8.980743193747258E-16,14.66666666666667,-1.0370899457402696,-1.0370899457402698,-1.0370899457402687,13.6295767209264
2.3000000000000007,-24.890158697766452,327.1098413022337,1000.0,0.0,0.0,0.0,100.0,45.0,10.0,8.980743193747258E-16,14.66666666666667,-1.0370899457402696,-1.0370899457402698,-1.0370899457402687,13.6295767209264
2.400000000000001,-25.927248643506722,340.7394180231601,1000.0,0.0,0.0,0.0,100.0,45.0,10.0,8.980743193747258E-16,14.66666666666667,-1.0370899457402696,-1.0370899457402698,-1.0370899457402687,13.6295767209264
2.500000000000001,-26.964338589246992,354.36899474408654,1000.0,0.0,0.0,0.0,100.0,45.0,10.0,8.980743193747258E-16,14.66666666666667,-1.0370899457402696,-1.0370899457402698,-1.0370899457402687,13.6295767209264
2.600000000000001,-28.001428534987262,367.99857146501296,1000.0,0.0,0.0,0.0,100.0,45.0,10.0,8.980743193747258E-16,14.66666666666667,-1.0370899457402696,-1.0370899457402698,-1.0370899457402687,13.6295767209264
2.700000000000001,-29.038518480727532,381.6281481859394,1000.0,0.0,0.0,0.0,100.0,45.0,10.0,8.980743193747258E-16,14.66666666666667,-1.0370899457402696,-1.0370899457402698,-1.0370899457402687,13.6295767209264
2.800000000000001,-30.075608426467802,395.2577249068658,1000.0,0.0,0.0,0.0,100.0,45.0,10.0,8.980743193747258E-16,14.66666666666667,-1.0370899457402696,-1.0370899457402698,-1.0370899457402687,13.6295767209264
2.9000000000000012,-31.112698372208072,408.8873016277922,1000.0,0.0,0.0,0.0,100.0,45.0,10.0,8.980743193747258E-16,14.66666666666667,-1.0370899457402696,-1.0370899457402698,-1.0370899457402687,13.6295767209264
3.0000000000000013,-32.14978831794834,422.51687834871865,1000.0,0.0,0.0,0.0,100.0,45.0,10.0,8.980743193747258E-16,14.66666666666667,-1.0370899457402696,-1.0370899457402698,-1.0370899457402687,13.6295767209264
3.1000000000000014,-33.18687826368861,436.14645506964507,1000.0,0.0,0.0,0.0,100.0,45.0,10.0,8.980743193747258E-16,14.66666666666667,-1.0370899457402696,-1.0370899457402698,-1.0370899457402687,13.6295767209264
3.2000000000000015,-34.22396820942888,449.7760317905715,1000.0,0.0,0.0,0.0,100.0,45.0,10.0,8.980743193747258E-16,14.66666666666667,-1.0370899457402696,-1.0370899457402698,-1.0370899457402687,13.6295767209264
3.3000000000000016,-35.26105815516915,463.4056085114979,1000.0,0.0,0.0,0.0,100.0,45.0,10.0,8.980743193747258E-16,14.66666666666667,-1.0370899457402696,-1.0370899457402698,-1.0370899457402687,13.6295767209264
3.4000000000000017,-36.29814810090942,477.03518523242434,1000.0,0.0,0.0,0.0,100.0,45.0,10.0,8.980743193747258E-16,14.66666666666667,-1.0370899457402696,-1.0370899457402698,-1.0370899457402687,13.6295767209264
3.5000000000000018,-37.33523804664969,490.66476195335076,1000.0,0.0,0.0,0.0,100.0,45.0,10.0,8.980743193747258E-16,14.66666666666667,-1.0370899457402696,-1.0370899457402698,-1.0370899457402687,13.6295767209264
3.600000000000002,-38.37232799238996,504.2943386742772,1000.0,0.0,0.0,0.0,100.0,45.0,10.0,8.980743193747258E-16,14.66666666666667,-1.0370899457402696,-1.0370899457402698,-1.0370899457402687,13.6295767209264
3.700000000000002,-39.40941793813023,517.9239153952036,1000.0,0.0,0.0,0.0,100.0,45.0,10.0,8.980743193747258E-16,14.66666666666667,-1.0370899457402696,-1.0370899457402698,-1.0370899457402687,13.6295767209264
3.800000000000002,-40.4465078838705,531.55349211613,1000.0,0.0,0.0,0.0,100.0,45.0,10.0,8.980743193747258E-16,14.66666666666667,-1.0370899457402696,-1.0370899457402698,-1.0370899457402687,13.6295767209264
3.900000000000002,-41.48359782961077,545.1830688370563,1000.0,0.0,0.0,0.0,100.0,45.0,10.0,8.980743193747258E-16,14.66666666666667,-1.0370899457402696,-1.0370899457402698,-1.0370899457402687,13.6295767209264
4.000000000000002,-42.52068777535104,558.8126455579827,1000.0,0.0,0.0,0.0,100.0,45.0,10.0,8.980743193747258E-16,14.66666666666667,-1.0370899457402696,-1.0370899457402698,-1.0370899457402687,13.6295767209264
4.100000000000001,-43.55777772109131,572.4422222789091,1000.0,0.0,0.0,0.0,100.0,45.0,10.0,8.980743193747258E-16,14.66666666666667,-1.0370899457402696,-1.0370899457402698,-1.0370899457402687,13.6295767209264
4.200000000000001,-44.59486766683158,586.0717989998354,1000.0,0.0,0.0,0.0,100.0,45.0,10.0,8.980743193747258E-16,14.66666666666667,-1.0370899457402696,-1.0370899457402698,-1.0370899457402687,13.6295767209264
4.300000000000001,-45.63195761257185,599.7013757207618,1000.0,0.0,0.0,0.0,100.0,45.0,10.0,8.980743193747258E-16,14.66666666666667,-1.0370899457402696,-1.0370899457402698,-1.0370899457402687,13.6295767209264
4.4,-46.66904755831212,613.3309524416882,1000.0,0.0,0.0,0.0,100.0,45.0,10.0,8.980743193747258E-16,14.66666666666667,-1.0370899457402696,-1.0370899457402698,-1.0370899457402687,13.6295767209264
4.5,-47.70613750405239,626.9605291626145,1000.0,0.0,0.0,0.0,100.0,45.0,10.0,8.980743193747258E-16,14.66666666666667,-1.0370899457402696,-1.0370899457402698,-1.0370899457402687,13.6295767209264
4.6,-48.74322744979266,640.5901058835409,1000.0,0.0,0.0,0.0,100.0,45.0,10.0,8.980743193747258E-16,14.66666666666667,-1.0370899457402696,-1.0370899457402698,-1.0370899457402687,13.6295767209264
4.699999999999999,-49.78031739553293,654.2196826044673,1000.0,0.0,0.0,0.0,100.0,45.0,10.0,8.980743193747258E-16,14.66666666666667,-1.0370899457402696,-1.0370899457402698,-1.0370899457402687,13.6295767209264
4.799999999999999,-50.8174073412732,667.8492593253936,1000.0,0.0,0.0,0.0,100.0,45.0,10.0,8.980743193747258E-16,14.66666666666667,-1.0370899457402696,-1.0370899457402698,-1.0370899457402687,13.6295767209264
4.899999999999999,-51.85449728701347,681.47883604632,1000.0,0.0,0.0,0.0,100.0,45.0,10.0,8.980743193747258E-16,14.66666666666667,-1.0370899457402696,-1.0370899457402698,-1.0370899457402687,13.6295767209264
4.999999999999998,-52.89158723275374,695.1084127672464,1000.0,0.0,0.0,0.0,100.0,45.0,10.0,8.980743193747258E-16,14.66666666666667,-1.0370899457402696,-1.0370899457402698,-1.0370899457402687,13.6295767209264
5.099999999999998,-53.92867717849401,708.7379894881727,1000.0,0.0,0.0,0.0,100.0,45.0,10.0,8.980743193747258E-16,14.66666666666667,-1.0370899457402696,-1.0370899457402698,-1.0370899457402687,13.6295767209264
5.1999999999999975,-54.96576712423428,722.3675662090991,1000.0,0.0,0.0,0.0,100.0,45.0,10.0,8.980743193747258E-16,14.66666666666667,-1.0370899457402696,-1.0370899457402698,-1.0370899457402687,13.6295767209264
5.299999999999997,-56.00285706997455,735.9971429300255,1000.0,0.0,0.0,0.0,100.0,45.0,10.0,8.980743193747258E-16,14.66666666666667,-1.0370899457402696,-1.0370899457402698,-1.0370899457402687,13.6295767209264
5.399999999999997,-57.03994701571482,749.6267196509518,1000.0,0.0,0.0,0.0,100.0,45.0,10.0,8.980743193747258E-16,14.66666666666667,-1.0370899457402696,-1.0370899457402698,-1.0370899457402687,13.6295767209264
5.4999999999999964,-58.07703696145509,763.2562963718782,1000.0,0.0,0.0,0.0,100.0,45.0,10.0,8.980743193747258E-16,14.66666666666667,-1.0370899457402696,-1.0370899457402698,-1.0370899457402687,13.6295767209264
5.599999999999996,-59.11412690719536,776.8858730928046,1000.0,0.0,0.0,0.0,100.0,45.0,10.0,8.980743193747258E-16,14.66666666666667,-1.0370899457402696,-1.0370899457402698,-1.0370899457402687,13.6295767209264
5.699999999999996,-60.15121685293563,790.5154498137309,1000.0,0.0,0.0,0.0,100.0,45.0,10.0,8.980743193747258E-16,14.66666666666667,-1.0370899457402696,-1.0370899457402698,-1.0370899457402687,13.6295767209264
5.799999999999995,-61.1883067986759,804.1450265346573,1000.0,0.0,0.0,0.0,100.0,45.0,10.0,8.980743193747258E-16,14.66666666666667,-1.0370899457402696,-1.0370899457402698,-1.0370899457402687,13.6295767209264
5.899999999999995,-62.22539674441617,817.7746032555837,1000.0,0.0,0.0,0.0,100.0,45.0,10.0,8.980743193747258E-16,14.66666666666667,-1.0370899457402696,-1.0370899457402698,-1.0370899457402687,13.6295767209264
5.999999999999995,-63.26248669015644,831.40417997651,1000.0,0.0,0.0,0.0,100.0,45.0,10.0,8.980743193747258E-16,14.66666666666667,-1.0370899457402696,-1.0370899457402698,-1.0370899457402687,13.6295767209264
6.099999999999994,-64.29957663589671,845.0337566974364,1000.0,0.0,0.0,0.0,100.0,45.0,10.0,8.980743193747258E-16,14.66666666666667,-1.0370899457402696,-1.0370899457402698,-1.0370899457402687,13.6295767209264
6.199999999999994,-65.33666658163698,858.6633334183628,1000.0,0.0,0.0,0.0,100.0,45.0,10.0,8.980743193747258E-16,14.66666666666667,-1.0370899457402696,-1.0370899457402698,-1.0370899457402687,13.6295767209264
6.299999999999994,-66.37375652737724,872.2929101392891,1000.0,0.0,0.0,0.0,100.0,45.0,10.0,8.980743193747258E-16,14.66666666666667,-1.0370899457402696,-1.0370899457402698,-1.0370899457402687,13.6295767209264
6.399999999999993,-67.4108464731175,885.9224868602155,1000.0,0.0,0.0,0.0,100.0,45.0,10.0,8.980743193747258E-16,14.66666666666667,-1.0370899457402696,-1.0370899457402698,-1.0370899457402687,13.6295767209264
6.499999999999993,-68.44793641885776,899.5520635811419,1000.0,0.0,0.0,0.0,100.0,45.0,10.0,8.980743193747258E-16,14.66666666666667,-1.0370899457402696,-1.0370899457402698,-1.0370899457402687,13.6295767209264
6.5999999999999925,-69.48502636459803,913.1816403020682,1000.0,0.0,0.0,0.0,100.0,45.0,10.0,8.980743193747258E-16,14.66666666666667,-1.0370899457402696,-1.0370899457402698,-1.0370899457402687,13.6295767209264
6.699999999999992,-70.52211631033829,926.8112170229946,1000.0,0.0,0.0,0.0,100.0,45.0,10.0,8.980743193747258E-16,14.66666666666667,-1.0370899457402696,-1.0370899457402698,-1.0370899457402687,13.6295767209264
6.799999999999992,-71.55920625607855,940.440793743921,1000.0,0.0,0.0,0.0,100.0,45.0,10.0,8.980743193747258E-16,14.66666666666667,-1.0370899457402696,-1.0370899457402698,-1.0370899457402687,13.6295767209264
6.8999999999999915,-72.59629620181882,954.0703704648473,1000.0,0.0,0.0,0.0,100.0,45.0,10.0,8.980743193747258E-16,14.66666666666667,-1.0370899457402696,-1.0370899457402698,-1.0370899457402687,13.6295767209264
6.999999999999991,-73.63338614755908,967.6999471857737,1000.0,0.0,0.0,0.0,100.0,45.0,10.0,8.980743193747258E-16,14.66666666666667,-1.0370899457402696,-1.0370899457402698,-1.0370899457402687,13.6295767209264
7.099999999999991,-74.67047609329934,981.3295239067,1000.0,0.0,0.0,0.0,100.0,45.0,10.0,8.980743193747258E-16,14.66666666666667,-1.0370899457402696,-1.0370899457402698,-1.0370899457402687,13.6295767209264
7.19999999999999,-75.7075660390396,994.9591006276264,1000.0,0.0,0.0,0.0,100.0,45.0,10.0,8.980743193747258E-16,14.66666666666667,-1.0370899457402696,-1.0370899457402698,-1.0370899457402687,13.6295767209264
7.29999999999999,-76.74465598477987,1008.5886773485528,1000.0,0.0,0.0,0.0,100.0,45.0,10.0,8.980743193747258E-16,14.66666666666667,-1.0370899457402696,-1.0370899457402698,-1.0370899457402687,13.6295767209264
7.39999999999999,-77.78174593052013,1022.2182540694791,1000.0,0.0,0.0,0.0,100.0,45.0,10.0,8.980743193747258E-16,14.66666666666667,-1.0370899457402696,-1.0370899457402698,-1.0370899457402687,13.6295767209264
7.499999999999989,-78.8188358762604,1035.8478307904056,1000.0,0.0,0.0,0.0,100.0,45.0,10.0,8.980743193747258E-16,14.66666666666667,-1.0370899457402696,-1.0370899457402698,-1.0370899457402687,13.6295767209264
7.599999999999989,-79.85592582200066,1049.477407511332,1000.0,0.0,0.0,0.0,100.0,45.0,10.0,8.980743193747258E-16,14.66666666666667,-1.0370899457402696,-1.0370899457402698,-1.0370899457402687,13.6295767209264
7.699999999999989,-80.89301576774092,1063.1069842322586,1000.0,0.0,0.0,0.0,100.0,45.0,10.0,8.980743193747258E-16,14.66666666666667,-1.0370899457402696,-1.0370899457402698,-1.0370899457402687,13.6295767209264
7.799999999999988,-81.93010571348118,1076.736560953185,1000.0,0.0,0.0,0.0,100.0,45.0,10.0,8.980743193747258E-16,14.66666666666667,-1.0370899457402696,-1.0370899457402698,-1.0370899457402687,13.6295767209264
7.899999999999988,-82.96719565922145,1090.3661376741115,1000.0,0.0,0.0,0.0,100.0,45.0,10.0,8.980743193747258E-16,14.66666666666667,-1.0370899457402696,-1.0370899457402698,-1.0370899457402687,13.6295767209264
7.999999999999988,-84.00428560496171,1103.995714395038,1000.0,0.0,0.0,0.0,100.0,45.0,10.0,8.980743193747258E-16,14.66666666666667,-1.0370899457402696,-1.0370899457402698,-1.0370899457402687,13.6295767209264
8.099999999999987,-85.04137555070197,1117.6252911159645,1000.0,0.0,0.0,0.0,100.0,45.0,10.0,8.980743193747258E-16,14.66666666666667,-1.0370899457402696,-1.0370899457402698,-1.0370899457402687,13.6295767209264
8.199999999999987,-86.07846549644223,1131.254867836891,1000.0,0.0,0.0,0.0,100.0,45.0,10.0,8.980743193747258E-16,14.66666666666667,-1.0370899457402696,-1.0370899457402698,-1.0370899457402687,13.6295767209264
8.299999999999986,-87.1155554421825,1144.8844445578175,1000.0,0.0,0.0,0.0,100.0,45.0,10.0,8.980743193747258E-16,14.66666666666667,-1.0370899457402696,-1.0370899457402698,-1.0370899457402687,13.6295767209264
8.399999999999986,-88.15264538792276,1158.514021278744,1000.0,0.0,0.0,0.0,100.0,45.0,10.0,8.980743193747258E-16,14.66666666666667,-1.0370899457402696,-1.0370899457402698,-1.0370899457402687,13.6295767209264
8.499999999999986,-89.18973533366302,1172.1435979996704,1000.0,0.0,0.0,0.0,100.0,45.0,10.0,8.980743193747258E-16,14.66666666666667,-1.0370899457402696,-1.0370899457402698,-1.0370899457402687,13.6295767209264
8.599999999999985,-90.22682527940329,1185.773174720597,1000.0,0.0,0.0,0.0,100.0,45.0,10.0,8.980743193747258E-16,14.66666666666667,-1.0370899457402696,-1.0370899457402698,-1.0370899457402687,13.6295767209264
8.699999999999985,-91.26391522514355,1199.4027514415234,1000.0,0.0,0.0,0.0,100.0,45.0,10.0,8.980743193747258E-16,14.66666666666667,-1.0370899457402696,-1.0370899457402698,-1.0370899457402687,13.6295767209264
8.799999999999985,-92.30100517088381,1213.0323281624499,1000.0,0.0,0.0,0.0,100.0,45.0,10.0,8.980743193747258E-16,14.66666666666667,-1.0370899457402696,-1.0370899457402698,-1.0370899457402687,13.6295767209264
8.899999999999984,-93.33809511662407,1226.6619048833763,1000.0,0.0,0.0,0.0,100.0,45.0,10.0,8.980743193747258E-16,14.66666666666667,-1.0370899457402696,-1.0370899457402698,-1.0370899457402687,13.6295767209264
8.999999999999984,-94.37518506236434,1240.2914816043028,1000.0,0.0,0.0,0.0,100.0,45.0,10.0,8.980743193747258E-16,14.66666666666667,-1.0370899457402696,-1.0370899457402698,-1.0370899457402687,13.6295767209264
9.099999999999984,-95.4122750081046,1253.9210583252293,1000.0,0.0,0.0,0.0,100.0,45.0,10.0,8.980743193747258E-16,14.66666666666667,-1.0370899457402696,-1.0370899457402698,-1.0370899457402687,13.6295767209264
9.199999999999983,-96.44936495384486,1267.5506350461558,1000.0,0.0,0.0,0.0,100.0,45.0,10.0,8.980743193747258E-16,14.66666666666667,-1.0370899457402696,-1.0370899457402698,-1.0370899457402687,13.6295767209264
9.299999999999983,-97.48645489958513,1281.1802117670823,1000.0,0.0,0.0,0.0,100.0,45.0,10.0,8.980743193747258E-16,14.66666666666667,-1.0370899457402696,-1.0370899457402698,-1.0370899457402687,13.6295767209264
9.399999999999983,-98.52354484532539,1294.8097884880087,1000.0,0.0,0.0,0.0,100.0,45.0,10.0,8.980743193747258E-16,14.66666666666667,-1.0370899457402696,-1.0370899457402698,-1.0370899457402687,13.6295767209264
9.499999999999982,-99.56063479106565,1308.4393652089352,1000.0,0.0,0.0,0.0,100.0,45.0,10.0,8.980743193747258E-16,14.66666666666667,-1.0370899457402696,-1.0370899457402698,-1.0370899457402687,13.6295767209264
9.599999999999982,-100.59772473680592,1322.0689419298617,1000.0,0.0,0.0,0.0,100.0,45.0,10.0,8.980743193747258E-16,14.66666666666667,-1.0370899457402696,-1.0370899457402698,-1.0370899457402687,13.6295767209264
9.699999999999982,-101.63481468254618,1335.6985186507882,1000.0,0.0,0.0,0.0,100.0,45.0,10.0,8.980743193747258E-16,14.66666666666667,-1.0370899457402696,-1.0370899457402698,-1.0370899457402687,13.6295767209264
9.799999999999981,-102.67190462828644,1349.3280953717147,1000.0,0.0,0.0,0.0,100.0,45.0,10.0,8.980743193747258E-16,14.66666666666667,-1.0370899457402696,-1.0370899457402698,-1.0370899457402687,13.6295767209264
9.89999999999998,-103.7089945740267,1362.9576720926411,1000.0,0.0,0.0,0.0,100.0,45.0,10.0,8.980743193747258E-16,14.66666666666667,-1.0370899457402696,-1.0370899457402698,-1.0370899457402687,13.6295767209264
9.99999999999998,-104.74608451976697,1376.5872488135676,1000.0,0.0,0.0,0.0,100.0,45.0,10.0,8.980743193747258E-16,14.66666666666667,-1.0370899457402696,-1.0370899457402698,-1.0370899457402687,13.6295767209264
10.09999999999998,-105.78317446550723,1390.216825534494,1000.0,0.0,0.0,0.0,100.0,45.0,10.0,8.980743193747258E-16,14.66666666666667,-1.0370899457402696,-1.0370899457402698,-1.0370899457402687,13.6295767209264
10.19999999999998,-106.82026441124749,1403.8464022554206,1000.0,0.0,0.0,0.0,100.0,45.0,10.0,8.980743193747258E-16,14.66666666666667,-1.0370899457402696,-1.0370899457402698,-1.0370899457402687,13.6295767209264
10.29999999999998,-107.85735435698776,1417.475978976347,1000.0,0.0,0.0,0.0,100.0,45.0,10.0,8.980743193747258E-16,14.66666666666667,-1.0370899457402696,-1.0370899457402698,-1.0370899457402687,13.6295767209264
10.399999999999979,-108.89444430272802,1431.1055556972735,1000.0,0.0,0.0,0.0,100.0,45.0,10.0,8.980743193747258E-16,14.66666666666667,-1.0370899457402696,-1.0370899457402698,-1.0370899457402687,13.6295767209264
10.499999999999979,-109.93153424846828,1444.7351324182,1000.0,0.0,0.0,0.0,100.0,45.0,10.0,8.980743193747258E-16,14.66666666666667,-1.0370899457402696,-1.0370899457402698,-1.0370899457402687,13.6295767209264
10.599999999999978,-110.96862419420854,1458.3647091391265,1000.0,0.0,0.0,0.0,100.0,45.0,10.0,8.980743193747258E-16,14.66666666666667,-1.0370899457402696,-1.0370899457402698,-1.0370899457402687,13.6295767209264
10.699999999999978,-112.00571413994881,1471.994285860053,1000.0,0.0,0.0,0.0,100.0,45.0,10.0,8.980743193747258E-16,14.66666666666667,-1.0370899457402696,-1.0370899457402698,-1.0370899457402687,13.6295767209264
10.799999999999978,-113.04280408568907,1485.6238625809794,1000.0,0.0,0.0,0.0,100.0,45.0,10.0,8.980743193747258E-16,14.66666666666667,-1.0370899457402696,-1.0370899457402698,-1.0370899457402687,13.6295767209264
10.899999999999977,-114.07989403142933,1499.253439301906,1000.0,0.0,0.0,0.0,100.0,45.0,10.0,8.980743193747258E-16,14.66666666666667,-1.0370899457402696,-1.0370899457402698,-1.0370899457402687,13.6295767209264
10.999999999999977,-115.1169839771696,1512.8830160228324,1000.0,0.0,0.0,0.0,100.0,45.0,10.0,8.980743193747258E-16,14.66666666666667,-1.0370899457402696,-1.0370899457402698,-1.0370899457402687,13.6295767209264
11.099999999999977,-116.15407392290986,1526.512592743759,1000.0,0.0,0.0,0.0,100.0,45.0,10.0,8.980743193747258E-16,14.66666666666667,-1.0370899457402696,-1.0370899457402698,-1.0370899457402687,13.6295767209264
11.199999999999976,-117.19116386865012,1540.1421694646854,1000.0,0.0,0.0,0.0,100.0,45.0,10.0,8.980743193747258E-16,14.66666666666667,-1.0370899457402696,-1.0370899457402698,-1.0370899457402687,13.6295767209264
11.299999999999976,-118.22825381439038,1553.7717461856118,1000.0,0.0,0.0,0.0,100.0,45.0,10.0,8.980743193747258E-16,14.66666666666667,-1.0370899457402696,-1.0370899457402698,-1.0370899457402687,13.6295767209264
11.399999999999975,-119.26534376013065,1567.4013229065383,1000.0,0.0,0.0,0.0,100.0,45.0,10.0,8.980743193747258E-16,14.66666666666667,-1.0370899457402696,-1.0370899457402698,-1.0370899457402687,13.6295767209264
11.499999999999975,-120.30243370587091,1581.0308996274648,1000.0,0.0,0.0,0.0,100.0,45.0,10.0,8.980743193747258E-16,14.66666666666667,-1.0370899457402696,-1.0370899457402698,-1.0370899457402687,13.6295767209264
11.599999999999975,-121.33952365161117,1594.6604763483913,1000.0,0.0,0.0,0.0,100.0,45.0,10.0,8.980743193747258E-16,14.66666666666667,-1.0370899457402696,-1.0370899457402698,-1.0370899457402687,13.6295767209264
11.699999999999974,-122.37661359735144,1608.2900530693178,1000.0,0.0,0.0,0.0,100.0,45.0,10.0,8.980743193747258E-16,14.66666666666667,-1.0370899457402696,-1.0370899457402698,-1.0370899457402687,13.6295767209264
11.799999999999974,-123.4137035430917,1621.9196297902442,1000.0,0.0,0.0,0.0,100.0,45.0,10.0,8.980743193747258E-16,14.66666666666667,-1.0370899457402696,-1.0370899457402698,-1.0370899457402687,13.6295767209264
11.899999999999974,-124.45079348883196,1635.5492065111707,1000.0,0.0,0.0,0.0,100.0,45.0,10.0,8.980743193747258E-16,14.66666666666667,-1.0370899457402696,-1.0370899457402698,-1.0370899457402687,13.6295767209264
11.999999999999973,-125.48788343457223,1649.1787832320972,1000.0,0.0,0.0,0.0,100.0,45.0,10.0,8.980743193747258E-16,14.66666666666667,-1.0370899457402696,-1.0370899457402698,-1.0370899457402687,13.6295767209264
12.099999999999973,-126.52497338031249,1662.8083599530237,1000.0,0.0,0.0,0.0,100.0,45.0,10.0,8.980743193747258E-16,14.66666666666667,-1.0370899457402696,-1.0370899457402698,-1.0370899457402687,13.6295767209264
12.199999999999973,-127.56206332605275,1676.4379366739502,1000.0,0.0,0.0,0.0,100.0,45.0,10.0,8.980743193747258E-16,14.66666666666667,-1.0370899457402696,-1.0370899457402698,-1.0370899457402687,13.6295767209264
12.299999999999972,-128.59915327179303,1690.0675133948766,1000.0,0.0,0.0,0.0,100.0,45.0,10.0,8.980743193747258E-16,14.66666666666667,-1.0370899457402696,-1.0370899457402698,-1.0370899457402687,13.6295767209264
12.399999999999972,-129.6362432175333,1703.6970901158031,1000.0,0.0,0.0,0.0,100.0,45.0,10.0,8.980743193747258E-16,14.66666666666667,-1.0370899457402696,-1.0370899457402698,-1.0370899457402687,13.6295767209264
12.499999999999972,-130.67333316327355,1717.3266668367296,1000.0,0.0,0.0,0.0,100.0,45.0,10.0,8.980743193747258E-16,14.66666666666667,-1.0370899457402696,-1.0370899457402698,-1.0370899457402687,13.6295767209264
12.599999999999971,-131.71042310901382,1730.956243557656,1000.0,0.0,0.0,0.0,100.0,45.0,10.0,8.980743193747258E-16,14.66666666666667,-1.0370899457402696,-1.0370899457402698,-1.0370899457402687,13.6295767209264
12.69999999999997,-132.74751305475408,1744.5858202785826,1000.0,0.0,0.0,0.0,100.0,45.0,10.0,8.980743193747258E-16,14.66666666666667,-1.0370899457402696,-1.0370899457402698,-1.0370899457402687,13.6295767209264
12.79999999999997,-133.78460300049434,1758.215396999509,1000.0,0.0,0.0,0.0,100.0,45.0,10.0,8.980743193747258E-16,14.66666666666667,-1.0370899457402696,-1.0370899457402698,-1.0370899457402687,13.6295767209264
12.89999999999997,-134.8216929462346,1771.8449737204355,1000.0,0.0,0.0,0.0,100.0,45.0,10.0,8.980743193747258E-16,14.66666666666667,-1.0370899457402696,-1.0370899457402698,-1.0370899457402687,13.6295767209264
12.99999999999997,-135.85878289197487,1785.474550441362,1000.0,0.0,0.0,0.0,100.0,45.0,10.0,8.980743193747258E-16,14.66666666666667,-1.0370899457402696,-1.0370899457402698,-1.0370899457402687,13.6295767209264
13.09999999999997,-136.89587283771513,1799.1041271622885,1000.0,0.0,0.0,0.0,100.0,45.0,10.0,8.980743193747258E-16,14.66666666666667,-1.0370899457402696,-1.0370899457402698,-1.0370899457402687,13.6295767209264
13.199999999999969,-137.9329627834554,1812.733703883215,1000.0,0.0,0.0,0.0,100.0,45.0,10.0,8.980743193747258E-16,14.66666666666667,-1.0370899457402696,-1.0370899457402698,-1.0370899457402687,13.6295767209264
13.299999999999969,-138.97005272919566,1826.3632806041414,1000.0,0.0,0.0,0.0,100.0,45.0,10.0,8.980743193747258E-16,14.66666666666667,-1.0370899457402696,-1.0370899457402698,-1.0370899457402687,13.6295767209264
13.399999999999968,-140.00714267493592,1839.992857325068,1000.0,0.0,0.0,0.0,100.0,45.0,10.0,8.980743193747258E-16,14.66666666666667,-1.0370899457402696,-1.0370899457402698,-1.0370899457402687,13.6295767209264
13.499999999999968,-141.04423262067618,1853.6224340459944,1000.0,0.0,0.0,0.0,100.0,45.0,10.0,8.980743193747258E-16,14.66666666666667,-1.0370899457402696,-1.0370899457402698,-1.0370899457402687,13.6295767209264
13.599999999999968,-142.08132256641645,1867.2520107669209,1000.0,0.0,0.0,0.0,100.0,45.0,10.0,8.980743193747258E-16,14.66666666666667,-1.0370899457402696,-1.0370899457402698,-1.0370899457402687,13.6295767209264
13.699999999999967,-143.1184125121567,1880.8815874878474,1000.0,0.0,0.0,0.0,100.0,45.0,10.0,8.980743193747258E-16,14.66666666666667,-1.0370899457402696,-1.0370899457402698,-1.0370899457402687,13.6295767209264
13.799999999999967,-144.15550245789697,1894.5111642087738,1000.0,0.0,0.0,0.0,100.0,45.0,10.0,8.980743193747258E-16,14.66666666666667,-1.0370899457402696,-1.0370899457402698,-1.0370899457402687,13.6295767209264
13.899999999999967,-145.19259240363724,1908.1407409297003,1000.0,0.0,0.0,0.0,100.0,45.0,10.0,8.980743193747258E-16,14.66666666666667,-1.0370899457402696,-1.0370899457402698,-1.0370899457402687,13.6295767209264
13.999999999999966,-146.2296823493775,1921.7703176506268,1000.0,0.0,0.0,0.0,100.0,45.0,10.0,8.980743193747258E-16,14.66666666666667,-1.0370899457402696,-1.0370899457402698,-1.0370899457402687,13.6295767209264
14.099999999999966,-147.26677229511776,1935.3998943715533,1000.0,0.0,0.0,0.0,100.0,45.0,10.0,8.980743193747258E-16,14.66666666666667,-1.0370899457402696,-1.0370899457402698,-1.0370899457402687,13.6295767209264
14.199999999999966,-148.30386224085802,1949.0294710924798,1000.0,0.0,0.0,0.0,100.0,45.0,10.0,8.980743193747258E-16,14.66666666666667,-1.0370899457402696,-1.0370899457402698,-1.0370899457402687,13.6295767209264
14.299999999999965,-149.3409521865983,1962.6590478134062,1000.0,0.0,0.0,0.0,100.0,45.0,10.0,8.980743193747258E-16,14.66666666666667,-1.0370899457402696,-1.0370899457402698,-1.0370899457402687,13.6295767209264
14.399999999999965,-150.37804213233855,1976.2886245343327,1000.0,0.0,0.0,0.0,100.0,45.0,10.0,8.980743193747258E-16,14.66666666666667,-1.0370899457402696,-1.0370899457402698,-1.0370899457402687,13.6295767209264
14.499999999999964,-151.4151320780788,1989.9182012552592,1000.0,0.0,0.0,0.0,100.0,45.0,10.0,8.980743193747258E-16,14.66666666666667,-1.0370899457402696,-1.0370899457402698,-1.0370899457402687,13.6295767209264
14.599999999999964,-152.45222202381908,2003.5477779761857,1000.0,0.0,0.0,0.0,100.0,45.0,10.0,8.980743193747258E-16,14.66666666666667,-1.0370899457402696,-1.0370899457402698,-1.0370899457402687,13.6295767209264
14.699999999999964,-153.48931196955934,2017.1773546971122,1000.0,0.0,0.0,0.0,100.0,45.0,10.0,8.980743193747258E-16,14.66666666666667,-1.0370899457402696,-1.0370899457402698,-1.0370899457402687,13.6295767209264
14.799999999999963,-154.5264019152996,2030.8069314180386,1000.0,0.0,0.0,0.0,100.0,45.0,10.0,8.980743193747258E-16,14.66666666666667,-1.0370899457402696,-1.0370899457402698,-1.0370899457402687,13.6295767209264
14.899999999999963,-155.56349186103986,2044.436508138965,1000.0,0.0,0.0,0.0,100.0,45.0,10.0,8.980743193747258E-16,14.66666666666667,-1.0370899457402696,-1.0370899457402698,-1.0370899457402687,13.6295767209264
14.999999999999963,-156.60058180678013,2058.0660848598914,1000.0,0.0,0.0,0.0,100.0,45.0,10.0,8.980743193747258E-16,14.66666666666667,-1.0370899457402696,-1.0370899457402698,-1.0370899457402687,13.6295767209264
15.099999999999962,-157.6376717525204,2071.6956615808176,1000.0,0.0,0.0,0.0,100.0,45.0,10.0,8.980743193747258E-16,14.66666666666667,-1.0370899457402696,-1.0370899457402698,-1.0370899457402687,13.6295767209264
15.199999999999962,-158.67476169826065,2085.325238301744,1000.0,0.0,0.0,0.0,100.0,45.0,10.0,8.980743193747258E-16,14.66666666666667,-1.0370899457402696,-1.0370899457402698,-1.0370899457402687,13.6295767209264
15.299999999999962,-159.71185164400092,2098.95481502267,1000.0,0.0,0.0,0.0,100.0,45.0,10.0,8.980743193747258E-16,14.66666666666667,-1.0370899457402696,-1.0370899457402698,-1.0370899457402687,13.6295767209264
15.399999999999961,-160.74894158974118,2112.5843917435964,1000.0,0.0,0.0,0.0,100.0,45.0,10.0,8.980743193747258E-16,14.66666666666667,-1.0370899457402696,-1.0370899457402698,-1.0370899457402687,13.6295767209264
15.499999999999961,-161.78603153548144,2126.2139684645226,1000.0,0.0,0.0,0.0,100.0,45.0,10.0,8.980743193747258E-16,14.66666666666667,-1.0370899457402696,-1.0370899457402698,-1.0370899457402687,13.6295767209264
15.59999999999996,-162.8231214812217,2139.843545185449,1000.0,0.0,0.0,0.0,100.0,45.0,10.0,8.980743193747258E-16,14.66666666666667,-1.0370899457402696,-1.0370899457402698,-1.0370899457402687,13.6295767209264
15.69999999999996,-163.86021142696197,2153.473121906375,1000.0,0.0,0.0,0.0,100.0,45.0,10.0,8.980743193747258E-16,14.66666666666667,-1.0370899457402696,-1.0370899457402698,-1.0370899457402687,13.6295767209264
15.79999999999996,-164.89730137270223,2167.1026986273014,1000.0,0.0,0.0,0.0,100.0,45.0,10.0,8.980743193747258E-16,14.66666666666667,-1.0370899457402696,-1.0370899457402698,-1.0370899457402687,13.6295767209264
15.89999999999996,-165.9343913184425,2180.7322753482276,1000.0,0.0,0.0,0.0,100.0,45.0,10.0,8.980743193747258E-16,14.66666666666667,-1.0370899457402696,-1.0370899457402698,-1.0370899457402687,13.6295767209264
15.99999999999996,-166.97148126418276,2194.361852069154,1000.0,0.0,0.0,0.0,100.0,45.0,10.0,8.980743193747258E-16,14.66666666666667,-1.0370899457402696,-1.0370899457402698,-1.0370899457402687,13.6295767209264
16.09999999999996,-168.00857120992302,2207.99142879008,1000.0,0.0,0.0,0.0,100.0,45.0,10.0,8.980743193747258E-16,14.66666666666667,-1.0370899457402696,-1.0370899457402698,-1.0370899457402687,13.6295767209264
16.19999999999996,-169.04566115566328,2221.6210055110064,1000.0,0.0,0.0,0.0,100.0,45.0,10.0,8.980743193747258E-16,14.66666666666667,-1.0370899457402696,-1.0370899457402698,-1.0370899457402687,13.6295767209264
16.29999999999996,-170.08275110140355,2235.2505822319326,1000.0,0.0,0.0,0.0,100.0,45.0,10.0,8.980743193747258E-16,14.66666666666667,-1.0370899457402696,-1.0370899457402698,-1.0370899457402687,13.6295767209264
16.399999999999963,-171.1198410471438,2248.880158952859,1000.0,0.0,0.0,0.0,100.0,45.0,10.0,8.980743193747258E-16,14.66666666666667,-1.0370899457402696,-1.0370899457402698,-1.0370899457402687,13.6295767209264
16.499999999999964,-172.15693099288407,2262.509735673785,1000.0,0.0,0.0,0.0,100.0,45.0,10.0,8.980743193747258E-16,14.66666666666667,-1.0370899457402696,-1.0370899457402698,-1.0370899457402687,13.6295767209264
16.599999999999966,-173.19402093862433,2276.1393123947114,1000.0,0.0,0.0,0.0,100.0,45.0,10.0,8.980743193747258E-16,14.66666666666667,-1.0370899457402696,-1.0370899457402698,-1.0370899457402687,13.6295767209264
16.699999999999967,-174.2311108843646,2289.7688891156376,1000.0,0.0,0.0,0.0,100.0,45.0,10.0,8.980743193747258E-16,14.66666666666667,-1.0370899457402696,-1.0370899457402698,-1.0370899457402687,13.6295767209264
16.79999999999997,-175.26820083010486,2303.398465836564,1000.0,0.0,0.0,0.0,100.0,45.0,10.0,8.980743193747258E-16,14.66666666666667,-1.0370899457402696,-1.0370899457402698,-1.0370899457402687,13.6295767209264
16.89999999999997,-176.30529077584512,2317.02804255749,1000.0,0.0,0.0,0.0,100.0,45.0,10.0,8.980743193747258E-16,14.66666666666667,-1.0370899457402696,-1.0370899457402698,-1.0370899457402687,13.6295767209264
16.99999999999997,-177.34238072158539,2330.6576192784164,1000.0,0.0,0.0,0.0,100.0,45.0,10.0,8.980743193747258E-16,14.66666666666667,-1.0370899457402696,-1.0370899457402698,-1.0370899457402687,13.6295767209264
17.099999999999973,-178.37947066732565,2344.2871959993427,1000.0,0.0,0.0,0.0,100.0,45.0,10.0,8.980743193747258E-16,14.66666666666667,-1.0370899457402696,-1.0370899457402698,-1.0370899457402687,13.6295767209264
17.199999999999974,-179.4165606130659,2357.916772720269,1000.0,0.0,0.0,0.0,100.0,45.0,10.0,8.980743193747258E-16,14.66666666666667,-1.0370899457402696,-1.0370899457402698,-1.0370899457402687,13.6295767209264
17.299999999999976,-180.45365055880617,2371.546349441195,1000.0,0.0,0.0,0.0,100.0,45.0,10.0,8.980743193747258E-16,14.66666666666667,-1.0370899457402696,-1.0370899457402698,-1.0370899457402687,13.6295767209264
17.399999999999977,-181.49074050454644,2385.1759261621214,1000.0,0.0,0.0,0.0,100.0,45.0,10.0,8.980743193747258E-16,14.66666666666667,-1.0370899457402696,-1.0370899457402698,-1.0370899457402687,13.6295767209264
17.49999999999998,-182.5278304502867,2398.8055028830477,1000.0,0.0,0.0,0.0,100.0,45.0,10.0,8.980743193747258E-16,14.66666666666667,-1.0370899457402696,-1.0370899457402698,-1.0370899457402687,13.6295767209264
17.59999999999998,-183.56492039602696,2412.435079603974,1000.0,0.0,0.0,0.0,100.0,45.0,10.0,8.980743193747258E-16,14.66666666666667,-1.0370899457402696,-1.0370899457402698,-1.0370899457402687,13.6295767209264
17.69999999999998,-184.60201034176723,2426.0646563249,1000.0,0.0,0.0,0.0,100.0,45.0,10.0,8.980743193747258E-16,14.66666666666667,-1.0370899457402696,-1.0370899457402698,-1.0370899457402687,13.6295767209264
17.799999999999983,-185.6391002875075,2439.6942330458264,1000.0,0.0,0.0,0.0,100.0,45.0,10.0,8.980743193747258E-16,14.66666666666667,-1.0370899457402696,-1.0370899457402698,-1.0370899457402687,13.6295767209264
17.899999999999984,-186.67619023324775,2453.3238097667527,1000.0,0.0,0.0,0.0,100.0,45.0,10.0,8.980743193747258E-16,14.66666666666667,-1.0370899457402696,-1.0370899457402698,-1.0370899457402687,13.6295767209264
17.999999999999986,-187.71328017898801,2466.953386487679,1000.0,0.0,0.0,0.0,100.0,45.0,10.0,8.980743193747258E-16,14.66666666666667,-1.0370899457402696,-1.0370899457402698,-1.0370899457402687,13.6295767209264
18.099999999999987,-188.75037012472828,2480.582963208605,1000.0,0.0,0.0,0.0,100.0,45.0,10.0,8.980743193747258E-16,14.66666666666667,-1.0370899457402696,-1.0370899457402698,-1.0370899457402687,13.6295767209264
18.19999999999999,-189.78746007046854,2494.2125399295314,1000.0,0.0,0.0,0.0,100.0,45.0,10.0,8.980743193747258E-16,14.66666666666667,-1.0370899457402696,-1.0370899457402698,-1.0370899457402687,13.6295767209264
18.29999999999999,-190.8245500162088,2507.8421166504577,1000.0,0.0,0.0,0.0,100.0,45.0,10.0,8.980743193747258E-16,14.66666666666667,-1.0370899457402696,-1.0370899457402698,-1.0370899457402687,13.6295767209264
18.39999999999999,-191.86163996194907,2521.471693371384,1000.0,0.0,0.0,0.0,100.0,45.0,10.0,8.980743193747258E-16,14.66666666666667,-1.0370899457402696,-1.0370899457402698,-1.0370899457402687,13.6295767209264
18.499999999999993,-192.89872990768933,2535.10127009231,1000.0,0.0,0.0,0.0,100.0,45.0,10.0,8.980743193747258E-16,14.66666666666667,-1.0370899457402696,-1.0370899457402698,-1.0370899457402687,13.6295767209264
18.599999999999994,-193.9358198534296,2548.7308468132364,1000.0,0.0,0.0,0.0,100.0,45.0,10.0,8.980743193747258E-16,14.66666666666667,-1.0370899457402696,-1.0370899457402698,-1.0370899457402687,13.6295767209264
18.699999999999996,-194.97290979916986,2562.3604235341627,1000.0,0.0,0.0,0.0,100.0,45.0,10.0,8.980743193747258E-16,14.66666666666667,-1.0370899457402696,-1.0370899457402698,-1.0370899457402687,13.6295767209264
18.799999999999997,-196.00999974491012,2575.990000255089,1000.0,0.0,0.0,0.0,100.0,45.0,10.0,8.980743193747258E-16,14.66666666666667,-1.0370899457402696,-1.0370899457402698,-1.0370899457402687,13.6295767209264
18.9,-197.04708969065038,2589.619576976015,1000.0,0.0,0.0,0.0,100.0,45.0,10.0,8.980743193747258E-16,14.66666666666667,-1.0370899457402696,-1.0370899457402698,-1.0370899457402687,13.6295767209264
19.0,-198.08417963639064,2603.2491536969414,1000.0,0.0,0.0,0.0,100.0,45.0,10.0,8.980743193747258E-16,14.66666666666667,-1.0370899457402696,-1.0370899457402698,-1.0370899457402687,13.6295767209264
19.1,-199.1212695821309,2616.8787304178677,1000.0,0.0,0.0,0.0,100.0,45.0,10.0,8.980743193747258E-16,14.66666666666667,-1.0370899457402696,-1.0370899457402698,-1.0370899457402687,13.6295767209264
19.200000000000003,-200.15835952787117,2630.508307138794,1000.0,0.0,0.0,0.0,100.0,45.0,10.0,8.980743193747258E-16,14.66666666666667,-1.0370899457402696,-1.0370899457402698,-1.0370899457402687,13.6295767209264
19.300000000000004,-201.19544947361143,2644.13788385972,1000.0,0.0,0.0,0.0,100.0,45.0,10.0,8.980743193747258E-16,14.66666666666667,-1.0370899457402696,-1.0370899457402698,-1.0370899457402687,13.6295767209264
19.400000000000006,-202.2325394193517,2657.7674605806465,1000.0,0.0,0.0,0.0,100.0,45.0,10.0,8.980743193747258E-16,14.66666666666667,-1.0370899457402696,-1.0370899457402698,-1.0370899457402687,13.6295767209264
19.500000000000007,-203.26962936509196,2671.3970373015727,1000.0,0.0,0.0,0.0,100.0,45.0,10.0,8.980743193747258E-16,14.66666666666667,-1.0370899457402696,-1.0370899457402698,-1.0370899457402687,13.6295767209264
19.60000000000001,-204.30671931083222,2685.026614022499,1000.0,0.0,0.0,0.0,100.0,45.0,10.0,8.980743193747258E-16,14.66666666666667,-1.0370899457402696,-1.0370899457402698,-1.0370899457402687,13.6295767209264
19.70000000000001,-205.34380925657248,2698.656190743425,1000.0,0.0,0.0,0.0,100.0,45.0,10.0,8.980743193747258E-16,14.66666666666667,-1.0370899457402696,-1.0370899457402698,-1.0370899457402687,13.6295767209264
19.80000000000001,-206.38089920231275,2712.2857674643515,1000.0,0.0,0.0,0.0,100.0,45.0,10.0,8.980743193747258E-16,14.66666666666667,-1.0370899457402696,-1.0370899457402698,-1.0370899457402687,13.6295767209264
19.900000000000013,-207.417989148053,2725.9153441852777,1000.0,0.0,0.0,0.0,100.0,45.0,10.0,8.980743193747258E-16,14.66666666666667,-1.0370899457402696,-1.0370899457402698,-1.0370899457402687,13.6295767209264
20.000000000000014,-208.45507909379327,2739.544920906204,1000.0,0.0,0.0,0.0,100.0,45.0,10.0,8.980743193747258E-16,14.66666666666667,-1.0370899457402696,-1.0370899457402698,-1.0370899457402687,13.6295767209264
20.100000000000016,-209.49216903953354,2753.17449762713,1000.0,0.0,0.0,0.0,100.0,45.0,10.0,8.980743193747258E-16,14.66666666666667,-1.0370899457402696,-1.0370899457402698,-1.0370899457402687,13.6295767209264
20.200000000000017,-210.5292589852738,2766.8040743480565,1000.0,0.0,0.0,0.0,100.0,45.0,10.0,8.980743193747258E-16,14.66666666666667,-1.0370899457402696,-1.0370899457402698,-1.0370899457402687,13.6295767209264
20.30000000000002,-211.56634893101406,2780.4336510689827,1000.0,0.0,0.0,0.0,100.0,45.0,10.0,8.980743193747258E-16,14.66666666666667,-1.0370899457402696,-1.0370899457402698,-1.0370899457402687,13.6295767209264
20.40000000000002,-212.60343887675432,2794.063227789909,1000.0,0.0,0.0,0.0,100.0,45.0,10.0,8.980743193747258E-16,14.66666666666667,-1.0370899457402696,-1.0370899457402698,-1.0370899457402687,13.6295767209264
20.50000000000002,-213.6405288224946,2807.6928045108352,1000.0,0.0,0.0,0.0,100.0,45.0,10.0,8.980743193747258E-16,14.66666666666667,-1.0370899457402696,-1.0370899457402698,-1.0370899457402687,13.6295767209264
20.600000000000023,-214.67761876823485,2821.3223812317615,1000.0,0.0,0.0,0.0,100.0,45.0,10.0,8.980743193747258E-16,14.66666666666667,-1.0370899457402696,-1.0370899457402698,-1.0370899457402687,13.6295767209264
20.700000000000024,-215.7147087139751,2834.9519579526877,1000.0,0.0,0.0,0.0,100.0,45.0,10.0,8.980743193747258E-16,14.66666666666667,-1.0370899457402696,-1.0370899457402698,-1.0370899457402687,13.6295767209264
20.800000000000026,-216.75179865971538,2848.581534673614,1000.0,0.0,0.0,0.0,100.0,45.0,10.0,8.980743193747258E-16,14.66666666666667,-1.0370899457402696,-1.0370899457402698,-1.0370899457402687,13.6295767209264
20.900000000000027,-217.78888860545564,2862.2111113945402,1000.0,0.0,0.0,0.0,100.0,45.0,10.0,8.980743193747258E-16,14.66666666666667,-1.0370899457402696,-1.0370899457402698,-1.0370899457402687,13.6295767209264
21.00000000000003,-218.8259785511959,2875.8406881154665,1000.0,0.0,0.0,0.0,100.0,45.0,10.0,8.980743193747258E-16,14.66666666666667,-1.0370899457402696,-1.0370899457402698,-1.0370899457402687,13.6295767209264
21.10000000000003,-219.86306849693617,2889.4702648363927,1000.0,0.0,0.0,0.0,100.0,45.0,10.0,8.980743193747258E-16,14.66666666666667,-1.0370899457402696,-1.0370899457402698,-1.0370899457402687,13.6295767209264
21.20000000000003,-220.90015844267643,2903.099841557319,1000.0,0.0,0.0,0.0,100.0,45.0,10.0,8.980743193747258E-16,14.66666666666667,-1.0370899457402696,-1.0370899457402698,-1.0370899457402687,13.6295767209264
21.300000000000033,-221.9372483884167,2916.7294182782452,1000.0,0.0,0.0,0.0,100.0,45.0,10.0,8.980743193747258E-16,14.66666666666667,-1.0370899457402696,-1.0370899457402698,-1.0370899457402687,13.6295767209264
21.400000000000034,-222.97433833415695,2930.3589949991715,1000.0,0.0,0.0,0.0,100.0,45.0,10.0,8.980743193747258E-16,14.66666666666667,-1.0370899457402696,-1.0370899457402698,-1.0370899457402687,13.6295767209264
21.500000000000036,-224.01142827989722,2943.9885717200978,1000.0,0.0,0.0,0.0,100.0,45.0,10.0,8.980743193747258E-16,14.66666666666667,-1.0370899457402696,-1.0370899457402698,-1.0370899457402687,13.6295767209264
21.600000000000037,-225.04851822563748,2957.618148441024,1000.0,0.0,0.0,0.0,100.0,45.0,10.0,8.980743193747258E-16,14.66666666666667,-1.0370899457402696,-1.0370899457402698,-1.0370899457402687,13.6295767209264
21.70000000000004,-226.08560817137774,2971.2477251619503,1000.0,0.0,0.0,0.0,100.0,45.0,10.0,8.980743193747258E-16,14.66666666666667,-1.0370899457402696,-1.0370899457402698,-1.0370899457402687,13.6295767209264
21.80000000000004,-227.122698117118,2984.8773018828765,1000.0,0.0,0.0,0.0,100.0,45.0,10.0,8.980743193747258E-16,14.66666666666667,-1.0370899457402696,-1.0370899457402698,-1.0370899457402687,13.6295767209264
21.90000000000004,-228.15978806285827,2998.5068786038028,1000.0,0.0,0.0,0.0,100.0,45.0,10.0,8.980743193747258E-16,14.66666666666667,-1.0370899457402696,-1.0370899457402698,-1.0370899457402687,13.6295767209264
22.000000000000043,-229.19687800859853,3012.136455324729,1000.0,0.0,0.0,0.0,100.0,45.0,10.0,8.980743193747258E-16,14.66666666666667,-1.0370899457402696,-1.0370899457402698,-1.0370899457402687,13.6295767209264
22.100000000000044,-230.2339679543388,3025.7660320456553,1000.0,0.0,0.0,0.0,100.0,45.0,10.0,8.980743193747258E-16,14.66666666666667,-1.0370899457402696,-1.0370899457402698,-1.0370899457402687,13.6295767209264
22.200000000000045,-231.27105790007906,3039.3956087665815,1000.0,0.0,0.0,0.0,100.0,45.0,10.0,8.980743193747258E-16,14.66666666666667,-1.0370899457402696,-1.0370899457402698,-1.0370899457402687,13.6295767209264
22.300000000000047,-232.30814784581932,3053.0251854875078,1000.0,0.0,0.0,0.0,100.0,45.0,10.0,8.980743193747258E-16,14.66666666666667,-1.0370899457402696,-1.0370899457402698,-1.0370899457402687,13.6295767209264
22.40000000000005,-233.34523779155958,3066.654762208434,1000.0,0.0,0.0,0.0,100.0,45.0,10.0,8.980743193747258E-16,14.66666666666667,-1.0370899457402696,-1.0370899457402698,-1.0370899457402687,13.6295767209264
22.50000000000005,-234.38232773729985,3080.2843389293603,1000.0,0.0,0.0,0.0,100.0,45.0,10.0,8.980743193747258E-16,14.66666666666667,-1.0370899457402696,-1.0370899457402698,-1.0370899457402687,13.6295767209264
22.60000000000005,-235.4194176830401,3093.9139156502865,1000.0,0.0,0.0,0.0,100.0,45.0,10.0,8.980743193747258E-16,14.66666666666667,-1.0370899457402696,-1.0370899457402698,-1.0370899457402687,13.6295767209264
22.700000000000053,-236.45650762878037,3107.543492371213,1000.0,0.0,0.0,0.0,100.0,45.0,10.0,8.980743193747258E-16,14.66666666666667,-1.0370899457402696,-1.0370899457402698,-1.0370899457402687,13.6295767209264
22.800000000000054,-237.49359757452063,3121.173069092139,1000.0,0.0,0.0,0.0,100.0,45.0,10.0,8.980743193747258E-16,14.66666666666667,-1.0370899457402696,-1.0370899457402698,-1.0370899457402687,13.6295767209264
22.900000000000055,-238.5306875202609,3134.8026458130653,1000.0,0.0,0.0,0.0,100.0,45.0,10.0,8.980743193747258E-16,14.66666666666667,-1.0370899457402696,-1.0370899457402698,-1.0370899457402687,13.6295767209264
23.000000000000057,-239.56777746600116,3148.4322225339915,1000.0,0.0,0.0,0.0,100.0,45.0,10.0,8.980743193747258E-16,14.66666666666667,-1.0370899457402696,-1.0370899457402698,-1.0370899457402687,13.6295767209264
23.10000000000006,-240.60486741174142,3162.061799254918,1000.0,0.0,0.0,0.0,100.0,45.0,10.0,8.980743193747258E-16,14.66666666666667,-1.0370899457402696,-1.0370899457402698,-1.0370899457402687,13.6295767209264
23.20000000000006,-241.6419573574817,3175.691375975844,1000.0,0.0,0.0,0.0,100.0,45.0,10.0,8.980743193747258E-16,14.66666666666667,-1.0370899457402696,-1.0370899457402698,-1.0370899457402687,13.6295767209264
23.30000000000006,-242.67904730322195,3189.3209526967703,1000.0,0.0,0.0,0.0,100.0,45.0,10.0,8.980743193747258E-16,14.66666666666667,-1.0370899457402696,-1.0370899457402698,-1.0370899457402687,13.6295767209264
23.400000000000063,-243.7161372489622,3202.9505294176965,1000.0,0.0,0.0,0.0,100.0,45.0,10.0,8.980743193747258E-16,14.66666666666667,-1.0370899457402696,-1.0370899457402698,-1.0370899457402687,13.6295767209264
23.500000000000064,-244.75322719470248,3216.580106138623,1000.0,0.0,0.0,0.0,100.0,45.0,10.0,8.980743193747258E-16,14.66666666666667,-1.0370899457402696,-1.0370899457402698,-1.0370899457402687,13.6295767209264
23.600000000000065,-245.79031714044274,3230.209682859549,1000.0,0.0,0.0,0.0,100.0,45.0,10.0,8.980743193747258E-16,14.66666666666667,-1.0370899457402696,-1.0370899457402698,-1.0370899457402687,13.6295767209264
23.700000000000067,-246.827407086183,3243.8392595804753,1000.0,0.0,0.0,0.0,100.0,45.0,10.0,8.980743193747258E-16,14.66666666666667,-1.0370899457402696,-1.0370899457402698,-1.0370899457402687,13.6295767209264
23.800000000000068,-247.86449703192326,3257.4688363014016,1000.0,0.0,0.0,0.0,100.0,45.0,10.0,8.980743193747258E-16,14.66666666666667,-1.0370899457402696,-1.0370899457402698,-1.0370899457402687,13.6295767209264
23.90000000000007,-248.90158697766353,3271.098413022328,1000.0,0.0,0.0,0.0,100.0,45.0,10.0,8.980743193747258E-16,14.66666666666667,-1.0370899457402696,-1.0370899457402698,-1.0370899457402687,13.6295767209264
24.00000000000007,-249.9386769234038,3284.727989743254,1000.0,0.0,0.0,0.0,100.0,45.0,10.0,8.980743193747258E-16,14.66666666666667,-1.0370899457402696,-1.0370899457402698,-1.0370899457402687,13.6295767209264
24.100000000000072,-250.97576686914405,3298.3575664641803,1000.0,0.0,0.0,0.0,100.0,45.0,10.0,8.980743193747258E-16,14.66666666666667,-1.0370899457402696,-1.0370899457402698,-1.0370899457402687,13.6295767209264
24.200000000000074,-252.01285681488432,3311.9871431851066,1000.0,0.0,0.0,0.0,100.0,45.0,10.0,8.980743193747258E-16,14.66666666666667,-1.0370899457402696,-1.0370899457402698,-1.0370899457402687,13.6295767209264
24.300000000000075,-253.04994676062458,3325.616719906033,1000.0,0.0,0.0,0.0,100.0,45.0,10.0,8.980743193747258E-16,14.66666666666667,-1.0370899457402696,-1.0370899457402698,-1.0370899457402687,13.6295767209264
24.400000000000077,-254.08703670636484,3339.246296626959,1000.0,0.0,0.0,0.0,100.0,45.0,10.0,8.980743193747258E-16,14.66666666666667,-1.0370899457402696,-1.0370899457402698,-1.0370899457402687,13.6295767209264
24.500000000000078,-255.1241266521051,3352.8758733478853,1000.0,0.0,0.0,0.0,100.0,45.0,10.0,8.980743193747258E-16,14.66666666666667,-1.0370899457402696,-1.0370899457402698,-1.0370899457402687,13.6295767209264
24.60000000000008,-256.1612165978454,3366.5054500688116,1000.0,0.0,0.0,0.0,100.0,45.0,10.0,8.980743193747258E-16,14.66666666666667,-1.0370899457402696,-1.0370899457402698,-1.0370899457402687,13.6295767209264
24.70000000000008,-257.19830654358566,3380.135026789738,1000.0,0.0,0.0,0.0,100.0,45.0,10.0,8.980743193747258E-16,14.66666666666667,-1.0370899457402696,-1.0370899457402698,-1.0370899457402687,13.6295767209264
24.800000000000082,-258.2353964893259,3393.764603510664,1000.0,0.0,0.0,0.0,100.0,45.0,10.0,8.980743193747258E-16,14.66666666666667,-1.0370899457402696,-1.0370899457402698,-1.0370899457402687,13.6295767209264
24.900000000000084,-259.2724864350662,3407.3941802315903,1000.0,0.0,0.0,0.0,100.0,45.0,10.0,8.980743193747258E-16,14.66666666666667,-1.0370899457402696,-1.0370899457402698,-1.0370899457402687,13.6295767209264
25.000000000000085,-260.30957638080645,3421.0237569525166,1000.0,0.0,0.0,0.0,100.0,45.0,10.0,8.980743193747258E-16,14.66666666666667,-1.0370899457402696,-1.0370899457402698,-1.0370899457402687,13.6295767209264
25.100000000000087,-261.3466663265467,3434.653333673443,1000.0,0.0,0.0,0.0,100.0,45.0,10.0,8.980743193747258E-16,14.66666666666667,-1.0370899457402696,-1.0370899457402698,-1.0370899457402687,13.6295767209264
25.200000000000088,-262.383756272287,3448.282910394369,1000.0,0.0,0.0,0.0,100.0,45.0,10.0,8.980743193747258E-16,14.66666666666667,-1.0370899457402696,-1.0370899457402698,-1.0370899457402687,13.6295767209264
25.30000000000009,-263.42084621802724,3461.9124871152953,1000.0,0.0,0.0,0.0,100.0,45.0,10.0,8.980743193747258E-16,14.66666666666667,-1.0370899457402696,-1.0370899457402698,-1.0370899457402687,13.6295767209264
25.40000000000009,-264.4579361637675,3475.5420638362216,1000.0,0.0,0.0,0.0,100.0,45.0,10.0,8.980743193747258E-16,14.66666666666667,-1.0370899457402696,-1.0370899457402698,-1.0370899457402687,13.6295767209264
25.500000000000092,-265.49502610950776,3489.171640557148,1000.0,0.0,0.0,0.0,100.0,45.0,10.0,8.980743193747258E-16,14.66666666666667,-1.0370899457402696,-1.0370899457402698,-1.0370899457402687,13.6295767209264
25.600000000000094,-266.532116055248,3502.801217278074,1000.0,0.0,0.0,0.0,100.0,45.0,10.0,8.980743193747258E-16,14.66666666666667,-1.0370899457402696,-1.0370899457402698,-1.0370899457402687,13.6295767209264
25.700000000000095,-267.5692060009883,3516.4307939990003,1000.0,0.0,0.0,0.0,100.0,45.0,10.0,8.980743193747258E-16,14.66666666666667,-1.0370899457402696,-1.0370899457402698,-1.0370899457402687,13.6295767209264
25.800000000000097,-268.60629594672855,3530.0603707199266,1000.0,0.0,0.0,0.0,100.0,45.0,10.0,8.980743193747258E-16,14.66666666666667,-1.0370899457402696,-1.0370899457402698,-1.0370899457402687,13.6295767209264
25.900000000000098,-269.6433858924688,3543.689947440853,1000.0,0.0,0.0,0.0,100.0,45.0,10.0,8.980743193747258E-16,14.66666666666667,-1.0370899457402696,-1.0370899457402698,-1.0370899457402687,13.6295767209264
26.0000000000001,-270.6804758382091,3557.319524161779,1000.0,0.0,0.0,0.0,100.0,45.0,10.0,8.980743193747258E-16,14.66666666666667,-1.0370899457402696,-1.0370899457402698,-1.0370899457402687,13.6295767209264
26.1000000000001,-271.71756578394934,3570.9491008827054,1000.0,0.0,0.0,0.0,100.0,45.0,10.0,8.980743193747258E-16,14.66666666666667,-1.0370899457402696,-1.0370899457402698,-1.0370899457402687,13.6295767209264
26.200000000000102,-272.7546557296896,3584.5786776036316,1000.0,0.0,0.0,0.0,100.0,45.0,10.0,8.980743193747258E-16,14.66666666666667,-1.0370899457402696,-1.0370899457402698,-1.0370899457402687,13.6295767209264
26.300000000000104,-273.79174567542987,3598.208254324558,1000.0,0.0,0.0,0.0,100.0,45.0,10.0,8.980743193747258E-16,14.66666666666667,-1.0370899457402696,-1.0370899457402698,-1.0370899457402687,13.6295767209264
26.400000000000105,-274.82883562117013,3611.837831045484,1000.0,0.0,0.0,0.0,100.0,45.0,10.0,8.980743193747258E-16,14.66666666666667,-1.0370899457402696,-1.0370899457402698,-1.0370899457402687,13.6295767209264
26.500000000000107,-275.8659255669104,3625.4674077664104,1000.0,0.0,0.0,0.0,100.0,45.0,10.0,8.980743193747258E-16,14.66666666666667,-1.0370899457402696,-1.0370899457402698,-1.0370899457402687,13.6295767209264
26.600000000000108,-276.90301551265065,3639.0969844873366,1000.0,0.0,0.0,0.0,100.0,45.0,10.0,8.980743193747258E-16,14.66666666666667,-1.0370899457402696,-1.0370899457402698,-1.0370899457402687,13.6295767209264
26.70000000000011,-277.9401054583909,3652.726561208263,1000.0,0.0,0.0,0.0,100.0,45.0,10.0,8.980743193747258E-16,14.66666666666667,-1.0370899457402696,-1.0370899457402698,-1.0370899457402687,13.6295767209264
26.80000000000011,-278.9771954041312,3666.356137929189,1000.0,0.0,0.0,0.0,100.0,45.0,10.0,8.980743193747258E-16,14.66666666666667,-1.0370899457402696,-1.0370899457402698,-1.0370899457402687,13.6295767209264
26.900000000000112,-280.01428534987144,3679.9857146501154,1000.0,0.0,0.0,0.0,100.0,45.0,10.0,8.980743193747258E-16,14.66666666666667,-1.0370899457402696,-1.0370899457402698,-1.0370899457402687,13.6295767209264
27.000000000000114,-281.0513752956117,3693.6152913710416,1000.0,0.0,0.0,0.0,100.0,45.0,10.0,8.980743193747258E-16,14.66666666666667,-1.0370899457402696,-1.0370899457402698,-1.0370899457402687,13.6295767209264
27.100000000000115,-282.08846524135197,3707.244868091968,1000.0,0.0,0.0,0.0,100.0,45.0,10.0,8.980743193747258E-16,14.66666666666667,-1.0370899457402696,-1.0370899457402698,-1.0370899457402687,13.6295767209264
27.200000000000117,-283.12555518709223,3720.874444812894,1000.0,0.0,0.0,0.0,100.0,45.0,10.0,8.980743193747258E-16,14.66666666666667,-1.0370899457402696,-1.0370899457402698,-1.0370899457402687,13.6295767209264
27.300000000000118,-284.1626451328325,3734.5040215338204,1000.0,0.0,0.0,0.0,100.0,45.0,10.0,8.980743193747258E-16,14.66666666666667,-1.0370899457402696,-1.0370899457402698,-1.0370899457402687,13.6295767209264
27.40000000000012,-285.19973507857276,3748.1335982547466,1000.0,0.0,0.0,0.0,100.0,45.0,10.0,8.980743193747258E-16,14.66666666666667,-1.0370899457402696,-1.0370899457402698,-1.0370899457402687,13.6295767209264
27.50000000000012,-286.236825024313,3761.763174975673,1000.0,0.0,0.0,0.0,100.0,45.0,10.0,8.980743193747258E-16,14.66666666666667,-1.0370899457402696,-1.0370899457402698,-1.0370899457402687,13.6295767209264
27.600000000000122,-287.2739149700533,3775.392751696599,1000.0,0.0,0.0,0.0,100.0,45.0,10.0,8.980743193747258E-16,14.66666666666667,-1.0370899457402696,-1.0370899457402698,-1.0370899457402687,13.6295767209264
27.700000000000124,-288.31100491579355,3789.0223284175254,1000.0,0.0,0.0,0.0,100.0,45.0,10.0,8.980743193747258E-16,14.66666666666667,-1.0370899457402696,-1.0370899457402698,-1.0370899457402687,13.6295767209264
27.800000000000125,-289.3480948615338,3802.6519051384516,1000.0,0.0,0.0,0.0,100.0,45.0,10.0,8.980743193747258E-16,14.66666666666667,-1.0370899457402696,-1.0370899457402698,-1.0370899457402687,13.6295767209264
27.900000000000126,-290.3851848072741,3816.281481859378,1000.0,0.0,0.0,0.0,100.0,45.0,10.0,8.980743193747258E-16,14.66666666666667,-1.0370899457402696,-1.0370899457402698,-1.0370899457402687,13.6295767209264
28.000000000000128,-291.42227475301434,3829.911058580304,1000.0,0.0,0.0,0.0,100.0,45.0,10.0,8.980743193747258E-16,14.66666666666667,-1.0370899457402696,-1.0370899457402698,-1.0370899457402687,13.6295767209264
28.10000000000013,-292.4593646987546,3843.5406353012304,1000.0,0.0,0.0,0.0,100.0,45.0,10.0,8.980743193747258E-16,14.66666666666667,-1.0370899457402696,-1.0370899457402698,-1.0370899457402687,13.6295767209264
28.20000000000013,-293.49645464449486,3857.1702120221566,1000.0,0.0,0.0,0.0,100.0,45.0,10.0,8.980743193747258E-16,14.66666666666667,-1.0370899457402696,-1.0370899457402698,-1.0370899457402687,13.6295767209264
28.300000000000132,-294.5335445902351,3870.799788743083,1000.0,0.0,0.0,0.0,100.0,45.0,10.0,8.980743193747258E-16,14.66666666666667,-1.0370899457402696,-1.0370899457402698,-1.0370899457402687,13.6295767209264
28.400000000000134,-295.5706345359754,3884.429365464009,1000.0,0.0,0.0,0.0,100.0,45.0,10.0,8.980743193747258E-16,14.66666666666667,-1.0370899457402696,-1.0370899457402698,-1.0370899457402687,13.6295767209264
28.500000000000135,-296.60772448171565,3898.0589421849354,1000.0,0.0,0.0,0.0,100.0,45.0,10.0,8.980743193747258E-16,14.66666666666667,-1.0370899457402696,-1.0370899457402698,-1.0370899457402687,13.6295767209264
28.600000000000136,-297.6448144274559,3911.6885189058617,1000.0,0.0,0.0,0.0,100.0,45.0,10.0,8.980743193747258E-16,14.66666666666667,-1.0370899457402696,-1.0370899457402698,-1.0370899457402687,13.6295767209264
28.700000000000138,-298.6819043731962,3925.318095626788,1000.0,0.0,0.0,0.0,100.0,45.0,10.0,8.980743193747258E-16,14.66666666666667,-1.0370899457402696,-1.0370899457402698,-1.0370899457402687,13.6295767209264
