time,x,y,altitude,yaw,pitch,roll,speed,wind_dir,wind_spd,dx,dy,wind_dx,wind_dy,vmg_dx,vmg_dy
0.0,-8.8,-1.077689183249671E-15,0.0,270.0,0.0,0.0,60.0,0.0,0.0,-8.8,-1.077689183249671E-15,0.0,-0.0,-8.8,-1.077689183249671E-15
0.1,-17.6,-2.155378366499342E-15,0.0,270.0,0.0,0.0,60.0,0.0,0.0,-8.8,-1.077689183249671E-15,0.0,-0.0,-8.8,-1.077689183249671E-15
0.2,-26.400000000000002,-3.2330675497490128E-15,0.0,270.0,0.0,0.0,60.0,0.0,0.0,-8.8,-1.077689183249671E-15,0.0,-0.0,-8.8,-1.077689183249671E-15
0.30000000000000004,-35.2,-4.310756732998684E-15,0.0,270.0,0.0,0.0,60.0,0.0,0.0,-8.8,-1.077689183249671E-15,0.0,-0.0,-8.8,-1.077689183249671E-15
0.4,-44.0,-5.388445916248355E-15,0.0,270.0,0.0,0.0,60.0,0.0,0.0,-8.8,-1.077689183249671E-15,0.0,-0.0,-8.8,-1.077689183249671E-15
0.5,-52.8,-6.466135099498026E-15,0.0,270.0,0.0,0.0,60.0,0.0,0.0,-8.8,-1.077689183249671E-15,0.0,-0.0,-8.8,-1.077689183249671E-15
0.6,-61.599999999999994,-7.543824282747697E-15,0.0,270.0,0.0,0.0,60.0,0.0,0.0,-8.8,-1.077689183249671E-15,0.0,-0.0,-8.8,-1.077689183249671E-15
0.7,-70.39999999999999,-8.621513465997368E-15,0.0,270.0,0.0,0.0,60.0,0.0,0.0,-8.8,-1.077689183249671E-15,0.0,-0.0,-8.8,-1.077689183249671E-15
0.7999999999999999,-79.19999999999999,-9.699202649247039E-15,0.0,270.0,0.0,0.0,60.0,0.0,0.0,-8.8,-1.077689183249671E-15,0.0,-0.0,-8.8,-1.077689183249671E-15
0.8999999999999999,-87.99999999999999,-1.077689183249671E-14,0.0,270.0,0.0,0.0,60.0,0.0,0.0,-8.8,-1.077689183249671E-15,0.0,-0.0,-8.8,-1.077689183249671E-15
0.9999999999999999,-96.79999999999998,-1.1854581015746382E-14,0.0,270.0,0.0,0.0,60.0,0.0,0.0,-8.8,-1.077689183249671E-15,0.0,-0.0,-8.8,-1.077689183249671E-15
1.0999999999999999,-105.59999999999998,-1.2932270198996053E-14,0.0,270.0,0.0,0.0,60.0,0.0,0.0,-8.8,-1.077689183249671E-15,0.0,-0.0,-8.8,-1.077689183249671E-15
1.2,-114.39999999999998,-1.4009959382245724E-14,0.0,270.0,0.0,0.0,60.0,0.0,0.0,-8.8,-1.077689183249671E-15,0.0,-0.0,-8.8,-1.077689183249671E-15
1.3,-123.19999999999997,-1.5087648565495394E-14,0.0,270.0,0.0,0.0,60.0,0.0,0.0,-8.8,-1.077689183249671E-15,0.0,-0.0,-8.8,-1.077689183249671E-15
1.4000000000000001,-131.99999999999997,-1.6165337748745065E-14,0.0,270.0,0.0,0.0,60.0,0.0,0.0,-8.8,-1.077689183249671E-15,0.0,-0.0,-8.8,-1.077689183249671E-15
1.5000000000000002,-140.79999999999998,-1.7243026931994736E-14,0.0,270.0,0.0,0.0,60.0,0.0,0.0,-8.8,-1.077689183249671E-15,0.0,-0.0,-8.8,-1.077689183249671E-15
1.6000000000000003,-149.6,-1.8320716115244407E-14,0.0,270.0,0.0,0.0,60.0,0.0,0.0,-8.8,-1.077689183249671E-15,0.0,-0.0,-8.8,-1.077689183249671E-15
1.7000000000000004,-158.4,-1.9398405298494078E-14,0.0,270.0,0.0,0.0,60.0,0.0,0.0,-8.8,-1.077689183249671E-15,0.0,-0.0,-8.8,-1.077689183249671E-15
1.8000000000000005,-167.20000000000002,-2.047609448174375E-14,0.0,270.0,0.0,0.0,60.0,0.0,0.0,-8.8,-1.077689183249671E-15,0.0,-0.0,-8.8,-1.077689183249671E-15
1.9000000000000006,-176.00000000000003,-2.155378366499342E-14,0.0,270.0,0.0,0.0,60.0,0.0,0.0,-8.8,-1.077689183249671E-15,0.0,-0.0,-8.8,-1.077689183249671E-15
2.0000000000000004,-184.80000000000004,-2.2631472848243092E-14,0.0,270.0,0.0,0.0,60.0,0.0,0.0,-8.8,-1.077689183249671E-15,0.0,-0.0,-8.8,-1.077689183249671E-15
2.1000000000000005,-193.60000000000005,-2.3709162031492763E-14,0.0,270.0,0.0,0.0,60.0,0.0,0.0,-8.8,-1.077689183249671E-15,0.0,-0.0,-8.8,-1.077689183249671E-15
2.2000000000000006,-202.40000000000006,-2.4786851214742434E-14,0.0,270.0,0.0,0.0,60.0,0.0,0.0,-8.8,-1.077689183249671E-15,0.0,-0.0,-8.8,-1.077689183249671E-15
2.3000000000000007,-211.20000000000007,-2.5864540397992106E-14,0.0,270.0,0.0,0.0,60.0,0.0,0.0,-8.8,-1.077689183249671E-15,0.0,-0.0,-8.8,-1.077689183249671E-15
2.400000000000001,-220.00000000000009,-2.6942229581241777E-14,0.0,270.0,0.0,0.0,60.0,0.0,0.0,-8.8,-1.077689183249671E-15,0.0,-0.0,-8.8,-1.077689183249671E-15
2.500000000000001,-228.8000000000001,-2.8019918764491448E-14,0.0,270.0,0.0,0.0,60.0,0.0,0.0,-8.8,-1.077689183249671E-15,0.0,-0.0,-8.8,-1.077689183249671E-15
2.600000000000001,-237.6000000000001,-2.909760794774112E-14,0.0,270.0,0.0,0.0,60.0,0.0,0.0,-8.8,-1.077689183249671E-15,0.0,-0.0,-8.8,-1.077689183249671E-15
2.700000000000001,-246.40000000000012,-3.017529713099079E-14,0.0,270.0,0.0,0.0,60.0,0.0,0.0,-8.8,-1.077689183249671E-15,0.0,-0.0,-8.8,-1.077689183249671E-15
2.800000000000001,-255.20000000000013,-3.1252986314240455E-14,0.0,270.0,0.0,0.0,60.0,0.0,0.0,-8.8,-1.077689183249671E-15,0.0,-0.0,-8.8,-1.077689183249671E-15
2.9000000000000012,-264.0000000000001,-3.2330675497490123E-14,0.0,270.0,0.0,0.0,60.0,0.0,0.0,-8.8,-1.077689183249671E-15,0.0,-0.0,-8.8,-1.077689183249671E-15
3.0000000000000013,-272.8000000000001,-3.340836468073979E-14,0.0,270.0,0.0,0.0,60.0,0.0,0.0,-8.8,-1.077689183249671E-15,0.0,-0.0,-8.8,-1.077689183249671E-15
3.1000000000000014,-281.60000000000014,-3.448605386398946E-14,0.0,270.0,0.0,0.0,60.0,0.0,0.0,-8.8,-1.077689183249671E-15,0.0,-0.0,-8.8,-1.077689183249671E-15
3.2000000000000015,-290.40000000000015,-3.556374304723913E-14,0.0,270.0,0.0,0.0,60.0,0.0,0.0,-8.8,-1.077689183249671E-15,0.0,-0.0,-8.8,-1.077689183249671E-15
3.3000000000000016,-299.20000000000016,-3.6641432230488795E-14,0.0,270.0,0.0,0.0,60.0,0.0,0.0,-8.8,-1.077689183249671E-15,0.0,-0.0,-8.8,-1.077689183249671E-15
3.4000000000000017,-308.00000000000017,-3.7719121413738463E-14,0.0,270.0,0.0,0.0,60.0,0.0,0.0,-8.8,-1.077689183249671E-15,0.0,-0.0,-8.8,-1.077689183249671E-15
3.5000000000000018,-316.8000000000002,-3.879681059698813E-14,0.0,270.0,0.0,0.0,60.0,0.0,0.0,-8.8,-1.077689183249671E-15,0.0,-0.0,-8.8,-1.077689183249671E-15
3.600000000000002,-325.6000000000002,-3.98744997802378E-14,0.0,270.0,0.0,0.0,60.0,0.0,0.0,-8.8,-1.077689183249671E-15,0.0,-0.0,-8.8,-1.077689183249671E-15
3.700000000000002,-334.4000000000002,-4.095218896348747E-14,0.0,270.0,0.0,0.0,60.0,0.0,0.0,-8.8,-1.077689183249671E-15,0.0,-0.0,-8.8,-1.077689183249671E-15
3.800000000000002,-343.2000000000002,-4.2029878146737136E-14,0.0,270.0,0.0,0.0,60.0,0.0,0.0,-8.8,-1.077689183249671E-15,0.0,-0.0,-8.8,-1.077689183249671E-15
3.900000000000002,-352.0000000000002,-4.3107567329986804E-14,0.0,270.0,0.0,0.0,60.0,0.0,0.0,-8.8,-1.077689183249671E-15,0.0,-0.0,-8.8,-1.077689183249671E-15
4.000000000000002,-360.80000000000024,-4.418525651323647E-14,0.0,270.0,0.0,0.0,60.0,0.0,0.0,-8.8,-1.077689183249671E-15,0.0,-0.0,-8.8,-1.077689183249671E-15
4.100000000000001,-369.60000000000025,-4.526294569648614E-14,0.0,270.0,0.0,0.0,60.0,0.0,0.0,-8.8,-1.077689183249671E-15,0.0,-0.0,-8.8,-1.077689183249671E-15
4.200000000000001,-378.40000000000026,-4.634063487973581E-14,0.0,270.0,0.0,0.0,60.0,0.0,0.0,-8.8,-1.077689183249671E-15,0.0,-0.0,-8.8,-1.077689183249671E-15
4.300000000000001,-387.2000000000003,-4.7418324062985476E-14,0.0,270.0,0.0,0.0,60.0,0.0,0.0,-8.8,-1.077689183249671E-15,0.0,-0.0,-8.8,-1.077689183249671E-15
4.4,-396.0000000000003,-4.8496013246235144E-14,0.0,270.0,0.0,0.0,60.0,0.0,0.0,-8.8,-1.077689183249671E-15,0.0,-0.0,-8.8,-1.077689183249671E-15
4.5,-404.8000000000003,-4.957370242948481E-14,0.0,270.0,0.0,0.0,60.0,0.0,0.0,-8.8,-1.077689183249671E-15,0.0,-0.0,-8.8,-1.077689183249671E-15
4.6,-413.6000000000003,-5.065139161273448E-14,0.0,270.0,0.0,0.0,60.0,0.0,0.0,-8.8,-1.077689183249671E-15,0.0,-0.0,-8.8,-1.077689183249671E-15
4.699999999999999,-422.4000000000003,-5.172908079598415E-14,0.0,270.0,0.0,0.0,60.0,0.0,0.0,-8.8,-1.077689183249671E-15,0.0,-0.0,-8.8,-1.077689183249671E-15
4.799999999999999,-431.20000000000033,-5.2806769979233816E-14,0.0,270.0,0.0,0.0,60.0,0.0,0.0,-8.8,-1.077689183249671E-15,0.0,-0.0,-8.8,-1.077689183249671E-15
4.899999999999999,-440.00000000000034,-5.3884459162483484E-14,0.0,270.0,0.0,0.0,60.0,0.0,0.0,-8.8,-1.077689183249671E-15,0.0,-0.0,-8.8,-1.077689183249671E-15
4.999999999999998,-448.80000000000035,-5.496214834573315E-14,0.0,270.0,0.0,0.0,60.0,0.0,0.0,-8.8,-1.077689183249671E-15,0.0,-0.0,-8.8,-1.077689183249671E-15
5.099999999999998,-457.60000000000036,-5.603983752898282E-14,0.0,270.0,0.0,0.0,60.0,0.0,0.0,-8.8,-1.077689183249671E-15,0.0,-0.0,-8.8,-1.077689183249671E-15
5.1999999999999975,-466.4000000000004,-5.711752671223249E-14,0.0,270.0,0.0,0.0,60.0,0.0,0.0,-8.8,-1.077689183249671E-15,0.0,-0.0,-8.8,-1.077689183249671E-15
5.299999999999997,-475.2000000000004,-5.819521589548216E-14,0.0,270.0,0.0,0.0,60.0,0.0,0.0,-8.8,-1.077689183249671E-15,0.0,-0.0,-8.8,-1.077689183249671E-15
5.399999999999997,-484.0000000000004,-5.927290507873184E-14,0.0,270.0,0.0,0.0,60.0,0.0,0.0,-8.8,-1.077689183249671E-15,0.0,-0.0,-8.8,-1.077689183249671E-15
5.4999999999999964,-492.8000000000004,-6.035059426198151E-14,0.0,270.0,0.0,0.0,60.0,0.0,0.0,-8.8,-1.077689183249671E-15,0.0,-0.0,-8.8,-1.077689183249671E-15
5.599999999999996,-501.6000000000004,-6.142828344523119E-14,0.0,270.0,0.0,0.0,60.0,0.0,0.0,-8.8,-1.077689183249671E-15,0.0,-0.0,-8.8,-1.077689183249671E-15
5.699999999999996,-510.40000000000043,-6.250597262848086E-14,0.0,270.0,0.0,0.0,60.0,0.0,0.0,-8.8,-1.077689183249671E-15,0.0,-0.0,-8.8,-1.077689183249671E-15
5.799999999999995,-519.2000000000004,-6.358366181173053E-14,0.0,270.0,0.0,0.0,60.0,0.0,0.0,-8.8,-1.077689183249671E-15,0.0,-0.0,-8.8,-1.077689183249671E-15
5.899999999999995,-528.0000000000003,-6.466135099498021E-14,0.0,270.0,0.0,0.0,60.0,0.0,0.0,-8.8,-1.077689183249671E-15,0.0,-0.0,-8.8,-1.077689183249671E-15
5.999999999999995,-536.8000000000003,-6.573904017822988E-14,0.0,270.0,0.0,0.0,60.0,0.0,0.0,-8.8,-1.077689183249671E-15,0.0,-0.0,-8.8,-1.077689183249671E-15
6.099999999999994,-545.6000000000003,-6.681672936147956E-14,0.0,270.0,0.0,0.0,60.0,0.0,0.0,-8.8,-1.077689183249671E-15,0.0,-0.0,-8.8,-1.077689183249671E-15
6.199999999999994,-554.4000000000002,-6.789441854472923E-14,0.0,270.0,0.0,0.0,60.0,0.0,0.0,-8.8,-1.077689183249671E-15,0.0,-0.0,-8.8,-1.077689183249671E-15
6.299999999999994,-563.2000000000002,-6.89721077279789E-14,0.0,270.0,0.0,0.0,60.0,0.0,0.0,-8.8,-1.077689183249671E-15,0.0,-0.0,-8.8,-1.077689183249671E-15
6.399999999999993,-572.0000000000001,-7.004979691122858E-14,0.0,270.0,0.0,0.0,60.0,0.0,0.0,-8.8,-1.077689183249671E-15,0.0,-0.0,-8.8,-1.077689183249671E-15
6.499999999999993,-580.8000000000001,-7.112748609447825E-14,0.0,270.0,0.0,0.0,60.0,0.0,0.0,-8.8,-1.077689183249671E-15,0.0,-0.0,-8.8,-1.077689183249671E-15
6.5999999999999925,-589.6,-7.220517527772793E-14,0.0,270.0,0.0,0.0,60.0,0.0,0.0,-8.8,-1.077689183249671E-15,0.0,-0.0,-8.8,-1.077689183249671E-15
6.699999999999992,-598.4,-7.32828644609776E-14,0.0,270.0,0.0,0.0,60.0,0.0,0.0,-8.8,-1.077689183249671E-15,0.0,-0.0,-8.8,-1.077689183249671E-15
6.799999999999992,-607.1999999999999,-7.436055364422728E-14,0.0,270.0,0.0,0.0,60.0,0.0,0.0,-8.8,-1.077689183249671E-15,0.0,-0.0,-8.8,-1.077689183249671E-15
6.8999999999999915,-615.9999999999999,-7.543824282747695E-14,0.0,270.0,0.0,0.0,60.0,0.0,0.0,-8.8,-1.077689183249671E-15,0.0,-0.0,-8.8,-1.077689183249671E-15
6.999999999999991,-624.7999999999998,-7.651593201072663E-14,0.0,270.0,0.0,0.0,60.0,0.0,0.0,-8.8,-1.077689183249671E-15,0.0,-0.0,-8.8,-1.077689183249671E-15
7.099999999999991,-633.5999999999998,-7.75936211939763E-14,0.0,270.0,0.0,0.0,60.0,0.0,0.0,-8.8,-1.077689183249671E-15,0.0,-0.0,-8.8,-1.077689183249671E-15
7.19999999999999,-642.3999999999997,-7.867131037722598E-14,0.0,270.0,0.0,0.0,60.0,0.0,0.0,-8.8,-1.077689183249671E-15,0.0,-0.0,-8.8,-1.077689183249671E-15
7.29999999999999,-651.1999999999997,-7.974899956047565E-14,0.0,270.0,0.0,0.0,60.0,0.0,0.0,-8.8,-1.077689183249671E-15,0.0,-0.0,-8.8,-1.077689183249671E-15
7.39999999999999,-659.9999999999997,-8.082668874372532E-14,0.0,270.0,0.0,0.0,60.0,0.0,0.0,-8.8,-1.077689183249671E-15,0.0,-0.0,-8.8,-1.077689183249671E-15
7.499999999999989,-668.7999999999996,-8.1904377926975E-14,0.0,270.0,0.0,0.0,60.0,0.0,0.0,-8.8,-1.077689183249671E-15,0.0,-0.0,-8.8,-1.077689183249671E-15
7.599999999999989,-677.5999999999996,-8.298206711022467E-14,0.0,270.0,0.0,0.0,60.0,0.0,0.0,-8.8,-1.077689183249671E-15,0.0,-0.0,-8.8,-1.077689183249671E-15
7.699999999999989,-686.3999999999995,-8.405975629347435E-14,0.0,270.0,0.0,0.0,60.0,0.0,0.0,-8.8,-1.077689183249671E-15,0.0,-0.0,-8.8,-1.077689183249671E-15
7.799999999999988,-695.1999999999995,-8.513744547672402E-14,0.0,270.0,0.0,0.0,60.0,0.0,0.0,-8.8,-1.077689183249671E-15,0.0,-0.0,-8.8,-1.077689183249671E-15
7.899999999999988,-703.9999999999994,-8.62151346599737E-14,0.0,270.0,0.0,0.0,60.0,0.0,0.0,-8.8,-1.077689183249671E-15,0.0,-0.0,-8.8,-1.077689183249671E-15
7.999999999999988,-712.7999999999994,-8.729282384322337E-14,0.0,270.0,0.0,0.0,60.0,0.0,0.0,-8.8,-1.077689183249671E-15,0.0,-0.0,-8.8,-1.077689183249671E-15
8.099999999999987,-721.5999999999993,-8.837051302647304E-14,0.0,270.0,0.0,0.0,60.0,0.0,0.0,-8.8,-1.077689183249671E-15,0.0,-0.0,-8.8,-1.077689183249671E-15
8.199999999999987,-730.3999999999993,-8.944820220972272E-14,0.0,270.0,0.0,0.0,60.0,0.0,0.0,-8.8,-1.077689183249671E-15,0.0,-0.0,-8.8,-1.077689183249671E-15
8.299999999999986,-739.1999999999992,-9.052589139297239E-14,0.0,270.0,0.0,0.0,60.0,0.0,0.0,-8.8,-1.077689183249671E-15,0.0,-0.0,-8.8,-1.077689183249671E-15
8.399999999999986,-747.9999999999992,-9.160358057622207E-14,0.0,270.0,0.0,0.0,60.0,0.0,0.0,-8.8,-1.077689183249671E-15,0.0,-0.0,-8.8,-1.077689183249671E-15
8.499999999999986,-756.7999999999992,-9.268126975947174E-14,0.0,270.0,0.0,0.0,60.0,0.0,0.0,-8.8,-1.077689183249671E-15,0.0,-0.0,-8.8,-1.077689183249671E-15
8.599999999999985,-765.5999999999991,-9.375895894272142E-14,0.0,270.0,0.0,0.0,60.0,0.0,0.0,-8.8,-1.077689183249671E-15,0.0,-0.0,-8.8,-1.077689183249671E-15
8.699999999999985,-774.3999999999991,-9.483664812597109E-14,0.0,270.0,0.0,0.0,60.0,0.0,0.0,-8.8,-1.077689183249671E-15,0.0,-0.0,-8.8,-1.077689183249671E-15
8.799999999999985,-783.199999999999,-9.591433730922076E-14,0.0,270.0,0.0,0.0,60.0,0.0,0.0,-8.8,-1.077689183249671E-15,0.0,-0.0,-8.8,-1.077689183249671E-15
8.899999999999984,-791.999999999999,-9.699202649247044E-14,0.0,270.0,0.0,0.0,60.0,0.0,0.0,-8.8,-1.077689183249671E-15,0.0,-0.0,-8.8,-1.077689183249671E-15
8.999999999999984,-800.7999999999989,-9.806971567572011E-14,0.0,270.0,0.0,0.0,60.0,0.0,0.0,-8.8,-1.077689183249671E-15,0.0,-0.0,-8.8,-1.077689183249671E-15
9.099999999999984,-809.5999999999989,-9.914740485896979E-14,0.0,270.0,0.0,0.0,60.0,0.0,0.0,-8.8,-1.077689183249671E-15,0.0,-0.0,-8.8,-1.077689183249671E-15
9.199999999999983,-818.3999999999988,-1.0022509404221946E-13,0.0,270.0,0.0,0.0,60.0,0.0,0.0,-8.8,-1.077689183249671E-15,0.0,-0.0,-8.8,-1.077689183249671E-15
9.299999999999983,-827.1999999999988,-1.0130278322546914E-13,0.0,270.0,0.0,0.0,60.0,0.0,0.0,-8.8,-1.077689183249671E-15,0.0,-0.0,-8.8,-1.077689183249671E-15
9.399999999999983,-835.9999999999987,-1.0238047240871881E-13,0.0,270.0,0.0,0.0,60.0,0.0,0.0,-8.8,-1.077689183249671E-15,0.0,-0.0,-8.8,-1.077689183249671E-15
9.499999999999982,-844.7999999999987,-1.0345816159196849E-13,0.0,270.0,0.0,0.0,60.0,0.0,0.0,-8.8,-1.077689183249671E-15,0.0,-0.0,-8.8,-1.077689183249671E-15
9.599999999999982,-853.5999999999987,-1.0453585077521816E-13,0.0,270.0,0.0,0.0,60.0,0.0,0.0,-8.8,-1.077689183249671E-15,0.0,-0.0,-8.8,-1.077689183249671E-15
9.699999999999982,-862.3999999999986,-1.0561353995846783E-13,0.0,270.0,0.0,0.0,60.0,0.0,0.0,-8.8,-1.077689183249671E-15,0.0,-0.0,-8.8,-1.077689183249671E-15
9.799999999999981,-871.1999999999986,-1.0669122914171751E-13,0.0,270.0,0.0,0.0,60.0,0.0,0.0,-8.8,-1.077689183249671E-15,0.0,-0.0,-8.8,-1.077689183249671E-15
9.89999999999998,-879.9999999999985,-1.0776891832496718E-13,0.0,270.0,0.0,0.0,60.0,0.0,0.0,-8.8,-1.077689183249671E-15,0.0,-0.0,-8.8,-1.077689183249671E-15
9.99999999999998,-888.7999999999985,-1.0884660750821686E-13,0.0,270.0,0.0,0.0,60.0,0.0,0.0,-8.8,-1.077689183249671E-15,0.0,-0.0,-8.8,-1.077689183249671E-15
10.09999999999998,-897.5999999999984,-1.0992429669146653E-13,0.0,270.0,0.0,0.0,60.0,0.0,0.0,-8.8,-1.077689183249671E-15,0.0,-0.0,-8.8,-1.077689183249671E-15
10.19999999999998,-906.3999999999984,-1.110019858747162E-13,0.0,270.0,0.0,0.0,60.0,0.0,0.0,-8.8,-1.077689183249671E-15,0.0,-0.0,-8.8,-1.077689183249671E-15
10.29999999999998,-915.1999999999983,-1.1207967505796588E-13,0.0,270.0,0.0,0.0,60.0,0.0,0.0,-8.8,-1.077689183249671E-15,0.0,-0.0,-8.8,-1.077689183249671E-15
10.399999999999979,-923.9999999999983,-1.1315736424121555E-13,0.0,270.0,0.0,0.0,60.0,0.0,0.0,-8.8,-1.077689183249671E-15,0.0,-0.0,-8.8,-1.077689183249671E-15
10.499999999999979,-932.7999999999982,-1.1423505342446523E-13,0.0,270.0,0.0,0.0,60.0,0.0,0.0,-8.8,-1.077689183249671E-15,0.0,-0.0,-8.8,-1.077689183249671E-15
10.599999999999978,-941.5999999999982,-1.153127426077149E-13,0.0,270.0,0.0,0.0,60.0,0.0,0.0,-8.8,-1.077689183249671E-15,0.0,-0.0,-8.8,-1.077689183249671E-15
10.699999999999978,-950.3999999999982,-1.1639043179096458E-13,0.0,270.0,0.0,0.0,60.0,0.0,0.0,-8.8,-1.077689183249671E-15,0.0,-0.0,-8.8,-1.077689183249671E-15
10.799999999999978,-959.1999999999981,-1.1746812097421425E-13,0.0,270.0,0.0,0.0,60.0,0.0,0.0,-8.8,-1.077689183249671E-15,0.0,-0.0,-8.8,-1.077689183249671E-15
10.899999999999977,-967.9999999999981,-1.1854581015746393E-13,0.0,270.0,0.0,0.0,60.0,0.0,0.0,-8.8,-1.077689183249671E-15,0.0,-0.0,-8.8,-1.077689183249671E-15
10.999999999999977,-976.799999999998,-1.196234993407136E-13,0.0,270.0,0.0,0.0,60.0,0.0,0.0,-8.8,-1.077689183249671E-15,0.0,-0.0,-8.8,-1.077689183249671E-15
11.099999999999977,-985.599999999998,-1.2070118852396328E-13,0.0,270.0,0.0,0.0,60.0,0.0,0.0,-8.8,-1.077689183249671E-15,0.0,-0.0,-8.8,-1.077689183249671E-15
11.199999999999976,-994.3999999999979,-1.2177887770721295E-13,0.0,270.0,0.0,0.0,60.0,0.0,0.0,-8.8,-1.077689183249671E-15,0.0,-0.0,-8.8,-1.077689183249671E-15
11.299999999999976,-1003.1999999999979,-1.2285656689046262E-13,0.0,270.0,0.0,0.0,60.0,0.0,0.0,-8.8,-1.077689183249671E-15,0.0,-0.0,-8.8,-1.077689183249671E-15
11.399999999999975,-1011.9999999999978,-1.239342560737123E-13,0.0,270.0,0.0,0.0,60.0,0.0,0.0,-8.8,-1.077689183249671E-15,0.0,-0.0,-8.8,-1.077689183249671E-15
11.499999999999975,-1020.7999999999978,-1.2501194525696197E-13,0.0,270.0,0.0,0.0,60.0,0.0,0.0,-8.8,-1.077689183249671E-15,0.0,-0.0,-8.8,-1.077689183249671E-15
11.599999999999975,-1029.5999999999979,-1.2608963444021165E-13,0.0,270.0,0.0,0.0,60.0,0.0,0.0,-8.8,-1.077689183249671E-15,0.0,-0.0,-8.8,-1.077689183249671E-15
11.699999999999974,-1038.3999999999978,-1.2716732362346132E-13,0.0,270.0,0.0,0.0,60.0,0.0,0.0,-8.8,-1.077689183249671E-15,0.0,-0.0,-8.8,-1.077689183249671E-15
11.799999999999974,-1047.1999999999978,-1.28245012806711E-13,0.0,270.0,0.0,0.0,60.0,0.0,0.0,-8.8,-1.077689183249671E-15,0.0,-0.0,-8.8,-1.077689183249671E-15
11.899999999999974,-1055.9999999999977,-1.2932270198996067E-13,0.0,270.0,0.0,0.0,60.0,0.0,0.0,-8.8,-1.077689183249671E-15,0.0,-0.0,-8.8,-1.077689183249671E-15
11.999999999999973,-1064.7999999999977,-1.3040039117321034E-13,0.0,270.0,0.0,0.0,60.0,0.0,0.0,-8.8,-1.077689183249671E-15,0.0,-0.0,-8.8,-1.077689183249671E-15
12.099999999999973,-1073.5999999999976,-1.3147808035646002E-13,0.0,270.0,0.0,0.0,60.0,0.0,0.0,-8.8,-1.077689183249671E-15,0.0,-0.0,-8.8,-1.077689183249671E-15
12.199999999999973,-1082.3999999999976,-1.325557695397097E-13,0.0,270.0,0.0,0.0,60.0,0.0,0.0,-8.8,-1.077689183249671E-15,0.0,-0.0,-8.8,-1.077689183249671E-15
12.299999999999972,-1091.1999999999975,-1.3363345872295937E-13,0.0,270.0,0.0,0.0,60.0,0.0,0.0,-8.8,-1.077689183249671E-15,0.0,-0.0,-8.8,-1.077689183249671E-15
12.399999999999972,-1099.9999999999975,-1.3471114790620904E-13,0.0,270.0,0.0,0.0,60.0,0.0,0.0,-8.8,-1.077689183249671E-15,0.0,-0.0,-8.8,-1.077689183249671E-15
12.499999999999972,-1108.7999999999975,-1.3578883708945872E-13,0.0,270.0,0.0,0.0,60.0,0.0,0.0,-8.8,-1.077689183249671E-15,0.0,-0.0,-8.8,-1.077689183249671E-15
12.599999999999971,-1117.5999999999974,-1.368665262727084E-13,0.0,270.0,0.0,0.0,60.0,0.0,0.0,-8.8,-1.077689183249671E-15,0.0,-0.0,-8.8,-1.077689183249671E-15
12.69999999999997,-1126.3999999999974,-1.3794421545595806E-13,0.0,270.0,0.0,0.0,60.0,0.0,0.0,-8.8,-1.077689183249671E-15,0.0,-0.0,-8.8,-1.077689183249671E-15
12.79999999999997,-1135.1999999999973,-1.3902190463920774E-13,0.0,270.0,0.0,0.0,60.0,0.0,0.0,-8.8,-1.077689183249671E-15,0.0,-0.0,-8.8,-1.077689183249671E-15
12.89999999999997,-1143.9999999999973,-1.4009959382245741E-13,0.0,270.0,0.0,0.0,60.0,0.0,0.0,-8.8,-1.077689183249671E-15,0.0,-0.0,-8.8,-1.077689183249671E-15
12.99999999999997,-1152.7999999999972,-1.411772830057071E-13,0.0,270.0,0.0,0.0,60.0,0.0,0.0,-8.8,-1.077689183249671E-15,0.0,-0.0,-8.8,-1.077689183249671E-15
13.09999999999997,-1161.5999999999972,-1.4225497218895676E-13,0.0,270.0,0.0,0.0,60.0,0.0,0.0,-8.8,-1.077689183249671E-15,0.0,-0.0,-8.8,-1.077689183249671E-15
13.199999999999969,-1170.3999999999971,-1.4333266137220644E-13,0.0,270.0,0.0,0.0,60.0,0.0,0.0,-8.8,-1.077689183249671E-15,0.0,-0.0,-8.8,-1.077689183249671E-15
13.299999999999969,-1179.199999999997,-1.444103505554561E-13,0.0,270.0,0.0,0.0,60.0,0.0,0.0,-8.8,-1.077689183249671E-15,0.0,-0.0,-8.8,-1.077689183249671E-15
13.399999999999968,-1187.999999999997,-1.4548803973870579E-13,0.0,270.0,0.0,0.0,60.0,0.0,0.0,-8.8,-1.077689183249671E-15,0.0,-0.0,-8.8,-1.077689183249671E-15
13.499999999999968,-1196.799999999997,-1.4656572892195546E-13,0.0,270.0,0.0,0.0,60.0,0.0,0.0,-8.8,-1.077689183249671E-15,0.0,-0.0,-8.8,-1.077689183249671E-15
13.599999999999968,-1205.599999999997,-1.4764341810520513E-13,0.0,270.0,0.0,0.0,60.0,0.0,0.0,-8.8,-1.077689183249671E-15,0.0,-0.0,-8.8,-1.077689183249671E-15
13.699999999999967,-1214.399999999997,-1.487211072884548E-13,0.0,270.0,0.0,0.0,60.0,0.0,0.0,-8.8,-1.077689183249671E-15,0.0,-0.0,-8.8,-1.077689183249671E-15
13.799999999999967,-1223.1999999999969,-1.4979879647170448E-13,0.0,270.0,0.0,0.0,60.0,0.0,0.0,-8.8,-1.077689183249671E-15,0.0,-0.0,-8.8,-1.077689183249671E-15
13.899999999999967,-1231.9999999999968,-1.5087648565495416E-13,0.0,270.0,0.0,0.0,60.0,0.0,0.0,-8.8,-1.077689183249671E-15,0.0,-0.0,-8.8,-1.077689183249671E-15
13.999999999999966,-1240.7999999999968,-1.5195417483820383E-13,0.0,270.0,0.0,0.0,60.0,0.0,0.0,-8.8,-1.077689183249671E-15,0.0,-0.0,-8.8,-1.077689183249671E-15
14.099999999999966,-1249.5999999999967,-1.530318640214535E-13,0.0,270.0,0.0,0.0,60.0,0.0,0.0,-8.8,-1.077689183249671E-15,0.0,-0.0,-8.8,-1.077689183249671E-15
14.199999999999966,-1258.3999999999967,-1.5410955320470318E-13,0.0,270.0,0.0,0.0,60.0,0.0,0.0,-8.8,-1.077689183249671E-15,0.0,-0.0,-8.8,-1.077689183249671E-15
14.299999999999965,-1267.1999999999966,-1.5518724238795285E-13,0.0,270.0,0.0,0.0,60.0,0.0,0.0,-8.8,-1.077689183249671E-15,0.0,-0.0,-8.8,-1.077689183249671E-15
14.399999999999965,-1275.9999999999966,-1.5626493157120253E-13,0.0,270.0,0.0,0.0,60.0,0.0,0.0,-8.8,-1.077689183249671E-15,0.0,-0.0,-8.8,-1.077689183249671E-15
14.499999999999964,-1284.7999999999965,-1.573426207544522E-13,0.0,270.0,0.0,0.0,60.0,0.0,0.0,-8.8,-1.077689183249671E-15,0.0,-0.0,-8.8,-1.077689183249671E-15
14.599999999999964,-1293.5999999999965,-1.5842030993770188E-13,0.0,270.0,0.0,0.0,60.0,0.0,0.0,-8.8,-1.077689183249671E-15,0.0,-0.0,-8.8,-1.077689183249671E-15
14.699999999999964,-1302.3999999999965,-1.5949799912095155E-13,0.0,270.0,0.0,0.0,60.0,0.0,0.0,-8.8,-1.077689183249671E-15,0.0,-0.0,-8.8,-1.077689183249671E-15
14.799999999999963,-1311.1999999999964,-1.6057568830420123E-13,0.0,270.0,0.0,0.0,60.0,0.0,0.0,-8.8,-1.077689183249671E-15,0.0,-0.0,-8.8,-1.077689183249671E-15
14.899999999999963,-1319.9999999999964,-1.616533774874509E-13,0.0,270.0,0.0,0.0,60.0,0.0,0.0,-8.8,-1.077689183249671E-15,0.0,-0.0,-8.8,-1.077689183249671E-15
14.999999999999963,-1328.7999999999963,-1.6273106667070057E-13,0.0,270.0,0.0,0.0,60.0,0.0,0.0,-8.8,-1.077689183249671E-15,0.0,-0.0,-8.8,-1.077689183249671E-15
15.099999999999962,-1337.5999999999963,-1.6380875585395025E-13,0.0,270.0,0.0,0.0,60.0,0.0,0.0,-8.8,-1.077689183249671E-15,0.0,-0.0,-8.8,-1.077689183249671E-15
15.199999999999962,-1346.3999999999962,-1.6488644503719992E-13,0.0,270.0,0.0,0.0,60.0,0.0,0.0,-8.8,-1.077689183249671E-15,0.0,-0.0,-8.8,-1.077689183249671E-15
15.299999999999962,-1355.1999999999962,-1.659641342204496E-13,0.0,270.0,0.0,0.0,60.0,0.0,0.0,-8.8,-1.077689183249671E-15,0.0,-0.0,-8.8,-1.077689183249671E-15
15.399999999999961,-1363.9999999999961,-1.6704182340369927E-13,0.0,270.0,0.0,0.0,60.0,0.0,0.0,-8.8,-1.077689183249671E-15,0.0,-0.0,-8.8,-1.077689183249671E-15
15.499999999999961,-1372.799999999996,-1.6811951258694895E-13,0.0,270.0,0.0,0.0,60.0,0.0,0.0,-8.8,-1.077689183249671E-15,0.0,-0.0,-8.8,-1.077689183249671E-15
15.59999999999996,-1381.599999999996,-1.6919720177019862E-13,0.0,270.0,0.0,0.0,60.0,0.0,0.0,-8.8,-1.077689183249671E-15,0.0,-0.0,-8.8,-1.077689183249671E-15
15.69999999999996,-1390.399999999996,-1.702748909534483E-13,0.0,270.0,0.0,0.0,60.0,0.0,0.0,-8.8,-1.077689183249671E-15,0.0,-0.0,-8.8,-1.077689183249671E-15
15.79999999999996,-1399.199999999996,-1.7135258013669797E-13,0.0,270.0,0.0,0.0,60.0,0.0,0.0,-8.8,-1.077689183249671E-15,0.0,-0.0,-8.8,-1.077689183249671E-15
15.89999999999996,-1407.999999999996,-1.7243026931994764E-13,0.0,270.0,0.0,0.0,60.0,0.0,0.0,-8.8,-1.077689183249671E-15,0.0,-0.0,-8.8,-1.077689183249671E-15
15.99999999999996,-1416.7999999999959,-1.7350795850319732E-13,0.0,270.0,0.0,0.0,60.0,0.0,0.0,-8.8,-1.077689183249671E-15,0.0,-0.0,-8.8,-1.077689183249671E-15
16.09999999999996,-1425.5999999999958,-1.74585647686447E-13,0.0,270.0,0.0,0.0,60.0,0.0,0.0,-8.8,-1.077689183249671E-15,0.0,-0.0,-8.8,-1.077689183249671E-15
16.19999999999996,-1434.3999999999958,-1.7566333686969667E-13,0.0,270.0,0.0,0.0,60.0,0.0,0.0,-8.8,-1.077689183249671E-15,0.0,-0.0,-8.8,-1.077689183249671E-15
16.29999999999996,-1443.1999999999957,-1.7674102605294634E-13,0.0,270.0,0.0,0.0,60.0,0.0,0.0,-8.8,-1.077689183249671E-15,0.0,-0.0,-8.8,-1.077689183249671E-15
16.399999999999963,-1451.9999999999957,-1.7781871523619602E-13,0.0,270.0,0.0,0.0,60.0,0.0,0.0,-8.8,-1.077689183249671E-15,0.0,-0.0,-8.8,-1.077689183249671E-15
16.499999999999964,-1460.7999999999956,-1.788964044194457E-13,0.0,270.0,0.0,0.0,60.0,0.0,0.0,-8.8,-1.077689183249671E-15,0.0,-0.0,-8.8,-1.077689183249671E-15
16.599999999999966,-1469.5999999999956,-1.7997409360269536E-13,0.0,270.0,0.0,0.0,60.0,0.0,0.0,-8.8,-1.077689183249671E-15,0.0,-0.0,-8.8,-1.077689183249671E-15
16.699999999999967,-1478.3999999999955,-1.8105178278594504E-13,0.0,270.0,0.0,0.0,60.0,0.0,0.0,-8.8,-1.077689183249671E-15,0.0,-0.0,-8.8,-1.077689183249671E-15
16.79999999999997,-1487.1999999999955,-1.8212947196919471E-13,0.0,270.0,0.0,0.0,60.0,0.0,0.0,-8.8,-1.077689183249671E-15,0.0,-0.0,-8.8,-1.077689183249671E-15
16.89999999999997,-1495.9999999999955,-1.832071611524444E-13,0.0,270.0,0.0,0.0,60.0,0.0,0.0,-8.8,-1.077689183249671E-15,0.0,-0.0,-8.8,-1.077689183249671E-15
16.99999999999997,-1504.7999999999954,-1.8428485033569406E-13,0.0,270.0,0.0,0.0,60.0,0.0,0.0,-8.8,-1.077689183249671E-15,0.0,-0.0,-8.8,-1.077689183249671E-15
17.099999999999973,-1513.5999999999954,-1.8536253951894374E-13,0.0,270.0,0.0,0.0,60.0,0.0,0.0,-8.8,-1.077689183249671E-15,0.0,-0.0,-8.8,-1.077689183249671E-15
17.199999999999974,-1522.3999999999953,-1.864402287021934E-13,0.0,270.0,0.0,0.0,60.0,0.0,0.0,-8.8,-1.077689183249671E-15,0.0,-0.0,-8.8,-1.077689183249671E-15
17.299999999999976,-1531.1999999999953,-1.8751791788544308E-13,0.0,270.0,0.0,0.0,60.0,0.0,0.0,-8.8,-1.077689183249671E-15,0.0,-0.0,-8.8,-1.077689183249671E-15
17.399999999999977,-1539.9999999999952,-1.8859560706869276E-13,0.0,270.0,0.0,0.0,60.0,0.0,0.0,-8.8,-1.077689183249671E-15,0.0,-0.0,-8.8,-1.077689183249671E-15
17.49999999999998,-1548.7999999999952,-1.8967329625194243E-13,0.0,270.0,0.0,0.0,60.0,0.0,0.0,-8.8,-1.077689183249671E-15,0.0,-0.0,-8.8,-1.077689183249671E-15
17.59999999999998,-1557.5999999999951,-1.907509854351921E-13,0.0,270.0,0.0,0.0,60.0,0.0,0.0,-8.8,-1.077689183249671E-15,0.0,-0.0,-8.8,-1.077689183249671E-15
17.69999999999998,-1566.399999999995,-1.9182867461844178E-13,0.0,270.0,0.0,0.0,60.0,0.0,0.0,-8.8,-1.077689183249671E-15,0.0,-0.0,-8.8,-1.077689183249671E-15
17.799999999999983,-1575.199999999995,-1.9290636380169146E-13,0.0,270.0,0.0,0.0,60.0,0.0,0.0,-8.8,-1.077689183249671E-15,0.0,-0.0,-8.8,-1.077689183249671E-15
17.899999999999984,-1583.999999999995,-1.9398405298494113E-13,0.0,270.0,0.0,0.0,60.0,0.0,0.0,-8.8,-1.077689183249671E-15,0.0,-0.0,-8.8,-1.077689183249671E-15
17.999999999999986,-1592.799999999995,-1.950617421681908E-13,0.0,270.0,0.0,0.0,60.0,0.0,0.0,-8.8,-1.077689183249671E-15,0.0,-0.0,-8.8,-1.077689183249671E-15
18.099999999999987,-1601.599999999995,-1.9613943135144048E-13,0.0,270.0,0.0,0.0,60.0,0.0,0.0,-8.8,-1.077689183249671E-15,0.0,-0.0,-8.8,-1.077689183249671E-15
18.19999999999999,-1610.3999999999949,-1.9721712053469015E-13,0.0,270.0,0.0,0.0,60.0,0.0,0.0,-8.8,-1.077689183249671E-15,0.0,-0.0,-8.8,-1.077689183249671E-15
18.29999999999999,-1619.1999999999948,-1.9829480971793983E-13,0.0,270.0,0.0,0.0,60.0,0.0,0.0,-8.8,-1.077689183249671E-15,0.0,-0.0,-8.8,-1.077689183249671E-15
18.39999999999999,-1627.9999999999948,-1.993724989011895E-13,0.0,270.0,0.0,0.0,60.0,0.0,0.0,-8.8,-1.077689183249671E-15,0.0,-0.0,-8.8,-1.077689183249671E-15
18.499999999999993,-1636.7999999999947,-2.0045018808443918E-13,0.0,270.0,0.0,0.0,60.0,0.0,0.0,-8.8,-1.077689183249671E-15,0.0,-0.0,-8.8,-1.077689183249671E-15
18.599999999999994,-1645.5999999999947,-2.0152787726768885E-13,0.0,270.0,0.0,0.0,60.0,0.0,0.0,-8.8,-1.077689183249671E-15,0.0,-0.0,-8.8,-1.077689183249671E-15
18.699999999999996,-1654.3999999999946,-2.0260556645093853E-13,0.0,270.0,0.0,0.0,60.0,0.0,0.0,-8.8,-1.077689183249671E-15,0.0,-0.0,-8.8,-1.077689183249671E-15
18.799999999999997,-1663.1999999999946,-2.036832556341882E-13,0.0,270.0,0.0,0.0,60.0,0.0,0.0,-8.8,-1.077689183249671E-15,0.0,-0.0,-8.8,-1.077689183249671E-15
18.9,-1671.9999999999945,-2.0476094481743787E-13,0.0,270.0,0.0,0.0,60.0,0.0,0.0,-8.8,-1.077689183249671E-15,0.0,-0.0,-8.8,-1.077689183249671E-15
19.0,-1680.7999999999945,-2.0583863400068755E-13,0.0,270.0,0.0,0.0,60.0,0.0,0.0,-8.8,-1.077689183249671E-15,0.0,-0.0,-8.8,-1.077689183249671E-15
19.1,-1689.5999999999945,-2.0691632318393722E-13,0.0,270.0,0.0,0.0,60.0,0.0,0.0,-8.8,-1.077689183249671E-15,0.0,-0.0,-8.8,-1.077689183249671E-15
19.200000000000003,-1698.3999999999944,-2.079940123671869E-13,0.0,270.0,0.0,0.0,60.0,0.0,0.0,-8.8,-1.077689183249671E-15,0.0,-0.0,-8.8,-1.077689183249671E-15
19.300000000000004,-1707.1999999999944,-2.0907170155043657E-13,0.0,270.0,0.0,0.0,60.0,0.0,0.0,-8.8,-1.077689183249671E-15,0.0,-0.0,-8.8,-1.077689183249671E-15
19.400000000000006,-1715.9999999999943,-2.1014939073368625E-13,0.0,270.0,0.0,0.0,60.0,0.0,0.0,-8.8,-1.077689183249671E-15,0.0,-0.0,-8.8,-1.077689183249671E-15
19.500000000000007,-1724.7999999999943,-2.1122707991693592E-13,0.0,270.0,0.0,0.0,60.0,0.0,0.0,-8.8,-1.077689183249671E-15,0.0,-0.0,-8.8,-1.077689183249671E-15
19.60000000000001,-1733.5999999999942,-2.123047691001856E-13,0.0,270.0,0.0,0.0,60.0,0.0,0.0,-8.8,-1.077689183249671E-15,0.0,-0.0,-8.8,-1.077689183249671E-15
19.70000000000001,-1742.3999999999942,-2.1338245828343527E-13,0.0,270.0,0.0,0.0,60.0,0.0,0.0,-8.8,-1.077689183249671E-15,0.0,-0.0,-8.8,-1.077689183249671E-15
19.80000000000001,-1751.1999999999941,-2.1446014746668494E-13,0.0,270.0,0.0,0.0,60.0,0.0,0.0,-8.8,-1.077689183249671E-15,0.0,-0.0,-8.8,-1.077689183249671E-15
19.900000000000013,-1759.999999999994,-2.1553783664993462E-13,0.0,270.0,0.0,0.0,60.0,0.0,0.0,-8.8,-1.077689183249671E-15,0.0,-0.0,-8.8,-1.077689183249671E-15
20.000000000000014,-1768.799999999994,-2.166155258331843E-13,0.0,270.0,0.0,0.0,60.0,0.0,0.0,-8.8,-1.077689183249671E-15,0.0,-0.0,-8.8,-1.077689183249671E-15
20.100000000000016,-1777.599999999994,-2.1769321501643397E-13,0.0,270.0,0.0,0.0,60.0,0.0,0.0,-8.8,-1.077689183249671E-15,0.0,-0.0,-8.8,-1.077689183249671E-15
20.200000000000017,-1786.399999999994,-2.1877090419968364E-13,0.0,270.0,0.0,0.0,60.0,0.0,0.0,-8.8,-1.077689183249671E-15,0.0,-0.0,-8.8,-1.077689183249671E-15
20.30000000000002,-1795.199999999994,-2.1984859338293332E-13,0.0,270.0,0.0,0.0,60.0,0.0,0.0,-8.8,-1.077689183249671E-15,0.0,-0.0,-8.8,-1.077689183249671E-15
20.40000000000002,-1803.9999999999939,-2.20926282566183E-13,0.0,270.0,0.0,0.0,60.0,0.0,0.0,-8.8,-1.077689183249671E-15,0.0,-0.0,-8.8,-1.077689183249671E-15
20.50000000000002,-1812.7999999999938,-2.2200397174943266E-13,0.0,270.0,0.0,0.0,60.0,0.0,0.0,-8.8,-1.077689183249671E-15,0.0,-0.0,-8.8,-1.077689183249671E-15
20.600000000000023,-1821.5999999999938,-2.2308166093268234E-13,0.0,270.0,0.0,0.0,60.0,0.0,0.0,-8.8,-1.077689183249671E-15,0.0,-0.0,-8.8,-1.077689183249671E-15
20.700000000000024,-1830.3999999999937,-2.2415935011593201E-13,0.0,270.0,0.0,0.0,60.0,0.0,0.0,-8.8,-1.077689183249671E-15,0.0,-0.0,-8.8,-1.077689183249671E-15
20.800000000000026,-1839.1999999999937,-2.2523703929918169E-13,0.0,270.0,0.0,0.0,60.0,0.0,0.0,-8.8,-1.077689183249671E-15,0.0,-0.0,-8.8,-1.077689183249671E-15
20.900000000000027,-1847.9999999999936,-2.2631472848243136E-13,0.0,270.0,0.0,0.0,60.0,0.0,0.0,-8.8,-1.077689183249671E-15,0.0,-0.0,-8.8,-1.077689183249671E-15
21.00000000000003,-1856.7999999999936,-2.27392417665681E-13,0.0,270.0,0.0,0.0,60.0,0.0,0.0,-8.8,-1.077689183249671E-15,0.0,-0.0,-8.8,-1.077689183249671E-15
21.10000000000003,-1865.5999999999935,-2.2847010684893066E-13,0.0,270.0,0.0,0.0,60.0,0.0,0.0,-8.8,-1.077689183249671E-15,0.0,-0.0,-8.8,-1.077689183249671E-15
21.20000000000003,-1874.3999999999935,-2.295477960321803E-13,0.0,270.0,0.0,0.0,60.0,0.0,0.0,-8.8,-1.077689183249671E-15,0.0,-0.0,-8.8,-1.077689183249671E-15
21.300000000000033,-1883.1999999999935,-2.3062548521542996E-13,0.0,270.0,0.0,0.0,60.0,0.0,0.0,-8.8,-1.077689183249671E-15,0.0,-0.0,-8.8,-1.077689183249671E-15
21.400000000000034,-1891.9999999999934,-2.317031743986796E-13,0.0,270.0,0.0,0.0,60.0,0.0,0.0,-8.8,-1.077689183249671E-15,0.0,-0.0,-8.8,-1.077689183249671E-15
21.500000000000036,-1900.7999999999934,-2.3278086358192926E-13,0.0,270.0,0.0,0.0,60.0,0.0,0.0,-8.8,-1.077689183249671E-15,0.0,-0.0,-8.8,-1.077689183249671E-15
21.600000000000037,-1909.5999999999933,-2.338585527651789E-13,0.0,270.0,0.0,0.0,60.0,0.0,0.0,-8.8,-1.077689183249671E-15,0.0,-0.0,-8.8,-1.077689183249671E-15
21.70000000000004,-1918.3999999999933,-2.3493624194842855E-13,0.0,270.0,0.0,0.0,60.0,0.0,0.0,-8.8,-1.077689183249671E-15,0.0,-0.0,-8.8,-1.077689183249671E-15
21.80000000000004,-1927.1999999999932,-2.360139311316782E-13,0.0,270.0,0.0,0.0,60.0,0.0,0.0,-8.8,-1.077689183249671E-15,0.0,-0.0,-8.8,-1.077689183249671E-15
21.90000000000004,-1935.9999999999932,-2.3709162031492785E-13,0.0,270.0,0.0,0.0,60.0,0.0,0.0,-8.8,-1.077689183249671E-15,0.0,-0.0,-8.8,-1.077689183249671E-15
22.000000000000043,-1944.7999999999931,-2.381693094981775E-13,0.0,270.0,0.0,0.0,60.0,0.0,0.0,-8.8,-1.077689183249671E-15,0.0,-0.0,-8.8,-1.077689183249671E-15
22.100000000000044,-1953.599999999993,-2.3924699868142715E-13,0.0,270.0,0.0,0.0,60.0,0.0,0.0,-8.8,-1.077689183249671E-15,0.0,-0.0,-8.8,-1.077689183249671E-15
22.200000000000045,-1962.399999999993,-2.403246878646768E-13,0.0,270.0,0.0,0.0,60.0,0.0,0.0,-8.8,-1.077689183249671E-15,0.0,-0.0,-8.8,-1.077689183249671E-15
22.300000000000047,-1971.199999999993,-2.4140237704792645E-13,0.0,270.0,0.0,0.0,60.0,0.0,0.0,-8.8,-1.077689183249671E-15,0.0,-0.0,-8.8,-1.077689183249671E-15
22.40000000000005,-1979.999999999993,-2.424800662311761E-13,0.0,270.0,0.0,0.0,60.0,0.0,0.0,-8.8,-1.077689183249671E-15,0.0,-0.0,-8.8,-1.077689183249671E-15
22.50000000000005,-1988.799999999993,-2.4355775541442575E-13,0.0,270.0,0.0,0.0,60.0,0.0,0.0,-8.8,-1.077689183249671E-15,0.0,-0.0,-8.8,-1.077689183249671E-15
22.60000000000005,-1997.5999999999929,-2.446354445976754E-13,0.0,270.0,0.0,0.0,60.0,0.0,0.0,-8.8,-1.077689183249671E-15,0.0,-0.0,-8.8,-1.077689183249671E-15
22.700000000000053,-2006.3999999999928,-2.4571313378092505E-13,0.0,270.0,0.0,0.0,60.0,0.0,0.0,-8.8,-1.077689183249671E-15,0.0,-0.0,-8.8,-1.077689183249671E-15
22.800000000000054,-2015.1999999999928,-2.467908229641747E-13,0.0,270.0,0.0,0.0,60.0,0.0,0.0,-8.8,-1.077689183249671E-15,0.0,-0.0,-8.8,-1.077689183249671E-15
22.900000000000055,-2023.9999999999927,-2.4786851214742434E-13,0.0,270.0,0.0,0.0,60.0,0.0,0.0,-8.8,-1.077689183249671E-15,0.0,-0.0,-8.8,-1.077689183249671E-15
23.000000000000057,-2032.7999999999927,-2.48946201330674E-13,0.0,270.0,0.0,0.0,60.0,0.0,0.0,-8.8,-1.077689183249671E-15,0.0,-0.0,-8.8,-1.077689183249671E-15
23.10000000000006,-2041.5999999999926,-2.5002389051392364E-13,0.0,270.0,0.0,0.0,60.0,0.0,0.0,-8.8,-1.077689183249671E-15,0.0,-0.0,-8.8,-1.077689183249671E-15
23.20000000000006,-2050.399999999993,-2.511015796971733E-13,0.0,270.0,0.0,0.0,60.0,0.0,0.0,-8.8,-1.077689183249671E-15,0.0,-0.0,-8.8,-1.077689183249671E-15
23.30000000000006,-2059.199999999993,-2.5217926888042294E-13,0.0,270.0,0.0,0.0,60.0,0.0,0.0,-8.8,-1.077689183249671E-15,0.0,-0.0,-8.8,-1.077689183249671E-15
23.400000000000063,-2067.999999999993,-2.532569580636726E-13,0.0,270.0,0.0,0.0,60.0,0.0,0.0,-8.8,-1.077689183249671E-15,0.0,-0.0,-8.8,-1.077689183249671E-15
23.500000000000064,-2076.7999999999934,-2.5433464724692224E-13,0.0,270.0,0.0,0.0,60.0,0.0,0.0,-8.8,-1.077689183249671E-15,0.0,-0.0,-8.8,-1.077689183249671E-15
23.600000000000065,-2085.5999999999935,-2.554123364301719E-13,0.0,270.0,0.0,0.0,60.0,0.0,0.0,-8.8,-1.077689183249671E-15,0.0,-0.0,-8.8,-1.077689183249671E-15
23.700000000000067,-2094.3999999999937,-2.5649002561342154E-13,0.0,270.0,0.0,0.0,60.0,0.0,0.0,-8.8,-1.077689183249671E-15,0.0,-0.0,-8.8,-1.077689183249671E-15
23.800000000000068,-2103.199999999994,-2.575677147966712E-13,0.0,270.0,0.0,0.0,60.0,0.0,0.0,-8.8,-1.077689183249671E-15,0.0,-0.0,-8.8,-1.077689183249671E-15
23.90000000000007,-2111.999999999994,-2.5864540397992083E-13,0.0,270.0,0.0,0.0,60.0,0.0,0.0,-8.8,-1.077689183249671E-15,0.0,-0.0,-8.8,-1.077689183249671E-15
24.00000000000007,-2120.7999999999943,-2.597230931631705E-13,0.0,270.0,0.0,0.0,60.0,0.0,0.0,-8.8,-1.077689183249671E-15,0.0,-0.0,-8.8,-1.077689183249671E-15
24.100000000000072,-2129.5999999999945,-2.6080078234642013E-13,0.0,270.0,0.0,0.0,60.0,0.0,0.0,-8.8,-1.077689183249671E-15,0.0,-0.0,-8.8,-1.077689183249671E-15
24.200000000000074,-2138.3999999999946,-2.618784715296698E-13,0.0,270.0,0.0,0.0,60.0,0.0,0.0,-8.8,-1.077689183249671E-15,0.0,-0.0,-8.8,-1.077689183249671E-15
24.300000000000075,-2147.199999999995,-2.6295616071291943E-13,0.0,270.0,0.0,0.0,60.0,0.0,0.0,-8.8,-1.077689183249671E-15,0.0,-0.0,-8.8,-1.077689183249671E-15
24.400000000000077,-2155.999999999995,-2.640338498961691E-13,0.0,270.0,0.0,0.0,60.0,0.0,0.0,-8.8,-1.077689183249671E-15,0.0,-0.0,-8.8,-1.077689183249671E-15
24.500000000000078,-2164.799999999995,-2.6511153907941873E-13,0.0,270.0,0.0,0.0,60.0,0.0,0.0,-8.8,-1.077689183249671E-15,0.0,-0.0,-8.8,-1.077689183249671E-15
24.60000000000008,-2173.5999999999954,-2.661892282626684E-13,0.0,270.0,0.0,0.0,60.0,0.0,0.0,-8.8,-1.077689183249671E-15,0.0,-0.0,-8.8,-1.077689183249671E-15
24.70000000000008,-2182.3999999999955,-2.6726691744591803E-13,0.0,270.0,0.0,0.0,60.0,0.0,0.0,-8.8,-1.077689183249671E-15,0.0,-0.0,-8.8,-1.077689183249671E-15
24.800000000000082,-2191.1999999999957,-2.683446066291677E-13,0.0,270.0,0.0,0.0,60.0,0.0,0.0,-8.8,-1.077689183249671E-15,0.0,-0.0,-8.8,-1.077689183249671E-15
24.900000000000084,-2199.999999999996,-2.6942229581241733E-13,0.0,270.0,0.0,0.0,60.0,0.0,0.0,-8.8,-1.077689183249671E-15,0.0,-0.0,-8.8,-1.077689183249671E-15
25.000000000000085,-2208.799999999996,-2.70499984995667E-13,0.0,270.0,0.0,0.0,60.0,0.0,0.0,-8.8,-1.077689183249671E-15,0.0,-0.0,-8.8,-1.077689183249671E-15
25.100000000000087,-2217.5999999999963,-2.715776741789166E-13,0.0,270.0,0.0,0.0,60.0,0.0,0.0,-8.8,-1.077689183249671E-15,0.0,-0.0,-8.8,-1.077689183249671E-15
25.200000000000088,-2226.3999999999965,-2.7265536336216627E-13,0.0,270.0,0.0,0.0,60.0,0.0,0.0,-8.8,-1.077689183249671E-15,0.0,-0.0,-8.8,-1.077689183249671E-15
25.30000000000009,-2235.1999999999966,-2.737330525454159E-13,0.0,270.0,0.0,0.0,60.0,0.0,0.0,-8.8,-1.077689183249671E-15,0.0,-0.0,-8.8,-1.077689183249671E-15
25.40000000000009,-2243.999999999997,-2.7481074172866557E-13,0.0,270.0,0.0,0.0,60.0,0.0,0.0,-8.8,-1.077689183249671E-15,0.0,-0.0,-8.8,-1.077689183249671E-15
25.500000000000092,-2252.799999999997,-2.758884309119152E-13,0.0,270.0,0.0,0.0,60.0,0.0,0.0,-8.8,-1.077689183249671E-15,0.0,-0.0,-8.8,-1.077689183249671E-15
25.600000000000094,-2261.599999999997,-2.7696612009516487E-13,0.0,270.0,0.0,0.0,60.0,0.0,0.0,-8.8,-1.077689183249671E-15,0.0,-0.0,-8.8,-1.077689183249671E-15
25.700000000000095,-2270.3999999999974,-2.780438092784145E-13,0.0,270.0,0.0,0.0,60.0,0.0,0.0,-8.8,-1.077689183249671E-15,0.0,-0.0,-8.8,-1.077689183249671E-15
25.800000000000097,-2279.1999999999975,-2.7912149846166417E-13,0.0,270.0,0.0,0.0,60.0,0.0,0.0,-8.8,-1.077689183249671E-15,0.0,-0.0,-8.8,-1.077689183249671E-15
25.900000000000098,-2287.9999999999977,-2.801991876449138E-13,0.0,270.0,0.0,0.0,60.0,0.0,0.0,-8.8,-1.077689183249671E-15,0.0,-0.0,-8.8,-1.077689183249671E-15
26.0000000000001,-2296.799999999998,-2.8127687682816347E-13,0.0,270.0,0.0,0.0,60.0,0.0,0.0,-8.8,-1.077689183249671E-15,0.0,-0.0,-8.8,-1.077689183249671E-15
26.1000000000001,-2305.599999999998,-2.823545660114131E-13,0.0,270.0,0.0,0.0,60.0,0.0,0.0,-8.8,-1.077689183249671E-15,0.0,-0.0,-8.8,-1.077689183249671E-15
26.200000000000102,-2314.3999999999983,-2.8343225519466276E-13,0.0,270.0,0.0,0.0,60.0,0.0,0.0,-8.8,-1.077689183249671E-15,0.0,-0.0,-8.8,-1.077689183249671E-15
26.300000000000104,-2323.1999999999985,-2.845099443779124E-13,0.0,270.0,0.0,0.0,60.0,0.0,0.0,-8.8,-1.077689183249671E-15,0.0,-0.0,-8.8,-1.077689183249671E-15
26.400000000000105,-2331.9999999999986,-2.8558763356116206E-13,0.0,270.0,0.0,0.0,60.0,0.0,0.0,-8.8,-1.077689183249671E-15,0.0,-0.0,-8.8,-1.077689183249671E-15
26.500000000000107,-2340.799999999999,-2.866653227444117E-13,0.0,270.0,0.0,0.0,60.0,0.0,0.0,-8.8,-1.077689183249671E-15,0.0,-0.0,-8.8,-1.077689183249671E-15
26.600000000000108,-2349.599999999999,-2.8774301192766136E-13,0.0,270.0,0.0,0.0,60.0,0.0,0.0,-8.8,-1.077689183249671E-15,0.0,-0.0,-8.8,-1.077689183249671E-15
26.70000000000011,-2358.399999999999,-2.88820701110911E-13,0.0,270.0,0.0,0.0,60.0,0.0,0.0,-8.8,-1.077689183249671E-15,0.0,-0.0,-8.8,-1.077689183249671E-15
26.80000000000011,-2367.1999999999994,-2.8989839029416066E-13,0.0,270.0,0.0,0.0,60.0,0.0,0.0,-8.8,-1.077689183249671E-15,0.0,-0.0,-8.8,-1.077689183249671E-15
26.900000000000112,-2375.9999999999995,-2.909760794774103E-13,0.0,270.0,0.0,0.0,60.0,0.0,0.0,-8.8,-1.077689183249671E-15,0.0,-0.0,-8.8,-1.077689183249671E-15
27.000000000000114,-2384.7999999999997,-2.9205376866065996E-13,0.0,270.0,0.0,0.0,60.0,0.0,0.0,-8.8,-1.077689183249671E-15,0.0,-0.0,-8.8,-1.077689183249671E-15
27.100000000000115,-2393.6,-2.931314578439096E-13,0.0,270.0,0.0,0.0,60.0,0.0,0.0,-8.8,-1.077689183249671E-15,0.0,-0.0,-8.8,-1.077689183249671E-15
27.200000000000117,-2402.4,-2.9420914702715926E-13,0.0,270.0,0.0,0.0,60.0,0.0,0.0,-8.8,-1.077689183249671E-15,0.0,-0.0,-8.8,-1.077689183249671E-15
27.300000000000118,-2411.2000000000003,-2.952868362104089E-13,0.0,270.0,0.0,0.0,60.0,0.0,0.0,-8.8,-1.077689183249671E-15,0.0,-0.0,-8.8,-1.077689183249671E-15
27.40000000000012,-2420.0000000000005,-2.9636452539365855E-13,0.0,270.0,0.0,0.0,60.0,0.0,0.0,-8.8,-1.077689183249671E-15,0.0,-0.0,-8.8,-1.077689183249671E-15
27.50000000000012,-2428.8000000000006,-2.974422145769082E-13,0.0,270.0,0.0,0.0,60.0,0.0,0.0,-8.8,-1.077689183249671E-15,0.0,-0.0,-8.8,-1.077689183249671E-15
27.600000000000122,-2437.600000000001,-2.9851990376015785E-13,0.0,270.0,0.0,0.0,60.0,0.0,0.0,-8.8,-1.077689183249671E-15,0.0,-0.0,-8.8,-1.077689183249671E-15
27.700000000000124,-2446.400000000001,-2.995975929434075E-13,0.0,270.0,0.0,0.0,60.0,0.0,0.0,-8.8,-1.077689183249671E-15,0.0,-0.0,-8.8,-1.077689183249671E-15
27.800000000000125,-2455.200000000001,-3.0067528212665715E-13,0.0,270.0,0.0,0.0,60.0,0.0,0.0,-8.8,-1.077689183249671E-15,0.0,-0.0,-8.8,-1.077689183249671E-15
27.900000000000126,-2464.0000000000014,-3.017529713099068E-13,0.0,270.0,0.0,0.0,60.0,0.0,0.0,-8.8,-1.077689183249671E-15,0.0,-0.0,-8.8,-1.077689183249671E-15
28.000000000000128,-2472.8000000000015,-3.0283066049315645E-13,0.0,270.0,0.0,0.0,60.0,0.0,0.0,-8.8,-1.077689183249671E-15,0.0,-0.0,-8.8,-1.077689183249671E-15
28.10000000000013,-2481.6000000000017,-3.039083496764061E-13,0.0,270.0,0.0,0.0,60.0,0.0,0.0,-8.8,-1.077689183249671E-15,0.0,-0.0,-8.8,-1.077689183249671E-15
28.20000000000013,-2490.400000000002,-3.0498603885965575E-13,0.0,270.0,0.0,0.0,60.0,0.0,0.0,-8.8,-1.077689183249671E-15,0.0,-0.0,-8.8,-1.077689183249671E-15
28.300000000000132,-2499.200000000002,-3.060637280429054E-13,0.0,270.0,0.0,0.0,60.0,0.0,0.0,-8.8,-1.077689183249671E-15,0.0,-0.0,-8.8,-1.077689183249671E-15
28.400000000000134,-2508.0000000000023,-3.0714141722615504E-13,0.0,270.0,0.0,0.0,60.0,0.0,0.0,-8.8,-1.077689183249671E-15,0.0,-0.0,-8.8,-1.077689183249671E-15
28.500000000000135,-2516.8000000000025,-3.082191064094047E-13,0.0,270.0,0.0,0.0,60.0,0.0,0.0,-8.8,-1.077689183249671E-15,0.0,-0.0,-8.8,-1.077689183249671E-15
28.600000000000136,-2525.6000000000026,-3.0929679559265434E-13,0.0,270.0,0.0,0.0,60.0,0.0,0.0,-8.8,-1.077689183249671E-15,0.0,-0.0,-8.8,-1.077689183249671E-15
28.700000000000138,-2534.400000000003,-3.10374484775904E-13,0.0,270.0,0.0,0.0,60.0,0.0,0.0,-8.8,-1.077689183249671E-15,0.0,-0.0,-8.8,-1.077689183249671E-15
28.80000000000014,-2543.200000000003,-3.1145217395915364E-13,0.0,270.0,0.0,0.0,60.0,0.0,0.0,-8.8,-1.077689183249671E-15,0.0,-0.0,-8.8,-1.077689183249671E-15
28.90000000000014,-2552.000000000003,-3.125298631424033E-13,0.0,270.0,0.0,0.0,60.0,0.0,0.0,-8.8,-1.077689183249671E-15,0.0,-0.0,-8.8,-1.077689183249671E-15
29.000000000000142,-2560.8000000000034,-3.1360755232565294E-13,0.0,270.0,0.0,0.0,60.0,0.0,0.0,-8.8,-1.077689183249671E-15,0.0,-0.0,-8.8,-1.077689183249671E-15
29.100000000000144,-2569.6000000000035,-3.146852415089026E-13,0.0,270.0,0.0,0.0,60.0,0.0,0.0,-8.8,-1.077689183249671E-15,0.0,-0.0,-8.8,-1.077689183249671E-15
29.200000000000145,-2578.4000000000037,-3.1576293069215224E-13,0.0,270.0,0.0,0.0,60.0,0.0,0.0,-8.8,-1.077689183249671E-15,0.0,-0.0,-8.8,-1.077689183249671E-15
29.300000000000146,-2587.200000000004,-3.168406198754019E-13,0.0,270.0,0.0,0.0,60.0,0.0,0.0,-8.8,-1.077689183249671E-15,0.0,-0.0,-8.8,-1.077689183249671E-15
29.400000000000148,-2596.000000000004,-3.1791830905865154E-13,0.0,270.0,0.0,0.0,60.0,0.0,0.0,-8.8,-1.077689183249671E-15,0.0,-0.0,-8.8,-1.077689183249671E-15
29.50000000000015,-2604.8000000000043,-3.189959982419012E-13,0.0,270.0,0.0,0.0,60.0,0.0,0.0,-8.8,-1.077689183249671E-15,0.0,-0.0,-8.8,-1.077689183249671E-15
29.60000000000015,-2613.6000000000045,-3.2007368742515083E-13,0.0,270.0,0.0,0.0,60.0,0.0,0.0,-8.8,-1.077689183249671E-15,0.0,-0.0,-8.8,-1.077689183249671E-15
29.700000000000152,-2622.4000000000046,-3.211513766084005E-13,0.0,270.0,0.0,0.0,60.0,0.0,0.0,-8.8,-1.077689183249671E-15,0.0,-0.0,-8.8,-1.077689183249671E-15
29.800000000000153,-2631.200000000005,-3.2222906579165013E-13,0.0,270.0,0.0,0.0,60.0,0.0,0.0,-8.8,-1.077689183249671E-15,0.0,-0.0,-8.8,-1.077689183249671E-15
29.900000000000155,-2640.000000000005,-3.233067549748998E-13,0.0,270.0,0.0,0.0,60.0,0.0,0.0,-8.8,-1.077689183249671E-15,0.0,-0.0,-8.8,-1.077689183249671E-15
30.000000000000156,-2648.800000000005,-3.2438444415814943E-13,0.0,270.0,0.0,0.0,60.0,0.0,0.0,-8.8,-1.077689183249671E-15,0.0,-0.0,-8.8,-1.077689183249671E-15
30.100000000000158,-2657.6000000000054,-3.254621333413991E-13,0.0,270.0,0.0,0.0,60.0,0.0,0.0,-8.8,-1.077689183249671E-15,0.0,-0.0,-8.8,-1.077689183249671E-15
30.20000000000016,-2666.4000000000055,-3.2653982252464873E-13,0.0,270.0,0.0,0.0,60.0,0.0,0.0,-8.8,-1.077689183249671E-15,0.0,-0.0,-8.8,-1.077689183249671E-15
30.30000000000016,-2675.2000000000057,-3.276175117078984E-13,0.0,270.0,0.0,0.0,60.0,0.0,0.0,-8.8,-1.077689183249671E-15,0.0,-0.0,-8.8,-1.077689183249671E-15
30.400000000000162,-2684.000000000006,-3.2869520089114803E-13,0.0,270.0,0.0,0.0,60.0,0.0,0.0,-8.8,-1.077689183249671E-15,0.0,-0.0,-8.8,-1.077689183249671E-15
30.500000000000163,-2692.800000000006,-3.297728900743977E-13,0.0,270.0,0.0,0.0,60.0,0.0,0.0,-8.8,-1.077689183249671E-15,0.0,-0.0,-8.8,-1.077689183249671E-15
30.600000000000165,-2701.6000000000063,-3.308505792576473E-13,0.0,270.0,0.0,0.0,60.0,0.0,0.0,-8.8,-1.077689183249671E-15,0.0,-0.0,-8.8,-1.077689183249671E-15
30.700000000000166,-2710.4000000000065,-3.3192826844089697E-13,0.0,270.0,0.0,0.0,60.0,0.0,0.0,-8.8,-1.077689183249671E-15,0.0,-0.0,-8.8,-1.077689183249671E-15
30.800000000000168,-2719.2000000000066,-3.330059576241466E-13,0.0,270.0,0.0,0.0,60.0,0.0,0.0,-8.8,-1.077689183249671E-15,0.0,-0.0,-8.8,-1.077689183249671E-15
30.90000000000017,-2728.000000000007,-3.3408364680739627E-13,0.0,270.0,0.0,0.0,60.0,0.0,0.0,-8.8,-1.077689183249671E-15,0.0,-0.0,-8.8,-1.077689183249671E-15
31.00000000000017,-2736.800000000007,-3.351613359906459E-13,0.0,270.0,0.0,0.0,60.0,0.0,0.0,-8.8,-1.077689183249671E-15,0.0,-0.0,-8.8,-1.077689183249671E-15
31.100000000000172,-2745.600000000007,-3.3623902517389557E-13,0.0,270.0,0.0,0.0,60.0,0.0,0.0,-8.8,-1.077689183249671E-15,0.0,-0.0,-8.8,-1.077689183249671E-15
31.200000000000173,-2754.4000000000074,-3.373167143571452E-13,0.0,270.0,0.0,0.0,60.0,0.0,0.0,-8.8,-1.077689183249671E-15,0.0,-0.0,-8.8,-1.077689183249671E-15
31.300000000000175,-2763.2000000000075,-3.3839440354039487E-13,0.0,270.0,0.0,0.0,60.0,0.0,0.0,-8.8,-1.077689183249671E-15,0.0,-0.0,-8.8,-1.077689183249671E-15
31.400000000000176,-2772.0000000000077,-3.394720927236445E-13,0.0,270.0,0.0,0.0,60.0,0.0,0.0,-8.8,-1.077689183249671E-15,0.0,-0.0,-8.8,-1.077689183249671E-15
31.500000000000178,-2780.800000000008,-3.4054978190689417E-13,0.0,270.0,0.0,0.0,60.0,0.0,0.0,-8.8,-1.077689183249671E-15,0.0,-0.0,-8.8,-1.077689183249671E-15
31.60000000000018,-2789.600000000008,-3.416274710901438E-13,0.0,270.0,0.0,0.0,60.0,0.0,0.0,-8.8,-1.077689183249671E-15,0.0,-0.0,-8.8,-1.077689183249671E-15
31.70000000000018,-2798.4000000000083,-3.4270516027339347E-13,0.0,270.0,0.0,0.0,60.0,0.0,0.0,-8.8,-1.077689183249671E-15,0.0,-0.0,-8.8,-1.077689183249671E-15
31.800000000000182,-2807.2000000000085,-3.437828494566431E-13,0.0,270.0,0.0,0.0,60.0,0.0,0.0,-8.8,-1.077689183249671E-15,0.0,-0.0,-8.8,-1.077689183249671E-15
31.900000000000183,-2816.0000000000086,-3.4486053863989276E-13,0.0,270.0,0.0,0.0,60.0,0.0,0.0,-8.8,-1.077689183249671E-15,0.0,-0.0,-8.8,-1.077689183249671E-15
32.000000000000185,-2824.800000000009,-3.459382278231424E-13,0.0,270.0,0.0,0.0,60.0,0.0,0.0,-8.8,-1.077689183249671E-15,0.0,-0.0,-8.8,-1.077689183249671E-15
32.100000000000186,-2833.600000000009,-3.4701591700639206E-13,0.0,270.0,0.0,0.0,60.0,0.0,0.0,-8.8,-1.077689183249671E-15,0.0,-0.0,-8.8,-1.077689183249671E-15
32.20000000000019,-2842.400000000009,-3.480936061896417E-13,0.0,270.0,0.0,0.0,60.0,0.0,0.0,-8.8,-1.077689183249671E-15,0.0,-0.0,-8.8,-1.077689183249671E-15
32.30000000000019,-2851.2000000000094,-3.4917129537289136E-13,0.0,270.0,0.0,0.0,60.0,0.0,0.0,-8.8,-1.077689183249671E-15,0.0,-0.0,-8.8,-1.077689183249671E-15
32.40000000000019,-2860.0000000000095,-3.50248984556141E-13,0.0,270.0,0.0,0.0,60.0,0.0,0.0,-8.8,-1.077689183249671E-15,0.0,-0.0,-8.8,-1.077689183249671E-15
32.50000000000019,-2868.8000000000097,-3.5132667373939066E-13,0.0,270.0,0.0,0.0,60.0,0.0,0.0,-8.8,-1.077689183249671E-15,0.0,-0.0,-8.8,-1.077689183249671E-15
32.60000000000019,-2877.60000000001,-3.524043629226403E-13,0.0,270.0,0.0,0.0,60.0,0.0,0.0,-8.8,-1.077689183249671E-15,0.0,-0.0,-8.8,-1.077689183249671E-15
32.700000000000195,-2886.40000000001,-3.5348205210588996E-13,0.0,270.0,0.0,0.0,60.0,0.0,0.0,-8.8,-1.077689183249671E-15,0.0,-0.0,-8.8,-1.077689183249671E-15
32.800000000000196,-2895.2000000000103,-3.545597412891396E-13,0.0,270.0,0.0,0.0,60.0,0.0,0.0,-8.8,-1.077689183249671E-15,0.0,-0.0,-8.8,-1.077689183249671E-15
32.9000000000002,-2904.0000000000105,-3.5563743047238925E-13,0.0,270.0,0.0,0.0,60.0,0.0,0.0,-8.8,-1.077689183249671E-15,0.0,-0.0,-8.8,-1.077689183249671E-15
33.0000000000002,-2912.8000000000106,-3.567151196556389E-13,0.0,270.0,0.0,0.0,60.0,0.0,0.0,-8.8,-1.077689183249671E-15,0.0,-0.0,-8.8,-1.077689183249671E-15
33.1000000000002,-2921.600000000011,-3.5779280883888855E-13,0.0,270.0,0.0,0.0,60.0,0.0,0.0,-8.8,-1.077689183249671E-15,0.0,-0.0,-8.8,-1.077689183249671E-15
33.2000000000002,-2930.400000000011,-3.588704980221382E-13,0.0,270.0,0.0,0.0,60.0,0.0,0.0,-8.8,-1.077689183249671E-15,0.0,-0.0,-8.8,-1.077689183249671E-15
33.3000000000002,-2939.200000000011,-3.5994818720538785E-13,0.0,270.0,0.0,0.0,60.0,0.0,0.0,-8.8,-1.077689183249671E-15,0.0,-0.0,-8.8,-1.077689183249671E-15
33.400000000000205,-2948.0000000000114,-3.610258763886375E-13,0.0,270.0,0.0,0.0,60.0,0.0,0.0,-8.8,-1.077689183249671E-15,0.0,-0.0,-8.8,-1.077689183249671E-15
33.500000000000206,-2956.8000000000116,-3.6210356557188715E-13,0.0,270.0,0.0,0.0,60.0,0.0,0.0,-8.8,-1.077689183249671E-15,0.0,-0.0,-8.8,-1.077689183249671E-15
33.60000000000021,-2965.6000000000117,-3.631812547551368E-13,0.0,270.0,0.0,0.0,60.0,0.0,0.0,-8.8,-1.077689183249671E-15,0.0,-0.0,-8.8,-1.077689183249671E-15
33.70000000000021,-2974.400000000012,-3.6425894393838645E-13,0.0,270.0,0.0,0.0,60.0,0.0,0.0,-8.8,-1.077689183249671E-15,0.0,-0.0,-8.8,-1.077689183249671E-15
33.80000000000021,-2983.200000000012,-3.653366331216361E-13,0.0,270.0,0.0,0.0,60.0,0.0,0.0,-8.8,-1.077689183249671E-15,0.0,-0.0,-8.8,-1.077689183249671E-15
33.90000000000021,-2992.0000000000123,-3.6641432230488575E-13,0.0,270.0,0.0,0.0,60.0,0.0,0.0,-8.8,-1.077689183249671E-15,0.0,-0.0,-8.8,-1.077689183249671E-15
34.00000000000021,-3000.8000000000125,-3.674920114881354E-13,0.0,270.0,0.0,0.0,60.0,0.0,0.0,-8.8,-1.077689183249671E-15,0.0,-0.0,-8.8,-1.077689183249671E-15
34.100000000000215,-3009.6000000000126,-3.6856970067138504E-13,0.0,270.0,0.0,0.0,60.0,0.0,0.0,-8.8,-1.077689183249671E-15,0.0,-0.0,-8.8,-1.077689183249671E-15
34.200000000000216,-3018.400000000013,-3.696473898546347E-13,0.0,270.0,0.0,0.0,60.0,0.0,0.0,-8.8,-1.077689183249671E-15,0.0,-0.0,-8.8,-1.077689183249671E-15
34.30000000000022,-3027.200000000013,-3.7072507903788434E-13,0.0,270.0,0.0,0.0,60.0,0.0,0.0,-8.8,-1.077689183249671E-15,0.0,-0.0,-8.8,-1.077689183249671E-15
34.40000000000022,-3036.000000000013,-3.71802768221134E-13,0.0,270.0,0.0,0.0,60.0,0.0,0.0,-8.8,-1.077689183249671E-15,0.0,-0.0,-8.8,-1.077689183249671E-15
34.50000000000022,-3044.8000000000134,-3.7288045740438364E-13,0.0,270.0,0.0,0.0,60.0,0.0,0.0,-8.8,-1.077689183249671E-15,0.0,-0.0,-8.8,-1.077689183249671E-15
34.60000000000022,-3053.6000000000136,-3.739581465876333E-13,0.0,270.0,0.0,0.0,60.0,0.0,0.0,-8.8,-1.077689183249671E-15,0.0,-0.0,-8.8,-1.077689183249671E-15
34.70000000000022,-3062.4000000000137,-3.7503583577088294E-13,0.0,270.0,0.0,0.0,60.0,0.0,0.0,-8.8,-1.077689183249671E-15,0.0,-0.0,-8.8,-1.077689183249671E-15
34.800000000000225,-3071.200000000014,-3.761135249541326E-13,0.0,270.0,0.0,0.0,60.0,0.0,0.0,-8.8,-1.077689183249671E-15,0.0,-0.0,-8.8,-1.077689183249671E-15
34.900000000000226,-3080.000000000014,-3.7719121413738224E-13,0.0,270.0,0.0,0.0,60.0,0.0,0.0,-8.8,-1.077689183249671E-15,0.0,-0.0,-8.8,-1.077689183249671E-15
35.00000000000023,-3088.8000000000143,-3.782689033206319E-13,0.0,270.0,0.0,0.0,60.0,0.0,0.0,-8.8,-1.077689183249671E-15,0.0,-0.0,-8.8,-1.077689183249671E-15
35.10000000000023,-3097.6000000000145,-3.7934659250388154E-13,0.0,270.0,0.0,0.0,60.0,0.0,0.0,-8.8,-1.077689183249671E-15,0.0,-0.0,-8.8,-1.077689183249671E-15
35.20000000000023,-3106.4000000000146,-3.804242816871312E-13,0.0,270.0,0.0,0.0,60.0,0.0,0.0,-8.8,-1.077689183249671E-15,0.0,-0.0,-8.8,-1.077689183249671E-15
35.30000000000023,-3115.200000000015,-3.8150197087038083E-13,0.0,270.0,0.0,0.0,60.0,0.0,0.0,-8.8,-1.077689183249671E-15,0.0,-0.0,-8.8,-1.077689183249671E-15
35.40000000000023,-3124.000000000015,-3.825796600536305E-13,0.0,270.0,0.0,0.0,60.0,0.0,0.0,-8.8,-1.077689183249671E-15,0.0,-0.0,-8.8,-1.077689183249671E-15
35.500000000000234,-3132.800000000015,-3.8365734923688013E-13,0.0,270.0,0.0,0.0,60.0,0.0,0.0,-8.8,-1.077689183249671E-15,0.0,-0.0,-8.8,-1.077689183249671E-15
35.600000000000236,-3141.6000000000154,-3.847350384201298E-13,0.0,270.0,0.0,0.0,60.0,0.0,0.0,-8.8,-1.077689183249671E-15,0.0,-0.0,-8.8,-1.077689183249671E-15
35.70000000000024,-3150.4000000000156,-3.8581272760337943E-13,0.0,270.0,0.0,0.0,60.0,0.0,0.0,-8.8,-1.077689183249671E-15,0.0,-0.0,-8.8,-1.077689183249671E-15
35.80000000000024,-3159.2000000000157,-3.868904167866291E-13,0.0,270.0,0.0,0.0,60.0,0.0,0.0,-8.8,-1.077689183249671E-15,0.0,-0.0,-8.8,-1.077689183249671E-15
35.90000000000024,-3168.000000000016,-3.8796810596987873E-13,0.0,270.0,0.0,0.0,60.0,0.0,0.0,-8.8,-1.077689183249671E-15,0.0,-0.0,-8.8,-1.077689183249671E-15
36.00000000000024,-3176.800000000016,-3.890457951531284E-13,0.0,270.0,0.0,0.0,60.0,0.0,0.0,-8.8,-1.077689183249671E-15,0.0,-0.0,-8.8,-1.077689183249671E-15
36.10000000000024,-3185.6000000000163,-3.9012348433637803E-13,0.0,270.0,0.0,0.0,60.0,0.0,0.0,-8.8,-1.077689183249671E-15,0.0,-0.0,-8.8,-1.077689183249671E-15
36.200000000000244,-3194.4000000000165,-3.912011735196277E-13,0.0,270.0,0.0,0.0,60.0,0.0,0.0,-8.8,-1.077689183249671E-15,0.0,-0.0,-8.8,-1.077689183249671E-15
36.300000000000246,-3203.2000000000166,-3.922788627028773E-13,0.0,270.0,0.0,0.0,60.0,0.0,0.0,-8.8,-1.077689183249671E-15,0.0,-0.0,-8.8,-1.077689183249671E-15
36.40000000000025,-3212.000000000017,-3.9335655188612697E-13,0.0,270.0,0.0,0.0,60.0,0.0,0.0,-8.8,-1.077689183249671E-15,0.0,-0.0,-8.8,-1.077689183249671E-15
36.50000000000025,-3220.800000000017,-3.944342410693766E-13,0.0,270.0,0.0,0.0,60.0,0.0,0.0,-8.8,-1.077689183249671E-15,0.0,-0.0,-8.8,-1.077689183249671E-15
36.60000000000025,-3229.600000000017,-3.9551193025262627E-13,0.0,270.0,0.0,0.0,60.0,0.0,0.0,-8.8,-1.077689183249671E-15,0.0,-0.0,-8.8,-1.077689183249671E-15
36.70000000000025,-3238.4000000000174,-3.965896194358759E-13,0.0,270.0,0.0,0.0,60.0,0.0,0.0,-8.8,-1.077689183249671E-15,0.0,-0.0,-8.8,-1.077689183249671E-15
36.80000000000025,-3247.2000000000176,-3.9766730861912557E-13,0.0,270.0,0.0,0.0,60.0,0.0,0.0,-8.8,-1.077689183249671E-15,0.0,-0.0,-8.8,-1.077689183249671E-15
36.900000000000254,-3256.0000000000177,-3.987449978023752E-13,0.0,270.0,0.0,0.0,60.0,0.0,0.0,-8.8,-1.077689183249671E-15,0.0,-0.0,-8.8,-1.077689183249671E-15
37.000000000000256,-3264.800000000018,-3.9982268698562487E-13,0.0,270.0,0.0,0.0,60.0,0.0,0.0,-8.8,-1.077689183249671E-15,0.0,-0.0,-8.8,-1.077689183249671E-15
37.10000000000026,-3273.600000000018,-4.009003761688745E-13,0.0,270.0,0.0,0.0,60.0,0.0,0.0,-8.8,-1.077689183249671E-15,0.0,-0.0,-8.8,-1.077689183249671E-15
37.20000000000026,-3282.4000000000183,-4.0197806535212417E-13,0.0,270.0,0.0,0.0,60.0,0.0,0.0,-8.8,-1.077689183249671E-15,0.0,-0.0,-8.8,-1.077689183249671E-15
37.30000000000026,-3291.2000000000185,-4.030557545353738E-13,0.0,270.0,0.0,0.0,60.0,0.0,0.0,-8.8,-1.077689183249671E-15,0.0,-0.0,-8.8,-1.077689183249671E-15
37.40000000000026,-3300.0000000000186,-4.0413344371862346E-13,0.0,270.0,0.0,0.0,60.0,0.0,0.0,-8.8,-1.077689183249671E-15,0.0,-0.0,-8.8,-1.077689183249671E-15
37.50000000000026,-3308.800000000019,-4.052111329018731E-13,0.0,270.0,0.0,0.0,60.0,0.0,0.0,-8.8,-1.077689183249671E-15,0.0,-0.0,-8.8,-1.077689183249671E-15
37.600000000000264,-3317.600000000019,-4.0628882208512276E-13,0.0,270.0,0.0,0.0,60.0,0.0,0.0,-8.8,-1.077689183249671E-15,0.0,-0.0,-8.8,-1.077689183249671E-15
37.700000000000266,-3326.400000000019,-4.073665112683724E-13,0.0,270.0,0.0,0.0,60.0,0.0,0.0,-8.8,-1.077689183249671E-15,0.0,-0.0,-8.8,-1.077689183249671E-15
37.80000000000027,-3335.2000000000194,-4.0844420045162206E-13,0.0,270.0,0.0,0.0,60.0,0.0,0.0,-8.8,-1.077689183249671E-15,0.0,-0.0,-8.8,-1.077689183249671E-15
37.90000000000027,-3344.0000000000196,-4.095218896348717E-13,0.0,270.0,0.0,0.0,60.0,0.0,0.0,-8.8,-1.077689183249671E-15,0.0,-0.0,-8.8,-1.077689183249671E-15
38.00000000000027,-3352.8000000000197,-4.1059957881812136E-13,0.0,270.0,0.0,0.0,60.0,0.0,0.0,-8.8,-1.077689183249671E-15,0.0,-0.0,-8.8,-1.077689183249671E-15
38.10000000000027,-3361.60000000002,-4.11677268001371E-13,0.0,270.0,0.0,0.0,60.0,0.0,0.0,-8.8,-1.077689183249671E-15,0.0,-0.0,-8.8,-1.077689183249671E-15
