time,x,y,altitude,yaw,pitch,roll,speed,wind_dir,wind_spd,dx,dy,wind_dx,wind_dy,vmg_dx,vmg_dy
0.0,0.1810017471528919,14.6655497503039,999.9292893218814,0.7071067811865475,0.0,45.0,100.0,0.0,0.0,0.1810017471528919,14.6655497503039,0.0,-0.0,0.1810017471528919,14.6655497503039
0.1,0.5429776736659846,29.32774892163342,999.8585786437627,1.414213562373095,0.0,45.0,100.0,0.0,0.0,0.36197592651309274,14.662199171329524,0.0,-0.0,0.36197592651309274,14.662199171329524
0.2,1.08587264815265,43.98436436169285,999.7878679656441,2.1213203435596424,0.0,45.0,100.0,0.0,0.0,0.5428949744866652,14.656615440059424,0.0,-0.0,0.5428949744866652,14.656615440059424
0.30000000000000004,1.8096039840292113,58.63316376862656,999.7171572875254,2.82842712474619,0.0,45.0,100.0,0.0,0.0,0.7237313358765614,14.648799406933714,0.0,-0.0,0.7237313358765614,14.648799406933714
0.4,2.714061452108681,73.27191603101376,999.6464466094068,3.5355339059327373,0.0,45.0,100.0,0.0,0.0,0.90445746807947,14.638752262387204,0.0,-0.0,0.90445746807947,14.638752262387204
0.5,3.799107297389397,87.89839156768186,999.5757359312881,4.242640687119285,0.0,45.0,100.0,0.0,0.0,1.085045845280716,14.626475536668096,0.0,-0.0,1.085045845280716,14.626475536668096
0.6,5.064576260036041,102.51036266728677,999.5050252531695,4.949747468305832,0.0,45.0,100.0,0.0,0.0,1.2654689626466442,14.611971099604913,0.0,-0.0,1.2654689626466442,14.611971099604913
0.7,6.510275600549853,117.10560382760849,999.4343145750508,5.65685424949238,0.0,45.0,100.0,0.0,0.0,1.445699340513812,14.595241160321713,0.0,-0.0,1.445699340513812,14.595241160321713
0.7999999999999999,8.13598512912414,131.68189209451012,999.3636038969322,6.363961030678928,0.0,45.0,100.0,0.0,0.0,1.6257095285742862,14.576288266901624,0.0,-0.0,1.6257095285742862,14.576288266901624
0.8999999999999999,9.941457239180686,146.23700740050887,999.2928932188136,7.0710678118654755,0.0,45.0,100.0,0.0,0.0,1.8054721100565458,14.555115305998752,0.0,-0.0,1.8054721100565458,14.555115305998752
0.9999999999999999,11.926416945081915,160.7687329029074,999.2221825406949,7.778174593052023,0.0,45.0,100.0,0.0,0.0,1.9849597059012294,14.531725502398526,0.0,-0.0,1.9849597059012294,14.531725502398526
1.0999999999999999,14.090561924013054,175.27485532143393,999.1514718625763,8.485281374238571,0.0,45.0,100.0,0.0,0.0,2.1641449789311396,14.506122418526541,0.0,-0.0,2.1641449789311396,14.506122418526541
1.2,16.43356256202797,189.7531652753399,999.0807611844576,9.19238815542512,0.0,45.0,100.0,0.0,0.0,2.3430006380149146,14.478309953905978,0.0,-0.0,2.3430006380149146,14.478309953905978
1.3,18.955062004251573,204.20145761990358,999.010050506339,9.899494936611667,0.0,45.0,100.0,0.0,0.0,2.521499442223604,14.448292344563672,0.0,-0.0,2.521499442223604,14.448292344563672
1.4000000000000001,21.654676209231273,218.61753178228852,998.9393398282203,10.606601717798215,0.0,45.0,100.0,0.0,0.0,2.6996142049797007,14.416074162384952,0.0,-0.0,2.6996142049797007,14.416074162384952
1.5000000000000002,24.53199400742906,232.99919209670583,998.8686291501017,11.313708498984763,0.0,45.0,100.0,0.0,0.0,2.877317798197788,14.381660314417298,0.0,-0.0,2.877317798197788,14.381660314417298
1.6000000000000003,27.586577163845433,247.3442481388288,998.797918471983,12.02081528017131,0.0,45.0,100.0,0.0,0.0,3.0545831564163723,14.345056042122964,0.0,-0.0,3.0545831564163723,14.345056042122964
1.7000000000000004,30.81796044476555,261.6505150594095,998.7272077938644,12.727922061357859,0.0,45.0,100.0,0.0,0.0,3.2313832809201175,14.306266920580684,0.0,-0.0,3.2313832809201175,14.306266920580684
1.8000000000000005,34.225651688617475,275.915813917046,998.6564971157458,13.435028842544407,0.0,45.0,100.0,0.0,0.0,3.4076912438519273,14.26529885763653,0.0,-0.0,3.4076912438519273,14.26529885763653
1.9000000000000006,37.80913188093173,290.13797201005013,998.5857864376271,14.142135623730955,0.0,45.0,100.0,0.0,0.0,3.5834801923142563,14.22215809300412,0.0,-0.0,3.5834801923142563,14.22215809300412
2.0000000000000004,41.56785523339071,304.3148232073644,998.5150757595085,14.849242404917502,0.0,45.0,100.0,0.0,0.0,3.758723352458982,14.176851197314258,0.0,-0.0,3.758723352458982,14.176851197314258
2.1000000000000005,45.50124926695594,318.4442082784786,998.4443650813898,15.55634918610405,0.0,45.0,100.0,0.0,0.0,3.933394033565228,14.129385071114195,0.0,-0.0,3.933394033565228,14.129385071114195
2.2000000000000006,49.60871489906051,332.5239752222952,998.3736544032712,16.263455967290597,0.0,45.0,100.0,0.0,0.0,4.107465632104569,14.079766943816614,0.0,-0.0,4.107465632104569,14.079766943816614
2.3000000000000007,53.88962653485342,346.55197959489374,998.3029437251525,16.970562748477143,0.0,45.0,100.0,0.0,0.0,4.280911635792909,14.02800437259855,0.0,-0.0,4.280911635792909,14.02800437259855
2.400000000000001,58.34333216248191,360.52608483614415,998.2322330470339,17.67766952966369,0.0,45.0,100.0,0.0,0.0,4.453705627628487,13.974105241250388,0.0,-0.0,4.453705627628487,13.974105241250388
2.500000000000001,62.96915345239727,374.4441625951192,998.1615223689153,18.384776310850235,0.0,45.0,100.0,0.0,0.0,4.625821289915367,13.918077758975086,0.0,-0.0,4.625821289915367,13.918077758975086
2.600000000000001,67.76638586066908,388.3040930542571,998.0908116907966,19.09188309203678,0.0,45.0,100.0,0.0,0.0,4.797232408271802,13.85993045913788,0.0,-0.0,4.797232408271802,13.85993045913788
2.700000000000001,72.73429873629192,402.1037652522237,998.020101012678,19.798989873223327,0.0,45.0,100.0,0.0,0.0,4.967912875622848,13.799672197966585,0.0,-0.0,4.967912875622848,13.799672197966585
2.800000000000001,77.8721354324686,415.8410774054264,997.9493903345593,20.506096654409873,0.0,45.0,100.0,0.0,0.0,5.137836696176679,13.737312153202733,0.0,-0.0,5.137836696176679,13.737312153202733
2.9000000000000012,83.17911342185249,429.51393722813015,997.8786796564407,21.21320343559642,0.0,45.0,100.0,0.0,0.0,5.306977989383896,13.672859822703735,0.0,-0.0,5.306977989383896,13.672859822703735
3.0000000000000013,88.6544244157318,443.12026225112646,997.807968978322,21.920310216782966,0.0,45.0,100.0,0.0,0.0,5.475310993879311,13.60632502299631,0.0,-0.0,5.475310993879311,13.60632502299631
3.1000000000000014,94.29723448713739,456.6579801389078,997.7372583002034,22.62741699796951,0.0,45.0,100.0,0.0,0.0,5.642810071405589,13.53771788778134,0.0,-0.0,5.642810071405589,13.53771788778134
3.2000000000000015,100.10668419785551,470.12502900529825,997.6665476220847,23.334523779156058,0.0,45.0,100.0,0.0,0.0,5.809449710718134,13.467048866390446,0.0,-0.0,5.809449710718134,13.467048866390446
3.3000000000000016,106.08188872932611,483.5193577274927,997.5958369439661,24.041630560342604,0.0,45.0,100.0,0.0,0.0,5.975204531470599,13.394328722194496,0.0,-0.0,5.975204531470599,13.394328722194496
3.4000000000000017,112.22193801740661,496.838926258457,997.5251262658475,24.74873734152915,0.0,45.0,100.0,0.0,0.0,6.1400492880805,13.319568530964256,0.0,-0.0,6.1400492880805,13.319568530964256
3.5000000000000018,118.52589689098092,510.08170593764044,997.4544155877288,25.455844122715696,0.0,45.0,100.0,0.0,0.0,6.303958873574304,13.242779679183482,0.0,-0.0,6.303958873574304,13.242779679183482
3.600000000000002,124.99280521439228,523.2456797999552,997.3837049096102,26.162950903902242,0.0,45.0,100.0,0.0,0.0,6.466908323411365,13.163973862314677,0.0,-0.0,6.466908323411365,13.163973862314677
3.700000000000002,131.62167803367848,536.3288428829729,997.3129942314915,26.87005768508879,0.0,45.0,100.0,0.0,0.0,6.628872819286206,13.083163083017798,0.0,-0.0,6.628872819286206,13.083163083017798
3.800000000000002,138.411505726587,549.3292025322951,997.2422835533729,27.577164466275335,0.0,45.0,100.0,0.0,0.0,6.789827692908514,13.000359649322162,0.0,-0.0,6.789827692908514,13.000359649322162
3.900000000000002,145.3612541563473,562.244778705047,997.1715728752542,28.28427124746188,0.0,45.0,100.0,0.0,0.0,6.94974842976029,12.91557617275186,0.0,-0.0,6.94974842976029,12.91557617275186
4.000000000000002,152.46986482917686,575.0736042714519,997.1008621971356,28.991378028648427,0.0,45.0,100.0,0.0,0.0,7.10861067282956,12.828825566404934,0.0,-0.0,7.10861067282956,12.828825566404934
4.100000000000001,159.736255055497,587.8137253144386,997.030151519017,29.698484809834973,0.0,45.0,100.0,0.0,0.0,7.266390226320146,12.740121042986612,0.0,-0.0,7.266390226320146,12.740121042986612
4.200000000000001,167.1593181148338,600.4632014272355,996.9594408408983,30.40559159102152,0.0,45.0,100.0,0.0,0.0,7.42306305933682,12.649476112796936,0.0,-0.0,7.42306305933682,12.649476112796936
4.300000000000001,174.73792342437918,613.0201060089086,996.8887301627797,31.112698372208065,0.0,45.0,100.0,0.0,0.0,7.578605309545377,12.556904581673058,0.0,-0.0,7.578605309545377,12.556904581673058
4.4,182.47091671118622,625.482526557795,996.818019484661,31.81980515339461,0.0,45.0,100.0,0.0,0.0,7.732993286807043,12.462420548886497,0.0,-0.0,7.732993286807043,12.462420548886497
4.5,190.35712018797284,637.8485649627908,996.7473088065424,32.52691193458116,0.0,45.0,100.0,0.0,0.0,7.8862034767866325,12.366038404995741,0.0,-0.0,7.8862034767866325,12.366038404995741
4.6,198.3953327325068,650.1163377924452,996.6765981284237,33.234018715767704,0.0,45.0,100.0,0.0,0.0,8.038212544533948,12.267772829654461,0.0,-0.0,8.038212544533948,12.267772829654461
4.699999999999999,206.58433007054464,662.2839765818209,996.6058874503051,33.94112549695425,0.0,45.0,100.0,0.0,0.0,8.188997338037847,12.167638789375706,0.0,-0.0,8.188997338037847,12.167638789375706
4.799999999999999,214.92286496229707,674.3496281170733,996.5351767721864,34.648232278140796,0.0,45.0,100.0,0.0,0.0,8.338534891752444,12.065651535252385,0.0,-0.0,8.338534891752444,12.065651535252385
4.899999999999999,223.409667392392,686.3114547177078,996.4644660940678,35.35533905932734,0.0,45.0,100.0,0.0,0.0,8.486802430094933,11.961826600634451,0.0,-0.0,8.486802430094933,11.961826600634451
4.999999999999998,232.04344476330647,698.1676345164708,996.3937554159492,36.06244584051389,0.0,45.0,100.0,0.0,0.0,8.633777370914455,11.856179798763034,0.0,-0.0,8.633777370914455,11.856179798763034
5.099999999999998,240.822882092238,709.9163617368328,996.3230447378305,36.769552621700434,0.0,45.0,100.0,0.0,0.0,8.779437328931513,11.748727220362003,0.0,-0.0,8.779437328931513,11.748727220362003
5.1999999999999975,249.7466422113854,721.55584696802,996.2523340597119,37.47665940288698,0.0,45.0,100.0,0.0,0.0,8.9237601191474,11.639485231187228,0.0,-0.0,8.9237601191474,11.639485231187228
5.299999999999997,258.8133659716085,733.084317437554,996.1816233815932,38.18376618407353,0.0,45.0,100.0,0.0,0.0,9.066723760223129,11.52847046953396,0.0,-0.0,9.066723760223129,11.52847046953396
5.399999999999997,268.0216724494358,744.5000172812568,996.1109127034746,38.89087296526007,0.0,45.0,100.0,0.0,0.0,9.208306477827332,11.415699843702726,0.0,-0.0,9.208306477827332,11.415699843702726
5.4999999999999964,277.37015915738846,755.8012078106808,996.0402020253559,39.59797974644662,0.0,45.0,100.0,0.0,0.0,9.34848670795265,11.301190529424048,0.0,-0.0,9.34848670795265,11.301190529424048
5.599999999999996,286.85740225758855,766.9861677779234,995.9694913472373,40.305086527633165,0.0,45.0,100.0,0.0,0.0,9.487243100200077,11.184959967242495,0.0,-0.0,9.487243100200077,11.184959967242495
5.699999999999996,296.4819567786193,778.0531936377837,995.8987806691187,41.01219330881971,0.0,45.0,100.0,0.0,0.0,9.624554521030749,11.067025859860351,0.0,-0.0,9.624554521030749,11.067025859860351
5.799999999999995,306.242356835604,789.0005998072251,995.828069991,41.71930009000626,0.0,45.0,100.0,0.0,0.0,9.760400056984752,10.947406169441384,0.0,-0.0,9.760400056984752,10.947406169441384
5.899999999999995,316.1371158534704,799.8267189221001,995.7573593128814,42.4264068711928,0.0,45.0,100.0,0.0,0.0,9.894759017866368,10.82611911487507,0.0,-0.0,9.894759017866368,10.82611911487507
5.999999999999995,326.16472679336573,810.5299020911018,995.6866486347627,43.13351365237935,0.0,45.0,100.0,0.0,0.0,10.027610939895348,10.70318316900175,0.0,-0.0,10.027610939895348,10.70318316900175
6.099999999999994,336.32366238218935,821.1085191469009,995.6159379566441,43.840620433565896,0.0,45.0,100.0,0.0,0.0,10.158935588823653,10.57861705579909,0.0,-0.0,10.158935588823653,10.57861705579909
6.199999999999994,346.61237534520666,831.5609588944312,995.5452272785254,44.54772721475244,0.0,45.0,100.0,0.0,0.0,10.288712963017304,10.452439747530281,0.0,-0.0,10.288712963017304,10.452439747530281
6.299999999999994,357.0292986417094,841.8856293562857,995.4745166004068,45.25483399593899,0.0,45.0,100.0,0.0,0.0,10.41692329650274,10.324670461854446,0.0,-0.0,10.41692329650274,10.324670461854446
6.399999999999993,367.5728457036867,852.0809580151853,995.4038059222881,45.961940777125534,0.0,45.0,100.0,0.0,0.0,10.543547061977325,10.195328658899648,0.0,-0.0,10.543547061977325,10.195328658899648
6.499999999999993,378.2414106774702,862.1453920534842,995.3330952441695,46.66904755831208,0.0,45.0,100.0,0.0,0.0,10.668564973783484,10.064434038298996,0.0,-0.0,10.668564973783484,10.064434038298996
6.5999999999999925,389.0333686683162,872.0773985896744,995.2623845660509,47.376154339498626,0.0,45.0,100.0,0.0,0.0,10.791957990846026,9.932006536190245,0.0,-0.0,10.791957990846026,9.932006536190245
6.699999999999992,399.94707598788847,881.8754649118538,995.1916738879322,48.08326112068517,0.0,45.0,100.0,0.0,0.0,10.91370731957226,9.798066322179395,0.0,-0.0,10.91370731957226,9.798066322179395
6.799999999999992,410.9808704046028,891.5380987081224,995.1209632098136,48.79036790187172,0.0,45.0,100.0,0.0,0.0,11.033794416714352,9.662633796268716,0.0,-0.0,11.033794416714352,9.662633796268716
6.8999999999999915,422.1330713967964,901.0638282938721,995.0502525316949,49.497474683058265,0.0,45.0,100.0,0.0,0.0,11.152200992193608,9.525729585749698,0.0,-0.0,11.152200992193608,9.525729585749698
6.999999999999991,433.4019804086826,910.4512028359335,994.9795418535763,50.20458146424481,0.0,45.0,100.0,0.0,0.0,11.268909011886173,9.387374542061362,0.0,-0.0,11.268909011886173,9.387374542061362
7.099999999999991,444.78588110905235,919.698792573548,994.9088311754576,50.91168824543136,0.0,45.0,100.0,0.0,0.0,11.383900700369745,9.247589737614467,0.0,-0.0,11.383900700369745,9.247589737614467
7.19999999999999,456.28303965268327,928.80518903613,994.838120497339,51.6187950266179,0.0,45.0,100.0,0.0,0.0,11.497158543630905,9.106396462582008,0.0,-0.0,11.497158543630905,9.106396462582008
7.29999999999999,467.8917049444159,937.7690052577866,994.7674098192203,52.32590180780445,0.0,45.0,100.0,0.0,0.0,11.608665291732597,8.963816221656606,0.0,-0.0,11.608665291732597,8.963816221656606
7.39999999999999,479.6101089058573,946.5888759885618,994.6966991411017,53.033008588990995,0.0,45.0,100.0,0.0,0.0,11.71840396144144,8.819870730775182,0.0,-0.0,11.71840396144144,8.819870730775182
7.499999999999989,491.4364667446717,955.2634579023733,994.6259884629831,53.74011537017754,0.0,45.0,100.0,0.0,0.0,11.826357838814364,8.674581913811478,0.0,-0.0,11.826357838814364,8.674581913811478
7.599999999999989,503.36897722641595,963.7914298016102,994.5552777848644,54.44722215136409,0.0,45.0,100.0,0.0,0.0,11.93251048174427,8.527971899236904,0.0,-0.0,11.93251048174427,8.527971899236904
7.699999999999989,515.4058229488802,972.1714928183604,994.4845671067458,55.154328932550634,0.0,45.0,100.0,0.0,0.0,12.03684572246427,8.38006301675022,0.0,-0.0,12.03684572246427,8.38006301675022
7.799999999999988,527.5451706188903,980.402370612237,994.4138564286271,55.86143571373718,0.0,45.0,100.0,0.0,0.0,12.139347670010151,8.230877793876564,0.0,-0.0,12.139347670010151,8.230877793876564
7.899999999999988,539.785171331531,988.4828095647733,994.3431457505085,56.568542494923726,0.0,45.0,100.0,0.0,0.0,12.24000071264067,8.08043895253637,0.0,-0.0,12.24000071264067,8.08043895253637
7.999999999999988,552.1239608517463,996.411578970358,994.2724350723898,57.27564927611027,0.0,45.0,100.0,0.0,0.0,12.338789520215336,7.9287694055846645,0.0,-0.0,12.338789520215336,7.9287694055846645
8.099999999999987,564.5596598982756,1004.1874712236793,994.2017243942712,57.98275605729682,0.0,45.0,100.0,0.0,0.0,12.43569904652929,7.775892253321267,0.0,-0.0,12.43569904652929,7.775892253321267
8.199999999999987,577.0903744298806,1011.8093020036517,994.1310137161526,58.689862838483364,0.0,45.0,100.0,0.0,0.0,12.530714531604943,7.621830779972482,0.0,-0.0,12.530714531604943,7.621830779972482
8.299999999999986,589.7141959338206,1019.2759104537964,994.0603030380339,59.39696961966991,0.0,45.0,100.0,0.0,0.0,12.623821503940022,7.4666084501447285,0.0,-0.0,12.623821503940022,7.4666084501447285
8.399999999999986,602.4292017165324,1026.586159359047,993.9895923599153,60.10407640085646,0.0,45.0,100.0,0.0,0.0,12.71500578271168,7.310248905250747,0.0,-0.0,12.71500578271168,7.310248905250747
8.499999999999986,615.2334551964686,1033.738935318956,993.9188816817966,60.811183182043,0.0,45.0,100.0,0.0,0.0,12.804253479936326,7.15277595990883,0.0,-0.0,12.804253479936326,7.15277595990883
8.599999999999985,628.1250061990535,1040.7331489172718,993.848171003678,61.51828996322955,0.0,45.0,100.0,0.0,0.0,12.891551002584865,6.9942135983157065,0.0,-0.0,12.891551002584865,6.9942135983157065
8.699999999999985,641.1018912537065,1047.5677348878653,993.7774603255593,62.225396744416095,0.0,45.0,100.0,0.0,0.0,12.976885054653005,6.834585970593585,0.0,-0.0,12.976885054653005,6.834585970593585
8.799999999999985,654.1621338928928,1054.2416522769772,993.7067496474407,62.93250352560264,0.0,45.0,100.0,0.0,0.0,13.060242639186331,6.673917389111919,0.0,-0.0,13.060242639186331,6.673917389111919
8.899999999999984,667.3037449531527,1060.7538846017617,993.636038969322,63.63961030678919,0.0,45.0,100.0,0.0,0.0,13.141611060259823,6.512232324784483,0.0,-0.0,13.141611060259823,6.512232324784483
8.999999999999984,680.5247228780642,1067.103440005104,993.5653282912034,64.34671708797573,0.0,45.0,100.0,0.0,0.0,13.220977924911539,6.349555403342267,0.0,-0.0,13.220977924911539,6.349555403342267
9.099999999999984,693.8230540230943,1073.2893514066868,993.4946176130848,65.05382386916229,0.0,45.0,100.0,0.0,0.0,13.298331145030145,6.1859114015828265,0.0,-0.0,13.298331145030145,6.1859114015828265
9.199999999999983,707.1967129622903,1079.3106766502833,993.4239069349661,65.76093065034884,0.0,45.0,100.0,0.0,0.0,13.373658939196016,6.021325243596603,0.0,-0.0,13.373658939196016,6.021325243596603
9.299999999999983,720.643662796766,1085.1664986472542,993.3531962568475,66.4680374315354,0.0,45.0,100.0,0.0,0.0,13.44694983447562,5.855821996970819,0.0,-0.0,13.44694983447562,5.855821996970819
9.399999999999983,734.1618554649349,1090.8559255162256,993.2824855787288,67.17514421272195,0.0,45.0,100.0,0.0,0.0,13.518192668168934,5.689426868971505,0.0,-0.0,13.518192668168934,5.689426868971505
9.499999999999982,747.7492320544445,1096.3780907189298,993.2117749006102,67.8822509939085,0.0,45.0,100.0,0.0,0.0,13.58737658950959,5.522165202704273,0.0,-0.0,13.58737658950959,5.522165202704273
9.599999999999982,761.4037231157621,1101.7321531921841,993.1410642224915,68.58935777509505,0.0,45.0,100.0,0.0,0.0,13.654491061317529,5.354062473254385,0.0,-0.0,13.654491061317529,5.354062473254385
9.699999999999982,775.123248977366,1106.9172974759908,993.0703535443729,69.2964645562816,0.0,45.0,100.0,0.0,0.0,13.719525861603879,5.185144283806723,0.0,-0.0,13.719525861603879,5.185144283806723
9.799999999999981,788.9057200624937,1111.932733837737,992.9996428662542,70.00357133746816,0.0,45.0,100.0,0.0,0.0,13.78247108512783,5.015436361746257,0.0,-0.0,13.78247108512783,5.015436361746257
9.89999999999998,802.749037207399,1116.7776983924766,992.9289321881356,70.71067811865471,0.0,45.0,100.0,0.0,0.0,13.843317144905273,4.844964554739583,0.0,-0.0,13.843317144905273,4.844964554739583
9.99999999999998,816.651091981068,1121.4514532192748,992.858221510017,71.41778489984127,0.0,45.0,100.0,0.0,0.0,13.90205477366897,4.67375482679815,0.0,-0.0,13.90205477366897,4.67375482679815
10.09999999999998,830.6097670063481,1125.9532864735986,992.7875108318983,72.12489168102782,0.0,45.0,100.0,0.0,0.0,13.958675025280009,4.501833254323769,0.0,-0.0,13.958675025280009,4.501833254323769
10.19999999999998,844.6229362824384,1130.2825124957355,992.7168001537797,72.83199846221437,0.0,45.0,100.0,0.0,0.0,14.01316927609037,4.329226022136995,0.0,-0.0,14.01316927609037,4.329226022136995
10.29999999999998,858.6884655086948,1134.4384719152245,992.646089475661,73.53910524340093,0.0,45.0,100.0,0.0,0.0,14.06552922625636,4.155959419489005,0.0,-0.0,14.06552922625636,4.155959419489005
10.399999999999979,872.8042124096975,1138.420531751282,992.5753787975424,74.24621202458748,0.0,45.0,100.0,0.0,0.0,14.115746901002737,3.982059836057566,0.0,-0.0,14.115746901002737,3.982059836057566
10.499999999999979,886.9680270615348,1142.2280855092097,992.5046681194237,74.95331880577403,0.0,45.0,100.0,0.0,0.0,14.16381465183733,3.807553757927705,0.0,-0.0,14.16381465183733,3.807553757927705
10.599999999999978,901.1777522192508,1145.8605532727674,992.4339574413051,75.66042558696059,0.0,45.0,100.0,0.0,0.0,14.209725157715939,3.632467763557706,0.0,-0.0,14.209725157715939,3.632467763557706
10.699999999999978,915.4312236454082,1149.3173817924985,992.3632467631865,76.36753236814714,0.0,45.0,100.0,0.0,0.0,14.253471426157398,3.4568285197310225,0.0,-0.0,14.253471426157398,3.4568285197310225
10.799999999999978,929.7262704397167,1152.5980445699934,992.2925360850678,77.07463914933369,0.0,45.0,100.0,0.0,0.0,14.295046794308567,3.280662777494752,0.0,-0.0,14.295046794308567,3.280662777494752
10.899999999999977,944.0607153696758,1155.7020419380785,992.2218254069492,77.78174593052024,0.0,45.0,100.0,0.0,0.0,14.334444929959128,3.103997368085267,0.0,-0.0,14.334444929959128,3.103997368085267
10.999999999999977,958.4323752021818,1158.6289011369201,992.1511147288305,78.4888527117068,0.0,45.0,100.0,0.0,0.0,14.371659832506033,2.9268591988416346,0.0,-0.0,14.371659832506033,2.9268591988416346
11.099999999999977,972.8390610360492,1161.3781763860277,992.0804040507119,79.19595949289335,0.0,45.0,100.0,0.0,0.0,14.406685833867426,2.749275249107451,0.0,-0.0,14.406685833867426,2.749275249107451
11.199999999999976,987.2785786353951,1163.9494489521494,992.0096933725932,79.9030662740799,0.0,45.0,100.0,0.0,0.0,14.43951759934594,2.571272566121702,0.0,-0.0,14.43951759934594,2.571272566121702
11.299999999999976,1001.7487287638363,1166.3423272130487,991.9389826944746,80.61017305526646,0.0,45.0,100.0,0.0,0.0,14.4701501284412,2.3928782608992836,0.0,-0.0,14.4701501284412,2.3928782608992836
11.399999999999975,1016.2473075194478,1168.5564467171505,991.868272016356,81.31727983645301,0.0,45.0,100.0,0.0,0.0,14.498578755611433,2.214119504101813,0.0,-0.0,14.498578755611433,2.214119504101813
11.499999999999975,1030.7721066704319,1170.5914702390498,991.7975613382373,82.02438661763956,0.0,45.0,100.0,0.0,0.0,14.52479915098407,2.0350235218993533,0.0,-0.0,14.52479915098407,2.0350235218993533
11.599999999999975,1045.320913991447,1172.4470878308734,991.7268506601187,82.73149339882612,0.0,45.0,100.0,0.0,0.0,14.548807321015207,1.8556175918236806,0.0,-0.0,14.548807321015207,1.8556175918236806
11.699999999999974,1059.8915136005448,1174.1230168694872,991.656139982,83.43860018001267,0.0,45.0,100.0,0.0,0.0,14.570599609097851,1.6759290386137324,0.0,-0.0,14.570599609097851,1.6759290386137324
11.799999999999974,1074.4816862966636,1175.6190020995411,991.5854293038814,84.14570696119922,0.0,45.0,100.0,0.0,0.0,14.590172696118847,1.4959852300538659,0.0,-0.0,14.590172696118847,1.4959852300538659
11.899999999999974,1089.089209897628,1176.9348156723468,991.5147186257627,84.85281374238578,0.0,45.0,100.0,0.0,0.0,14.607523600964397,1.3158135728055578,0.0,-0.0,14.607523600964397,1.3158135728055578
11.999999999999973,1103.7118595786021,1178.07025718058,991.4440079476441,85.55992052357233,0.0,45.0,100.0,0.0,0.0,14.622649680974114,1.1354415082331828,0.0,-0.0,14.622649680974114,1.1354415082331828
12.099999999999973,1118.3474082109456,1179.0251536888045,991.3732972695254,86.26702730475888,0.0,45.0,100.0,0.0,0.0,14.635548632343504,0.9548965082245108,0.0,-0.0,14.635548632343504,0.9548965082245108
12.199999999999973,1132.9936267014205,1179.799359759811,991.3025865914068,86.97413408594544,0.0,45.0,100.0,0.0,0.0,14.646218490474864,0.7742060710065497,0.0,-0.0,14.646218490474864,0.7742060710065497
12.299999999999972,1147.648284331697,1180.3927574767683,991.2318759132881,87.68124086713199,0.0,45.0,100.0,0.0,0.0,14.65465763027649,0.5933977169573802,0.0,-0.0,14.65465763027649,0.5933977169573802
12.399999999999972,1162.3091490981071,1180.805256461183,991.1611652351695,88.38834764831854,0.0,45.0,100.0,0.0,0.0,14.660864766410203,0.4124989844146152,0.0,-0.0,14.660864766410203,0.4124989844146152
12.499999999999972,1176.9739880515942,1181.036793886664,991.0904545570509,89.0954544295051,0.0,45.0,100.0,0.0,0.0,14.664838953487104,0.23153742548112502,0.0,-0.0,14.664838953487104,0.23153742548112502
12.599999999999971,1191.6405676378058,1181.0873344884928,991.0197438789322,89.80256121069165,0.0,45.0,100.0,0.0,0.0,14.666579586211572,0.05054060182866473,0.0,-0.0,14.666579586211572,0.05054060182866473
12.69999999999997,1206.3066540372793,1180.9568705689928,990.9490332008136,90.5096679918782,0.0,45.0,100.0,0.0,0.0,14.666086399473443,-0.13046391949995456,0.0,-0.0,14.666086399473443,-0.13046391949995456
12.79999999999997,1220.9700135056676,1180.6454219987033,990.8783225226949,91.21677477306476,0.0,45.0,100.0,0.0,0.0,14.663359468388403,-0.31144857028951384,0.0,-0.0,14.663359468388403,-0.31144857028951384
12.89999999999997,1235.628412713954,1180.1530362133522,990.8076118445763,91.92388155425131,0.0,45.0,100.0,0.0,0.0,14.658399208286534,-0.4923857853512117,0.0,-0.0,14.658399208286534,-0.4923857853512117
12.99999999999997,1250.279619088603,1179.4797882066312,990.7369011664576,92.63098833543786,0.0,45.0,100.0,0.0,0.0,14.651206374649064,-0.6732480067210292,0.0,-0.0,14.651206374649064,-0.6732480067210292
13.09999999999997,1264.9214011515965,1178.6257805187743,990.666190488339,93.33809511662442,0.0,45.0,100.0,0.0,0.0,14.6417820629933,-0.854007687856996,0.0,-0.0,14.6417820629933,-0.854007687856996
13.199999999999969,1279.5515288603021,1177.5911432209396,990.5954798102204,94.04520189781097,0.0,45.0,100.0,0.0,0.0,14.630127708705775,-1.034637297834713,0.0,-0.0,14.630127708705775,-1.034637297834713
13.299999999999969,1294.1677739471259,1176.3760338953991,990.5247691321017,94.75230867899752,0.0,45.0,100.0,0.0,0.0,14.616245086823623,-1.2151093255405,0.0,-0.0,14.616245086823623,-1.2151093255405
13.399999999999968,1308.7679102588902,1174.9806376115375,990.4540584539831,95.45941546018408,0.0,45.0,100.0,0.0,0.0,14.600136311764238,-1.3953962838615264,0.0,-0.0,14.600136311764238,-1.3953962838615264
13.499999999999968,1323.3497140958934,1173.4051668976651,990.3833477758644,96.16652224137063,0.0,45.0,100.0,0.0,0.0,14.581803837003225,-1.5754707138722808,0.0,-0.0,14.581803837003225,-1.5754707138722808
13.599999999999968,1337.9109645505941,1171.6498617086484,990.3126370977458,96.87362902255718,0.0,45.0,100.0,0.0,0.0,14.561250454700724,-1.7553051890167553,0.0,-0.0,14.561250454700724,-1.7553051890167553
13.699999999999967,1352.4494438458703,1169.7149893893627,990.2419264196271,97.58073580374374,0.0,45.0,100.0,0.0,0.0,14.538479295276147,-1.9348723192856927,0.0,-0.0,14.538479295276147,-1.9348723192856927
13.799999999999967,1366.9629376728017,1167.6008446339745,990.1712157415085,98.28784258493029,0.0,45.0,100.0,0.0,0.0,14.513493826931386,-2.1141447553882746,0.0,-0.0,14.513493826931386,-2.1141447553882746
13.899999999999967,1381.4492355279242,1165.3077494410568,990.1005050633898,98.99494936611684,0.0,45.0,100.0,0.0,0.0,14.486297855122592,-2.2930951929175984,0.0,-0.0,14.486297855122592,-2.2930951929175984
13.999999999999966,1395.9061310499048,1162.8360530645475,990.0297943852712,99.7020561473034,0.0,45.0,100.0,0.0,0.0,14.45689552198057,-2.4716963765093287,0.0,-0.0,14.45689552198057,-2.4716963765093287
14.099999999999966,1410.3314223555847,1160.1861319605546,989.9590837071526,100.40916292848995,0.0,45.0,100.0,0.0,0.0,14.42529130567991,-2.6499211039928694,0.0,-0.0,14.42529130567991,-2.6499211039928694
14.199999999999966,1424.7229123753416,1157.3583897300202,989.8883730290339,101.1162697096765,0.0,45.0,100.0,0.0,0.0,14.39149001975693,-2.827742230534443,0.0,-0.0,14.39149001975693,-2.827742230534443
14.299999999999965,1439.078409187718,1154.3532570572488,989.8176623509153,101.82337649086305,0.0,45.0,100.0,0.0,0.0,14.355496812376535,-3.005132672771428,0.0,-0.0,14.355496812376535,-3.005132672771428
14.399999999999965,1453.3957263532661,1151.1711916443114,989.7469516727966,102.53048327204961,0.0,45.0,100.0,0.0,0.0,14.317317165548129,-3.182065412937343,0.0,-0.0,14.317317165548129,-3.182065412937343
14.499999999999964,1467.6726832475567,1147.8126781413346,989.676240994678,103.23759005323616,0.0,45.0,100.0,0.0,0.0,14.276956894290654,-3.3585135029768347,0.0,-0.0,14.276956894290654,-3.3585135029768347
14.599999999999964,1481.9071053933037,1144.2782280726844,989.6055303165593,103.94469683442271,0.0,45.0,100.0,0.0,0.0,14.234422145746938,-3.534450068650046,0.0,-0.0,14.234422145746938,-3.534450068650046
14.699999999999964,1496.0968247915512,1140.5683797590586,989.5348196384407,104.65180361560927,0.0,45.0,100.0,0.0,0.0,14.18971939824743,-3.7098483136257476,0.0,-0.0,14.18971939824743,-3.7098483136257476
14.799999999999963,1510.2396802518747,1136.683698235496,989.464108960322,105.35891039679582,0.0,45.0,100.0,0.0,0.0,14.142855460323512,-3.8846815235626035,0.0,-0.0,14.142855460323512,-3.8846815235626035
14.899999999999963,1524.3335177215451,1132.624775165318,989.3933982822034,106.06601717798237,0.0,45.0,100.0,0.0,0.0,14.093837469670513,-4.058923070177937,0.0,-0.0,14.093837469670513,-4.058923070177937
14.999999999999963,1538.3761906136058,1128.3922287500145,989.3226876040848,106.77312395916893,0.0,45.0,100.0,0.0,0.0,14.042672892060594,-4.232546415303413,0.0,-0.0,14.042672892060594,-4.232546415303413
15.099999999999962,1552.3655601338114,1123.9867036350875,989.2519769259661,107.48023074035548,0.0,45.0,100.0,0.0,0.0,13.989369520205653,-4.405525114926965,0.0,-0.0,13.989369520205653,-4.405525114926965
15.199999999999962,1566.299495606382,1119.408870811867,989.1812662478475,108.18733752154203,0.0,45.0,100.0,0.0,0.0,13.933935472570449,-4.577832823220411,0.0,-0.0,13.933935472570449,-4.577832823220411
15.299999999999962,1580.175874798518,1114.659427515315,989.1105555697288,108.89444430272859,0.0,45.0,100.0,0.0,0.0,13.876379192136095,-4.749443296552092,0.0,-0.0,13.876379192136095,-4.749443296552092
15.399999999999961,1593.992584243632,1109.739097117831,989.0398448916102,109.60155108391514,0.0,45.0,100.0,0.0,0.0,13.81670944511415,-4.9203303974839585,0.0,-0.0,13.81670944511415,-4.9203303974839585
15.499999999999961,1607.7475195632435,1104.6486290190785,988.9691342134915,110.3086578651017,0.0,45.0,100.0,0.0,0.0,13.754935319611448,-5.090468098752482,0.0,-0.0,13.754935319611448,-5.090468098752482
15.59999999999996,1621.4385857874895,1099.3887985318456,988.8984235353729,111.01576464628825,0.0,45.0,100.0,0.0,0.0,13.691066224245931,-5.259830487232782,0.0,-0.0,13.691066224245931,-5.259830487232782
15.69999999999996,1635.0636976742032,1093.9604067639602,988.8277128572543,111.7228714274748,0.0,45.0,100.0,0.0,0.0,13.625111886713649,-5.428391767885366,0.0,-0.0,13.625111886713649,-5.428391767885366
15.79999999999996,1648.6207800265104,1088.3642804962753,988.7570021791356,112.42997820866135,0.0,45.0,100.0,0.0,0.0,13.557082352307162,-5.596126267684895,0.0,-0.0,13.557082352307162,-5.596126267684895
15.89999999999996,1662.1077680088958,1082.601272056745,988.686291501017,113.1370849898479,0.0,45.0,100.0,0.0,0.0,13.486987982385582,-5.7630084395303545,0.0,-0.0,13.486987982385582,-5.7630084395303545
15.99999999999996,1675.5226074616924,1076.672259190609,988.6155808228983,113.84419177103446,0.0,45.0,100.0,0.0,0.0,13.414839452796455,-5.929012866136057,0.0,-0.0,13.414839452796455,-5.929012866136057
16.09999999999996,1688.8632552139422,1070.5781449267063,988.5448701447797,114.55129855222101,0.0,45.0,100.0,0.0,0.0,13.34064775224977,-6.094114263902862,0.0,-0.0,13.34064775224977,-6.094114263902862
16.19999999999996,1702.1276793945865,1064.3198574399373,988.474159466661,115.25840533340757,0.0,45.0,100.0,0.0,0.0,13.264424180644301,-6.258287486769039,0.0,-0.0,13.264424180644301,-6.258287486769039
16.29999999999996,1715.3138597419331,1057.8983499098972,988.4034487885424,115.96551211459412,0.0,45.0,100.0,0.0,0.0,13.186180347346552,-6.421507530040185,0.0,-0.0,13.186180347346552,-6.421507530040185
16.399999999999963,1728.4197879113558,1051.3146003756997,988.3327381104237,116.67261889578067,0.0,45.0,100.0,0.0,0.0,13.105928169422565,-6.5837495341976116,0.0,-0.0,13.105928169422565,-6.5837495341976116
16.499999999999964,1741.4434677811787,1044.569611587015,988.2620274323051,117.37972567696723,0.0,45.0,100.0,0.0,0.0,13.023679869822896,-6.744988788684612,0.0,-0.0,13.023679869822896,-6.744988788684612
16.599999999999966,1754.3829157566997,1037.664410851345,988.1913167541865,118.08683245815378,0.0,45.0,100.0,0.0,0.0,12.93944797552094,-6.905200735670053,0.0,-0.0,12.93944797552094,-6.905200735670053
16.699999999999967,1767.2361610723046,1030.6000498775563,988.1206060760678,118.79393923934033,0.0,45.0,100.0,0.0,0.0,12.853245315605022,-7.064360973788693,0.0,-0.0,12.853245315605022,-7.064360973788693
16.79999999999997,1780.0012460916291,1023.3776046156986,988.0498953979492,119.50104602052689,0.0,45.0,100.0,0.0,0.0,12.765085019324422,-7.222445261857677,0.0,-0.0,12.765085019324422,-7.222445261857677
16.89999999999997,1792.6762266057187,1015.9981750931299,987.9791847198305,120.20815280171344,0.0,45.0,100.0,0.0,0.0,12.6749805140897,-7.37942952256864,0.0,-0.0,12.6749805140897,-7.37942952256864
16.99999999999997,1805.2591721291465,1008.4628852469751,987.9084740417119,120.91525958289999,0.0,45.0,100.0,0.0,0.0,12.582945523427618,-7.53528984615483,0.0,-0.0,12.582945523427618,-7.53528984615483
17.099999999999973,1817.7481661940374,1000.7728827529425,987.8377633635932,121.62236636408655,0.0,45.0,100.0,0.0,0.0,12.488994064890951,-7.69000249403274,0.0,-0.0,12.488994064890951,-7.69000249403274
17.199999999999974,1830.141306641961,992.9293388505248,987.7670526854746,122.3294731452731,0.0,45.0,100.0,0.0,0.0,12.393140447923523,-7.843543902417653,0.0,-0.0,12.393140447923523,-7.843543902417653
17.299999999999976,1842.4367059136416,984.9334481646123,987.696342007356,123.03657992645965,0.0,45.0,100.0,0.0,0.0,12.295399271680768,-7.995890685912562,0.0,-0.0,12.295399271680768,-7.995890685912562
17.399999999999977,1854.6324913364479,976.7864285235423,987.6256313292373,123.7436867076462,0.0,45.0,100.0,0.0,0.0,12.195785422806198,-8.14701964106992,0.0,-0.0,12.195785422806198,-8.14701964106992
17.49999999999998,1866.7268054096119,968.4895207736166,987.5549206511187,124.45079348883276,0.0,45.0,100.0,0.0,0.0,12.094314073164051,-8.296907749925701,0.0,-0.0,12.094314073164051,-8.296907749925701
17.59999999999998,1878.7178060871404,960.0439885901114,987.484209973,125.15790027001931,0.0,45.0,100.0,0.0,0.0,11.991000677528524,-8.445532183505174,0.0,-0.0,11.991000677528524,-8.445532183505174
17.69999999999998,1890.6036670583703,951.4511182848115,987.4134992948814,125.86500705120586,0.0,45.0,100.0,0.0,0.0,11.885860971229903,-8.59287030529991,0.0,-0.0,11.885860971229903,-8.59287030529991
17.799999999999983,1902.3825780261284,942.712218610096,987.3427886167627,126.57211383239242,0.0,45.0,100.0,0.0,0.0,11.778910967757959,-8.73889967471549,0.0,-0.0,11.778910967757959,-8.73889967471549
17.899999999999984,1914.0527449824515,933.8286205596066,987.2720779386441,127.27922061357897,0.0,45.0,100.0,0.0,0.0,11.67016695632299,-8.88359805048935,0.0,-0.0,11.67016695632299,-8.88359805048935
17.999999999999986,1925.6123904818264,924.8016771655283,987.2013672605254,127.98632739476552,0.0,45.0,100.0,0.0,0.0,11.559645499374874,-9.026943394078275,0.0,-0.0,11.559645499374874,-9.026943394078275
18.099999999999987,1937.059753911907,915.6327632925132,987.1306565824068,128.69343417595206,0.0,45.0,100.0,0.0,0.0,11.447363430080479,-9.16891387301502,0.0,-0.0,11.447363430080479,-9.16891387301502
18.19999999999999,1948.3930917616667,906.3232754282797,987.0599459042882,129.40054095713862,0.0,45.0,100.0,0.0,0.0,11.333337849759861,-9.30948786423355,0.0,-0.0,11.333337849759861,-9.30948786423355
18.29999999999999,1959.6106778869482,896.8746314709173,986.9892352261695,130.10764773832517,0.0,45.0,100.0,0.0,0.0,11.217586125281626,-9.448643957362368,0.0,-0.0,11.217586125281626,-9.448643957362368
18.39999999999999,1970.710803773366,887.2882705129318,986.9185245480509,130.81475451951172,0.0,45.0,100.0,0.0,0.0,11.100125886417832,-9.586360957985464,0.0,-0.0,11.100125886417832,-9.586360957985464
18.499999999999993,1981.6917787965249,877.5656526220614,986.8478138699322,131.52186130069828,0.0,45.0,100.0,0.0,0.0,10.980975023158855,-9.722617890870369,0.0,-0.0,10.980975023158855,-9.722617890870369
18.599999999999994,1992.5519304795134,867.7082586188985,986.7771031918136,132.22896808188483,0.0,45.0,100.0,0.0,0.0,10.860151682988626,-9.857394003162831,0.0,-0.0,10.860151682988626,-9.857394003162831
18.699999999999996,2003.289604747634,857.7175898513509,986.7063925136949,132.93607486307138,0.0,45.0,100.0,0.0,0.0,10.737674268120637,-9.990668767547602,0.0,-0.0,10.737674268120637,-9.990668767547602
18.799999999999997,2013.9031661803292,847.595167965976,986.6356818355763,133.64318164425794,0.0,45.0,100.0,0.0,0.0,10.613561432695176,-10.122421885374898,0.0,-0.0,10.613561432695176,-10.122421885374898
18.9,2024.3909982602675,837.342534676224,986.5649711574576,134.3502884254445,0.0,45.0,100.0,0.0,0.0,10.487832079938155,-10.25263328975202,0.0,-0.0,10.487832079938155,-10.25263328975202
19.0,2034.7515036195496,826.9612515276243,986.494260479339,135.05739520663104,0.0,45.0,100.0,0.0,0.0,10.360505359282035,-10.381283148599667,0.0,-0.0,10.360505359282035,-10.381283148599667
19.1,2044.9831042829987,816.4528996599518,986.4235498012204,135.7645019878176,0.0,45.0,100.0,0.0,0.0,10.231600663449235,-10.508351867672513,0.0,-0.0,10.231600663449235,-10.508351867672513
19.200000000000003,2055.084241908497,805.8190795664083,986.3528391231017,136.47160876900415,0.0,45.0,100.0,0.0,0.0,10.101137625498477,-10.63382009354353,0.0,-0.0,10.101137625498477,-10.63382009354353
19.300000000000004,2065.053378024332,795.0614108498567,986.2821284449831,137.1787155501907,0.0,45.0,100.0,0.0,0.0,9.969136115834562,-10.757668716551656,0.0,-0.0,9.969136115834562,-10.757668716551656
19.400000000000006,2074.8889942635137,784.1815319761444,986.2114177668644,137.88582233137726,0.0,45.0,100.0,0.0,0.0,9.83561623918195,-10.879878873712313,0.0,-0.0,9.83561623918195,-10.879878873712313
19.500000000000007,2084.5895925950363,773.181100024554,986.1407070887458,138.5929291125638,0.0,45.0,100.0,0.0,0.0,9.700598331522684,-11.00043195159038,0.0,-0.0,9.700598331522684,-11.00043195159038
19.60000000000001,2094.1536955520355,762.0617904354189,986.0699964106271,139.30003589375036,0.0,45.0,100.0,0.0,0.0,9.564102956999081,-11.119309589135137,0.0,-0.0,9.564102956999081,-11.119309589135137
19.70000000000001,2103.579846456817,750.8252967549421,985.9992857325085,140.00714267493692,0.0,45.0,100.0,0.0,0.0,9.426150904781679,-11.236493680476785,0.0,-0.0,9.426150904781679,-11.236493680476785
19.80000000000001,2112.86660964272,739.473330377258,985.9285750543899,140.71424945612347,0.0,45.0,100.0,0.0,0.0,9.28676318590289,-11.351966377684088,0.0,-0.0,9.28676318590289,-11.351966377684088
19.900000000000013,2122.0125706727767,728.0076202837753,985.8578643762712,141.42135623731002,0.0,45.0,100.0,0.0,0.0,9.145961030056899,-11.46571009348273,0.0,-0.0,9.145961030056899,-11.46571009348273
20.000000000000014,2131.016336555143,716.4299127798413,985.7871536981526,142.12846301849657,0.0,45.0,100.0,0.0,0.0,9.003765882366217,-11.577707503933986,0.0,-0.0,9.003765882366217,-11.577707503933986
20.100000000000016,2139.8765359552585,704.7419712287681,985.7164430200339,142.83556979968313,0.0,45.0,100.0,0.0,0.0,8.86019940011546,-11.687941551073262,0.0,-0.0,8.86019940011546,-11.687941551073262
20.200000000000017,2148.5918194047113,692.9455757832599,985.6457323419153,143.54267658086968,0.0,45.0,100.0,0.0,0.0,8.715283449452786,-11.796395445508155,0.0,-0.0,8.715283449452786,-11.796395445508155
20.30000000000002,2157.160859506771,681.0425231142843,985.5750216637966,144.24978336205623,0.0,45.0,100.0,0.0,0.0,8.569040102059542,-11.903052668975578,0.0,-0.0,8.569040102059542,-11.903052668975578
20.40000000000002,2165.5823511385597,669.0346261374267,985.504310985678,144.9568901432428,0.0,45.0,100.0,0.0,0.0,8.421491631788584,-12.007896976857607,0.0,-0.0,8.421491631788584,-12.007896976857607
20.50000000000002,2173.8550116498313,656.923713736771,985.4336003075593,145.66399692442934,0.0,45.0,100.0,0.0,0.0,8.272660511271836,-12.110912400655652,0.0,-0.0,8.272660511271836,-12.110912400655652
20.600000000000023,2181.9775810583287,644.7116304863484,985.3628896294407,146.3711037056159,0.0,45.0,100.0,0.0,0.0,8.122569408497542,-12.212083250422555,0.0,-0.0,8.122569408497542,-12.212083250422555
20.700000000000024,2189.9488222416867,632.4002363691961,985.2921789513221,147.07821048680245,0.0,45.0,100.0,0.0,0.0,7.971241183357783,-12.31139411715229,0.0,-0.0,7.971241183357783,-12.31139411715229
20.800000000000026,2197.7675211258534,619.9914064940693,985.2214682732034,147.785317267989,0.0,45.0,100.0,0.0,0.0,7.818698884166755,-12.408829875126854,0.0,-0.0,7.818698884166755,-12.408829875126854
20.900000000000027,2205.4324868700037,607.4870308098493,985.1507575950848,148.49242404917555,0.0,45.0,100.0,0.0,0.0,7.664965744150376,-12.504375684220003,0.0,-0.0,7.664965744150376,-12.504375684220003
21.00000000000003,2212.9425520479112,594.8890138176918,985.0800469169661,149.1995308303621,0.0,45.0,100.0,0.0,0.0,7.51006517790767,-12.59801699215753,0.0,-0.0,7.51006517790767,-12.59801699215753
21.10000000000003,2220.296572825756,582.1992742809581,985.0093362388475,149.90663761154866,0.0,45.0,100.0,0.0,0.0,7.354020777844602,-12.689739536733647,0.0,-0.0,7.354020777844602,-12.689739536733647
21.20000000000003,2227.4934291363365,569.4197449329748,984.9386255607288,150.6137443927352,0.0,45.0,100.0,0.0,0.0,7.19685631058077,-12.77952934798324,0.0,-0.0,7.19685631058077,-12.77952934798324
21.300000000000033,2234.532024849666,556.5523721826653,984.8679148826102,151.32085117392177,0.0,45.0,100.0,0.0,0.0,7.038595713329604,-12.867372750309572,0.0,-0.0,7.038595713329604,-12.867372750309572
21.400000000000034,2241.4112879399186,543.5991158180981,984.7972042044915,152.02795795510832,0.0,45.0,100.0,0.0,0.0,6.879263090252556,-12.953256364567176,0.0,-0.0,6.879263090252556,-12.953256364567176
21.500000000000036,2248.1301706487066,530.5619487079985,984.7264935263729,152.73506473629487,0.0,45.0,100.0,0.0,0.0,6.718882708787879,-13.037167110099588,0.0,-0.0,6.718882708787879,-13.037167110099588
21.600000000000037,2254.687649644661,517.4428565012669,984.6557828482543,153.44217151748143,0.0,45.0,100.0,0.0,0.0,6.557478995954521,-13.119092206731626,0.0,-0.0,6.557478995954521,-13.119092206731626
21.70000000000004,2261.082726179293,504.243837324551,984.5850721701356,154.14927829866798,0.0,45.0,100.0,0.0,0.0,6.395076534631745,-13.199019176715883,0.0,-0.0,6.395076534631745,-13.199019176715883
21.80000000000004,2267.314426239108,490.9669014779178,984.514361492017,154.85638507985453,0.0,45.0,100.0,0.0,0.0,6.231700059814964,-13.27693584663319,0.0,-0.0,6.231700059814964,-13.27693584663319
21.90000000000004,2273.3818006939564,477.6140711286711,984.4436508138983,155.5634918610411,0.0,45.0,100.0,0.0,0.0,6.067374454848449,-13.352830349246698,0.0,-0.0,6.067374454848449,-13.352830349246698
22.000000000000043,2279.2839254415917,464.1873800033618,984.3729401357797,156.27059864222764,0.0,45.0,100.0,0.0,0.0,5.9021247476354395,-13.426691125309336,0.0,-0.0,5.9021247476354395,-13.426691125309336
22.100000000000044,2285.0199015484177,450.68887307803743,984.302229457661,156.9777054234142,0.0,45.0,100.0,0.0,0.0,5.7359761068261905,-13.49850692532438,0.0,-0.0,5.7359761068261905,-13.49850692532438
22.200000000000045,2290.5888553864024,437.1206062667786,984.2315187795424,157.68481220460075,0.0,45.0,100.0,0.0,0.0,5.568953837984649,-13.568266811258807,0.0,-0.0,5.568953837984649,-13.568266811258807
22.300000000000047,2295.9899387661367,423.4846461085694,984.1608081014238,158.3919189857873,0.0,45.0,100.0,0.0,0.0,5.40108337973422,-13.635960158209247,0.0,-0.0,5.40108337973422,-13.635960158209247
22.40000000000005,2301.22232906602,409.78306945254917,984.0900974233051,159.09902576697385,0.0,45.0,100.0,0.0,0.0,5.232390299883316,-13.701576656020217,0.0,-0.0,5.232390299883316,-13.701576656020217
22.50000000000005,2306.285229357551,396.01796314169474,984.0193867451865,159.8061325481604,0.0,45.0,100.0,0.0,0.0,5.062900291531182,-13.765106310854438,0.0,-0.0,5.062900291531182,-13.765106310854438
22.60000000000005,2311.177868526706,382.1914236949798,983.9486760670678,160.51323932934696,0.0,45.0,100.0,0.0,0.0,4.892639169154682,-13.826539446714952,0.0,-0.0,4.892639169154682,-13.826539446714952
22.700000000000053,2315.8995013913823,368.3055569880609,983.8779653889492,161.2203461105335,0.0,45.0,100.0,0.0,0.0,4.72163286467657,-13.885866706918849,0.0,-0.0,4.72163286467657,-13.885866706918849
22.800000000000054,2320.449408814898,354.3624779325386,983.8072547108305,161.92745289172007,0.0,45.0,100.0,0.0,0.0,4.549907423515887,-13.943079055522357,0.0,-0.0,4.549907423515887,-13.943079055522357
22.900000000000055,2324.8268978155193,340.36431015384153,983.7365440327119,162.63455967290662,0.0,45.0,100.0,0.0,0.0,4.377489000621055,-13.99816777869707,0.0,-0.0,4.377489000621055,-13.99816777869707
23.000000000000057,2329.0313016720056,326.3131856677844,983.6658333545932,163.34166645409317,0.0,45.0,100.0,0.0,0.0,4.204403856486319,-14.051124486057127,0.0,-0.0,4.204403856486319,-14.051124486057127
23.10000000000006,2333.0619800251575,312.2112445558473,983.5951226764746,164.04877323527973,0.0,45.0,100.0,0.0,0.0,4.030678353152083,-14.101941111937123,0.0,-0.0,4.030678353152083,-14.101941111937123
23.20000000000006,2336.918318975347,298.06063463922675,983.524411998356,164.75588001646628,0.0,45.0,100.0,0.0,0.0,3.856338950189795,-14.150609916620564,0.0,-0.0,3.856338950189795,-14.150609916620564
23.30000000000006,2340.5997311760193,283.86351115170805,983.4537013202373,165.46298679765283,0.0,45.0,100.0,0.0,0.0,3.6814122006719825,-14.197123487518683,0.0,-0.0,3.6814122006719825,-14.197123487518683
23.400000000000063,2344.1056559231474,269.62203641140866,983.3829906421187,166.17009357883938,0.0,45.0,100.0,0.0,0.0,3.505924747128034,-14.24147474029942,0.0,-0.0,3.505924747128034,-14.24147474029942
23.500000000000064,2347.4355592406337,255.33837949144223,983.312279964,166.87720036002594,0.0,45.0,100.0,0.0,0.0,3.329903317486349,-14.28365691996642,0.0,-0.0,3.329903317486349,-14.28365691996642
23.600000000000065,2350.5889339616374,241.01471588955437,983.2415692858814,167.5843071412125,0.0,45.0,100.0,0.0,0.0,3.1533747210035212,-14.323663601887862,0.0,-0.0,3.1533747210035212,-14.323663601887862
23.700000000000067,2353.5652998058185,226.6532271967794,983.1708586077627,168.29141392239904,0.0,45.0,100.0,0.0,0.0,2.9763658441810765,-14.361488692774975,0.0,-0.0,2.9763658441810765,-14.361488692774975
23.800000000000068,2356.364203452489,212.25610076516932,983.1001479296441,168.9985207035856,0.0,45.0,100.0,0.0,0.0,2.798903646670502,-14.397126431610086,0.0,-0.0,2.798903646670502,-14.397126431610086
23.90000000000007,2358.9852186096564,197.82552937464527,983.0294372515255,169.70562748477215,0.0,45.0,100.0,0.0,0.0,2.621015157167094,-14.430571390524062,0.0,-0.0,2.621015157167094,-14.430571390524062
24.00000000000007,2361.42794607895,183.36371089902227,982.9587265734068,170.4127342659587,0.0,45.0,100.0,0.0,0.0,2.442727469293311,-14.461818475623012,0.0,-0.0,2.442727469293311,-14.461818475623012
24.100000000000072,2363.692013816422,168.87284797125815,982.8880158952882,171.11984104714526,0.0,45.0,100.0,0.0,0.0,2.2640677374722196,-14.490862927764123,0.0,-0.0,2.2640677374722196,-14.490862927764123
24.200000000000074,2365.7770769892136,154.35514764797765,982.8173052171695,171.8269478283318,0.0,45.0,100.0,0.0,0.0,2.085063172791713,-14.517700323280508,0.0,-0.0,2.085063172791713,-14.517700323280508
24.300000000000075,2367.6828180280736,139.81282107332268,982.7465945390509,172.53405460951836,0.0,45.0,100.0,0.0,0.0,1.9057410388600533,-14.54232657465496,0.0,-0.0,1.9057410388600533,-14.54232657465496
24.400000000000077,2369.408946675727,125.24808314218018,982.6758838609322,173.24116139070492,0.0,45.0,100.0,0.0,0.0,1.7261286476534614,-14.564737931142504,0.0,-0.0,1.7261286476534614,-14.564737931142504
24.500000000000078,2370.955200031083,110.6631521628385,982.6051731828136,173.94826817189147,0.0,45.0,100.0,0.0,0.0,1.5462533553563047,-14.584930979341676,0.0,-0.0,1.5462533553563047,-14.584930979341676
24.60000000000008,2372.3213425892777,96.06024951912411,982.534462504695,174.65537495307802,0.0,45.0,100.0,0.0,0.0,1.3661425581945716,-14.602902643714392,0.0,-0.0,1.3661425581945716,-14.602902643714392
24.70000000000008,2373.507166277541,81.44159933206973,982.4637518265763,175.36248173426458,0.0,45.0,100.0,0.0,0.0,1.1858236882632274,-14.618650187054378,0.0,-0.0,1.1858236882632274,-14.618650187054378
24.800000000000082,2374.512490486889,66.80942812116567,982.3930411484577,176.06958851545113,0.0,45.0,100.0,0.0,0.0,1.005324209348144,-14.632171210904065,0.0,-0.0,1.005324209348144,-14.632171210904065
24.900000000000084,2375.337162099632,52.16596446524577,982.322330470339,176.77669529663768,0.0,45.0,100.0,0.0,0.0,0.8246716127431514,-14.643463655919893,0.0,-0.0,0.8246716127431514,-14.643463655919893
25.000000000000085,2375.981055512695,37.51343866305981,982.2516197922204,177.48380207782424,0.0,45.0,100.0,0.0,0.0,0.6438934130629519,-14.652525802185961,0.0,-0.0,0.6438934130629519,-14.652525802185961
25.100000000000087,2376.4440726567477,22.85408239358383,982.1809091141017,178.1909088590108,0.0,45.0,100.0,0.0,0.0,0.46301714405244376,-14.65935626947598,0.0,-0.0,0.46301714405244376,-14.65935626947598
25.200000000000088,2376.7261430111407,8.190128376120336,982.1101984359831,178.89801564019734,0.0,45.0,100.0,0.0,0.0,0.2820703543931525,-14.663954017463494,0.0,-0.0,0.2820703543931525,-14.663954017463494
25.30000000000009,2376.827223614648,-6.476189969759988,982.0394877578644,179.6051224213839,0.0,45.0,100.0,0.0,0.0,0.10108060350736599,-14.666318345880324,0.0,-0.0,0.10108060350736599,-14.666318345880324
25.40000000000009,2376.747299072009,-21.142638864383223,981.9687770797458,180.31222920257045,0.0,45.0,100.0,0.0,0.0,-0.0799245426393285,-14.666448894623235,0.0,-0.0,-0.0799245426393285,-14.666448894623235
25.500000000000092,2376.486381556272,-35.80698450819199,981.8980664016271,181.019335983757,0.0,45.0,100.0,0.0,0.0,-0.26091751573655103,-14.664345643808764,0.0,-0.0,-0.26091751573655103,-14.664345643808764
25.600000000000094,2376.0445108069443,-50.466993421968255,981.8273557235085,181.72644276494356,0.0,45.0,100.0,0.0,0.0,-0.441870749327963,-14.660008913776265,0.0,-0.0,-0.441870749327963,-14.660008913776265
25.700000000000095,2375.4217541239345,-65.12043278700736,981.7566450453899,182.4335495461301,0.0,45.0,100.0,0.0,0.0,-0.6227566830098052,-14.65343936503911,0.0,-0.0,-0.6227566830098052,-14.65343936503911
25.800000000000097,2374.618206357306,-79.76507078519145,981.6859343672712,183.14065632731666,0.0,45.0,100.0,0.0,0.0,-0.8035477666285611,-14.644637998184095,0.0,-0.0,-0.8035477666285611,-14.644637998184095
25.900000000000098,2373.633989892829,-94.39867693891048,981.6152236891526,183.84776310850322,0.0,45.0,100.0,0.0,0.0,-0.984216464477024,-14.633606153719033,0.0,-0.0,-0.984216464477024,-14.633606153719033
26.0000000000001,2372.469254633341,-109.01902245077908,981.5445130110339,184.55486988968977,0.0,45.0,100.0,0.0,0.0,-1.1647352594881732,-14.620345511868598,0.0,-0.0,-1.1647352594881732,-14.620345511868598
26.1000000000001,2371.124177975915,-123.62388054309748,981.4738023329153,185.26197667087632,0.0,45.0,100.0,0.0,0.0,-1.3450766574261863,-14.604858092318404,0.0,-0.0,-1.3450766574261863,-14.604858092318404
26.200000000000102,2369.598964784841,-138.2110267970049,981.4030916547966,185.96908345206288,0.0,45.0,100.0,0.0,0.0,-1.5252131910740372,-14.58714625390741,0.0,-0.0,-1.5252131910740372,-14.58714625390741
26.300000000000104,2367.893847360424,-152.77823949127352,981.332380976678,186.67619023324943,0.0,45.0,100.0,0.0,0.0,-1.7051174244169156,-14.567212694268628,0.0,-0.0,-1.7051174244169156,-14.567212694268628
26.400000000000105,2366.009085403603,-167.3232999406918,981.2616702985594,187.38329701443598,0.0,45.0,100.0,0.0,0.0,-1.8847619568209124,-14.545060449418276,0.0,-0.0,-1.8847619568209124,-14.545060449418276
26.500000000000107,2363.944965976397,-181.84399283398517,981.1909596204407,188.09040379562254,0.0,45.0,100.0,0.0,0.0,-2.064119427206348,-14.520692893293369,0.0,-0.0,-2.064119427206348,-14.520692893293369
26.600000000000108,2361.701803458182,-196.338106571223,981.1202489423221,188.7975105768091,0.0,45.0,100.0,0.0,0.0,-2.24316251821501,-14.494113737237834,0.0,-0.0,-2.24316251821501,-14.494113737237834
26.70000000000011,2359.279939497811,-210.80343360066024,981.0495382642034,189.50461735799564,0.0,45.0,100.0,0.0,0.0,-2.421863960370816,-14.46532702943726,0.0,-0.0,-2.421863960370816,-14.46532702943726
26.80000000000011,2356.679742961578,-225.23777075496255,980.9788275860848,190.2117241391822,0.0,45.0,100.0,0.0,0.0,-2.6001965362331148,-14.434337154302323,0.0,-0.0,-2.6001965362331148,-14.434337154302323
26.900000000000112,2353.901609877036,-239.63891958676356,980.9081169079661,190.91883092036875,0.0,45.0,100.0,0.0,0.0,-2.778133084542087,-14.40114883180102,0.0,-0.0,-2.778133084542087,-14.40114883180102
27.000000000000114,2350.9459633726806,-254.00468670350332,980.8374062298475,191.6259377015553,0.0,45.0,100.0,0.0,0.0,-2.955646504355594,-14.365767116739772,0.0,-0.0,-2.955646504355594,-14.365767116739772
27.100000000000115,2347.8132536135035,-268.33288410149686,980.7666955517288,192.33304448274185,0.0,45.0,100.0,0.0,0.0,-3.132709759176833,-14.32819739799356,0.0,-0.0,-3.132709759176833,-14.32819739799356
27.200000000000117,2344.5039577324314,-282.621329499182,980.6959848736102,193.0401512639284,0.0,45.0,100.0,0.0,0.0,-3.309295881072186,-14.288445397685146,0.0,-0.0,-3.309295881072186,-14.288445397685146
27.300000000000118,2341.018579757653,-296.8678466694956,980.6252741954916,193.74725804511496,0.0,45.0,100.0,0.0,0.0,-3.485377974778616,-14.246517170313568,0.0,-0.0,-3.485377974778616,-14.246517170313568
27.40000000000012,2337.357650535853,-311.07026577132757,980.5545635173729,194.45436482630151,0.0,45.0,100.0,0.0,0.0,-3.660929221799976,-14.20241910183199,0.0,-0.0,-3.660929221799976,-14.20241910183199
27.50000000000012,2333.5217276513613,-325.22642368000265,980.4838528392543,195.16147160748807,0.0,45.0,100.0,0.0,0.0,-3.8359228844916897,-14.156157908675086,0.0,-0.0,-3.8359228844916897,-14.156157908675086
27.600000000000122,2329.5113953412283,-339.33416431673874,980.4131421611356,195.86857838867462,0.0,45.0,100.0,0.0,0.0,-4.010332310133035,-14.10774063673607,0.0,-0.0,-4.010332310133035,-14.10774063673607
27.700000000000124,2325.3272644062417,-353.3913389770323,980.342431483017,196.57568516986117,0.0,45.0,100.0,0.0,0.0,-4.184130934986569,-14.057174660293569,0.0,-0.0,-4.184130934986569,-14.057174660293569
27.800000000000125,2320.9699721178977,-367.3958066579208,980.2717208048983,197.28279195104773,0.0,45.0,100.0,0.0,0.0,-4.357292288343925,-14.004467680888473,0.0,-0.0,-4.357292288343925,-14.004467680888473
27.900000000000126,2316.44018212134,-381.3454343840717,980.2010101267797,197.98989873223428,0.0,45.0,100.0,0.0,0.0,-4.529789996557524,-13.949627726150924,0.0,-0.0,-4.529789996557524,-13.949627726150924
28.000000000000128,2311.7385843342827,-395.23809753264936,980.130299448661,198.69700551342083,0.0,45.0,100.0,0.0,0.0,-4.701597787057433,-13.892663148577665,0.0,-0.0,-4.701597787057433,-13.892663148577665
28.10000000000013,2306.8658948419297,-409.0716801569093,980.0595887705424,199.4041122946074,0.0,45.0,100.0,0.0,0.0,-4.872689492352868,-13.833582624259892,0.0,-0.0,-4.872689492352868,-13.833582624259892
28.20000000000013,2301.822855787912,-422.84407530847113,979.9888780924238,200.11121907579394,0.0,45.0,100.0,0.0,0.0,-5.043039054017658,-13.772395151561833,0.0,-0.0,-5.043039054017658,-13.772395151561833
28.300000000000132,2296.610235261253,-436.55318535822136,979.9181674143051,200.8183258569805,0.0,45.0,100.0,0.0,0.0,-5.212620526659148,-13.709110049750235,0.0,-0.0,-5.212620526659148,-13.709110049750235
28.400000000000134,2291.228827179383,-450.1969223157963,979.8474567361865,201.52543263816705,0.0,45.0,100.0,0.0,0.0,-5.381408081869846,-13.64373695757497,0.0,-0.0,-5.381408081869846,-13.64373695757497
28.500000000000135,2285.679451167222,-463.7732081475973,979.7767460580678,202.2325394193536,0.0,45.0,100.0,0.0,0.0,-5.5493760121612725,-13.576285831800988,0.0,-0.0,-5.5493760121612725,-13.576285831800988
28.600000000000136,2279.9629524323427,-477.2799750932891,979.7060353799492,202.93964620054015,0.0,45.0,100.0,0.0,0.0,-5.716498734879355,-13.506766945691849,0.0,-0.0,-5.716498734879355,-13.506766945691849
28.700000000000138,2274.080201636242,-490.7151659807341,979.6353247018305,203.6467529817267,0.0,45.0,100.0,0.0,0.0,-5.882750796100883,-13.435190887445017,0.0,-0.0,-5.882750796100883,-13.435190887445017
28.80000000000014,2268.0320947617315,-504.07673453931335,979.5646140237119,204.35385976291326,0.0,45.0,100.0,0.0,0.0,-6.048106874510288,-13.361568558579215,0.0,-0.0,-6.048106874510288,-13.361568558579215
28.90000000000014,2261.8195529764753,-517.3626457115874,979.4939033455933,205.0609665440998,0.0,45.0,100.0,0.0,0.0,-6.212541785256252,-13.285911172274043,0.0,-0.0,-6.212541785256252,-13.285911172274043
29.000000000000142,2255.443522492688,-530.5708759632496,979.4231926674746,205.76807332528637,0.0,45.0,100.0,0.0,0.0,-6.376030483787525,-13.208230251662158,0.0,-0.0,-6.376030483787525,-13.208230251662158
29.100000000000144,2248.9049744230206,-543.6994135913237,979.352481989356,206.47518010647292,0.0,45.0,100.0,0.0,0.0,-6.538548069667413,-13.128537628074184,0.0,-0.0,-6.538548069667413,-13.128537628074184
29.200000000000145,2242.2049046326542,-556.7462590305605,979.2817713112373,207.18228688765947,0.0,45.0,100.0,0.0,0.0,-6.700069790366244,-13.046845439236753,0.0,-0.0,-6.700069790366244,-13.046845439236753
29.300000000000146,2235.3443335876227,-569.7094251579844,979.2110606331187,207.88939366884603,0.0,45.0,100.0,0.0,0.0,-6.860571045031362,-12.963166127423829,0.0,-0.0,-6.860571045031362,-12.963166127423829
29.400000000000148,2228.3243061993885,-582.586937595546,979.140349955,208.59650045003258,0.0,45.0,100.0,0.0,0.0,-7.020027388234007,-12.877512437561675,0.0,-0.0,-7.020027388234007,-12.877512437561675
29.50000000000015,2221.145891665696,-595.3768350108337,979.0696392768814,209.30360723121913,0.0,45.0,100.0,0.0,0.0,-7.178414533692509,-12.789897415287713,0.0,-0.0,-7.178414533692509,-12.789897415287713
29.60000000000015,2213.810183307725,-608.0771694157972,978.9989285987627,210.01071401240569,0.0,45.0,100.0,0.0,0.0,-7.335708357971279,-12.700334404963577,0.0,-0.0,-7.335708357971279,-12.700334404963577
29.700000000000152,2206.3182984035698,-620.68600646344,978.9282179206441,210.71782079359224,0.0,45.0,100.0,0.0,0.0,-7.491884904154929,-12.608837047642684,0.0,-0.0,-7.491884904154929,-12.608837047642684
29.800000000000153,2198.6713780180726,-633.2014257424325,978.8575072425255,211.4249275747788,0.0,45.0,100.0,0.0,0.0,-7.646920385497114,-12.515419278992608,0.0,-0.0,-7.646920385497114,-12.515419278992608
29.900000000000155,2190.870586829029,-645.6215210696051,978.7867965644068,212.13203435596535,0.0,45.0,100.0,0.0,0.0,-7.800791189043386,-12.420095327172584,0.0,-0.0,-7.800791189043386,-12.420095327172584
30.000000000000156,2182.9171129498013,-657.9444007802716,978.7160858862882,212.8391411371519,0.0,45.0,100.0,0.0,0.0,-7.9534738792276185,-12.322879710666465,0.0,-0.0,-7.9534738792276185,-12.322879710666465
