time,x,y,altitude,yaw,pitch,roll,speed,wind_dir,wind_spd,dx,dy,wind_dx,wind_dy,vmg_dx,vmg_dy
0.0,5.388445916248355E-16,8.8,0.0,0.0,0.0,0.0,60.0,0.0,0.0,5.388445916248355E-16,8.8,0.0,-0.0,5.388445916248355E-16,8.8
0.1,1.077689183249671E-15,17.6,0.0,0.0,0.0,0.0,60.0,0.0,0.0,5.388445916248355E-16,8.8,0.0,-0.0,5.388445916248355E-16,8.8
0.2,1.6165337748745064E-15,26.400000000000002,0.0,0.0,0.0,0.0,60.0,0.0,0.0,5.388445916248355E-16,8.8,0.0,-0.0,5.388445916248355E-16,8.8
0.30000000000000004,2.155378366499342E-15,35.2,0.0,0.0,0.0,0.0,60.0,0.0,0.0,5.388445916248355E-16,8.8,0.0,-0.0,5.388445916248355E-16,8.8
0.4,2.6942229581241776E-15,44.0,0.0,0.0,0.0,0.0,60.0,0.0,0.0,5.388445916248355E-16,8.8,0.0,-0.0,5.388445916248355E-16,8.8
0.5,3.233067549749013E-15,52.8,0.0,0.0,0.0,0.0,60.0,0.0,0.0,5.388445916248355E-16,8.8,0.0,-0.0,5.388445916248355E-16,8.8
0.6,3.7719121413738484E-15,61.599999999999994,0.0,0.0,0.0,0.0,60.0,0.0,0.0,5.388445916248355E-16,8.8,0.0,-0.0,5.388445916248355E-16,8.8
0.7,4.310756732998684E-15,70.39999999999999,0.0,0.0,0.0,0.0,60.0,0.0,0.0,5.388445916248355E-16,8.8,0.0,-0.0,5.388445916248355E-16,8.8
0.7999999999999999,4.8496013246235196E-15,79.19999999999999,0.0,0.0,0.0,0.0,60.0,0.0,0.0,5.388445916248355E-16,8.8,0.0,-0.0,5.388445916248355E-16,8.8
0.8999999999999999,5.388445916248355E-15,87.99999999999999,0.0,0.0,0.0,0.0,60.0,0.0,0.0,5.388445916248355E-16,8.8,0.0,-0.0,5.388445916248355E-16,8.8
0.9999999999999999,5.927290507873191E-15,96.79999999999998,0.0,0.0,0.0,0.0,60.0,0.0,0.0,5.388445916248355E-16,8.8,0.0,-0.0,5.388445916248355E-16,8.8
1.0999999999999999,6.466135099498026E-15,105.59999999999998,0.0,0.0,0.0,0.0,60.0,0.0,0.0,5.388445916248355E-16,8.8,0.0,-0.0,5.388445916248355E-16,8.8
1.2,7.004979691122862E-15,114.39999999999998,0.0,0.0,0.0,0.0,60.0,0.0,0.0,5.388445916248355E-16,8.8,0.0,-0.0,5.388445916248355E-16,8.8
1.3,7.543824282747697E-15,123.19999999999997,0.0,0.0,0.0,0.0,60.0,0.0,0.0,5.388445916248355E-16,8.8,0.0,-0.0,5.388445916248355E-16,8.8
1.4000000000000001,8.082668874372532E-15,131.99999999999997,0.0,0.0,0.0,0.0,60.0,0.0,0.0,5.388445916248355E-16,8.8,0.0,-0.0,5.388445916248355E-16,8.8
1.5000000000000002,8.621513465997368E-15,140.79999999999998,0.0,0.0,0.0,0.0,60.0,0.0,0.0,5.388445916248355E-16,8.8,0.0,-0.0,5.388445916248355E-16,8.8
1.6000000000000003,9.160358057622204E-15,149.6,0.0,0.0,0.0,0.0,60.0,0.0,0.0,5.388445916248355E-16,8.8,0.0,-0.0,5.388445916248355E-16,8.8
1.7000000000000004,9.699202649247039E-15,158.4,0.0,0.0,0.0,0.0,60.0,0.0,0.0,5.388445916248355E-16,8.8,0.0,-0.0,5.388445916248355E-16,8.8
1.8000000000000005,1.0238047240871875E-14,167.20000000000002,0.0,0.0,0.0,0.0,60.0,0.0,0.0,5.388445916248355E-16,8.8,0.0,-0.0,5.388445916248355E-16,8.8
1.9000000000000006,1.077689183249671E-14,176.00000000000003,0.0,0.0,0.0,0.0,60.0,0.0,0.0,5.388445916248355E-16,8.8,0.0,-0.0,5.388445916248355E-16,8.8
2.0000000000000004,1.1315736424121546E-14,184.80000000000004,0.0,0.0,0.0,0.0,60.0,0.0,0.0,5.388445916248355E-16,8.8,0.0,-0.0,5.388445916248355E-16,8.8
2.1000000000000005,1.1854581015746382E-14,193.60000000000005,0.0,0.0,0.0,0.0,60.0,0.0,0.0,5.388445916248355E-16,8.8,0.0,-0.0,5.388445916248355E-16,8.8
2.2000000000000006,1.2393425607371217E-14,202.40000000000006,0.0,0.0,0.0,0.0,60.0,0.0,0.0,5.388445916248355E-16,8.8,0.0,-0.0,5.388445916248355E-16,8.8
2.3000000000000007,1.2932270198996053E-14,211.20000000000007,0.0,0.0,0.0,0.0,60.0,0.0,0.0,5.388445916248355E-16,8.8,0.0,-0.0,5.388445916248355E-16,8.8
2.400000000000001,1.3471114790620888E-14,220.00000000000009,0.0,0.0,0.0,0.0,60.0,0.0,0.0,5.388445916248355E-16,8.8,0.0,-0.0,5.388445916248355E-16,8.8
2.500000000000001,1.4009959382245724E-14,228.8000000000001,0.0,0.0,0.0,0.0,60.0,0.0,0.0,5.388445916248355E-16,8.8,0.0,-0.0,5.388445916248355E-16,8.8
2.600000000000001,1.454880397387056E-14,237.6000000000001,0.0,0.0,0.0,0.0,60.0,0.0,0.0,5.388445916248355E-16,8.8,0.0,-0.0,5.388445916248355E-16,8.8
2.700000000000001,1.5087648565495394E-14,246.40000000000012,0.0,0.0,0.0,0.0,60.0,0.0,0.0,5.388445916248355E-16,8.8,0.0,-0.0,5.388445916248355E-16,8.8
2.800000000000001,1.5626493157120228E-14,255.20000000000013,0.0,0.0,0.0,0.0,60.0,0.0,0.0,5.388445916248355E-16,8.8,0.0,-0.0,5.388445916248355E-16,8.8
2.9000000000000012,1.6165337748745062E-14,264.0000000000001,0.0,0.0,0.0,0.0,60.0,0.0,0.0,5.388445916248355E-16,8.8,0.0,-0.0,5.388445916248355E-16,8.8
3.0000000000000013,1.6704182340369896E-14,272.8000000000001,0.0,0.0,0.0,0.0,60.0,0.0,0.0,5.388445916248355E-16,8.8,0.0,-0.0,5.388445916248355E-16,8.8
3.1000000000000014,1.724302693199473E-14,281.60000000000014,0.0,0.0,0.0,0.0,60.0,0.0,0.0,5.388445916248355E-16,8.8,0.0,-0.0,5.388445916248355E-16,8.8
3.2000000000000015,1.7781871523619564E-14,290.40000000000015,0.0,0.0,0.0,0.0,60.0,0.0,0.0,5.388445916248355E-16,8.8,0.0,-0.0,5.388445916248355E-16,8.8
3.3000000000000016,1.8320716115244398E-14,299.20000000000016,0.0,0.0,0.0,0.0,60.0,0.0,0.0,5.388445916248355E-16,8.8,0.0,-0.0,5.388445916248355E-16,8.8
3.4000000000000017,1.8859560706869232E-14,308.00000000000017,0.0,0.0,0.0,0.0,60.0,0.0,0.0,5.388445916248355E-16,8.8,0.0,-0.0,5.388445916248355E-16,8.8
3.5000000000000018,1.9398405298494066E-14,316.8000000000002,0.0,0.0,0.0,0.0,60.0,0.0,0.0,5.388445916248355E-16,8.8,0.0,-0.0,5.388445916248355E-16,8.8
3.600000000000002,1.99372498901189E-14,325.6000000000002,0.0,0.0,0.0,0.0,60.0,0.0,0.0,5.388445916248355E-16,8.8,0.0,-0.0,5.388445916248355E-16,8.8
3.700000000000002,2.0476094481743734E-14,334.4000000000002,0.0,0.0,0.0,0.0,60.0,0.0,0.0,5.388445916248355E-16,8.8,0.0,-0.0,5.388445916248355E-16,8.8
3.800000000000002,2.1014939073368568E-14,343.2000000000002,0.0,0.0,0.0,0.0,60.0,0.0,0.0,5.388445916248355E-16,8.8,0.0,-0.0,5.388445916248355E-16,8.8
3.900000000000002,2.1553783664993402E-14,352.0000000000002,0.0,0.0,0.0,0.0,60.0,0.0,0.0,5.388445916248355E-16,8.8,0.0,-0.0,5.388445916248355E-16,8.8
4.000000000000002,2.2092628256618236E-14,360.80000000000024,0.0,0.0,0.0,0.0,60.0,0.0,0.0,5.388445916248355E-16,8.8,0.0,-0.0,5.388445916248355E-16,8.8
4.100000000000001,2.263147284824307E-14,369.60000000000025,0.0,0.0,0.0,0.0,60.0,0.0,0.0,5.388445916248355E-16,8.8,0.0,-0.0,5.388445916248355E-16,8.8
4.200000000000001,2.3170317439867904E-14,378.40000000000026,0.0,0.0,0.0,0.0,60.0,0.0,0.0,5.388445916248355E-16,8.8,0.0,-0.0,5.388445916248355E-16,8.8
4.300000000000001,2.3709162031492738E-14,387.2000000000003,0.0,0.0,0.0,0.0,60.0,0.0,0.0,5.388445916248355E-16,8.8,0.0,-0.0,5.388445916248355E-16,8.8
4.4,2.4248006623117572E-14,396.0000000000003,0.0,0.0,0.0,0.0,60.0,0.0,0.0,5.388445916248355E-16,8.8,0.0,-0.0,5.388445916248355E-16,8.8
4.5,2.4786851214742406E-14,404.8000000000003,0.0,0.0,0.0,0.0,60.0,0.0,0.0,5.388445916248355E-16,8.8,0.0,-0.0,5.388445916248355E-16,8.8
4.6,2.532569580636724E-14,413.6000000000003,0.0,0.0,0.0,0.0,60.0,0.0,0.0,5.388445916248355E-16,8.8,0.0,-0.0,5.388445916248355E-16,8.8
4.699999999999999,2.5864540397992074E-14,422.4000000000003,0.0,0.0,0.0,0.0,60.0,0.0,0.0,5.388445916248355E-16,8.8,0.0,-0.0,5.388445916248355E-16,8.8
4.799999999999999,2.6403384989616908E-14,431.20000000000033,0.0,0.0,0.0,0.0,60.0,0.0,0.0,5.388445916248355E-16,8.8,0.0,-0.0,5.388445916248355E-16,8.8
4.899999999999999,2.6942229581241742E-14,440.00000000000034,0.0,0.0,0.0,0.0,60.0,0.0,0.0,5.388445916248355E-16,8.8,0.0,-0.0,5.388445916248355E-16,8.8
4.999999999999998,2.7481074172866576E-14,448.80000000000035,0.0,0.0,0.0,0.0,60.0,0.0,0.0,5.388445916248355E-16,8.8,0.0,-0.0,5.388445916248355E-16,8.8
5.099999999999998,2.801991876449141E-14,457.60000000000036,0.0,0.0,0.0,0.0,60.0,0.0,0.0,5.388445916248355E-16,8.8,0.0,-0.0,5.388445916248355E-16,8.8
5.1999999999999975,2.8558763356116244E-14,466.4000000000004,0.0,0.0,0.0,0.0,60.0,0.0,0.0,5.388445916248355E-16,8.8,0.0,-0.0,5.388445916248355E-16,8.8
5.299999999999997,2.909760794774108E-14,475.2000000000004,0.0,0.0,0.0,0.0,60.0,0.0,0.0,5.388445916248355E-16,8.8,0.0,-0.0,5.388445916248355E-16,8.8
5.399999999999997,2.963645253936592E-14,484.0000000000004,0.0,0.0,0.0,0.0,60.0,0.0,0.0,5.388445916248355E-16,8.8,0.0,-0.0,5.388445916248355E-16,8.8
5.4999999999999964,3.0175297130990756E-14,492.8000000000004,0.0,0.0,0.0,0.0,60.0,0.0,0.0,5.388445916248355E-16,8.8,0.0,-0.0,5.388445916248355E-16,8.8
5.599999999999996,3.071414172261559E-14,501.6000000000004,0.0,0.0,0.0,0.0,60.0,0.0,0.0,5.388445916248355E-16,8.8,0.0,-0.0,5.388445916248355E-16,8.8
5.699999999999996,3.125298631424043E-14,510.40000000000043,0.0,0.0,0.0,0.0,60.0,0.0,0.0,5.388445916248355E-16,8.8,0.0,-0.0,5.388445916248355E-16,8.8
5.799999999999995,3.179183090586527E-14,519.2000000000004,0.0,0.0,0.0,0.0,60.0,0.0,0.0,5.388445916248355E-16,8.8,0.0,-0.0,5.388445916248355E-16,8.8
5.899999999999995,3.2330675497490104E-14,528.0000000000003,0.0,0.0,0.0,0.0,60.0,0.0,0.0,5.388445916248355E-16,8.8,0.0,-0.0,5.388445916248355E-16,8.8
5.999999999999995,3.286952008911494E-14,536.8000000000003,0.0,0.0,0.0,0.0,60.0,0.0,0.0,5.388445916248355E-16,8.8,0.0,-0.0,5.388445916248355E-16,8.8
6.099999999999994,3.340836468073978E-14,545.6000000000003,0.0,0.0,0.0,0.0,60.0,0.0,0.0,5.388445916248355E-16,8.8,0.0,-0.0,5.388445916248355E-16,8.8
6.199999999999994,3.3947209272364616E-14,554.4000000000002,0.0,0.0,0.0,0.0,60.0,0.0,0.0,5.388445916248355E-16,8.8,0.0,-0.0,5.388445916248355E-16,8.8
6.299999999999994,3.448605386398945E-14,563.2000000000002,0.0,0.0,0.0,0.0,60.0,0.0,0.0,5.388445916248355E-16,8.8,0.0,-0.0,5.388445916248355E-16,8.8
6.399999999999993,3.502489845561429E-14,572.0000000000001,0.0,0.0,0.0,0.0,60.0,0.0,0.0,5.388445916248355E-16,8.8,0.0,-0.0,5.388445916248355E-16,8.8
6.499999999999993,3.556374304723913E-14,580.8000000000001,0.0,0.0,0.0,0.0,60.0,0.0,0.0,5.388445916248355E-16,8.8,0.0,-0.0,5.388445916248355E-16,8.8
6.5999999999999925,3.6102587638863965E-14,589.6,0.0,0.0,0.0,0.0,60.0,0.0,0.0,5.388445916248355E-16,8.8,0.0,-0.0,5.388445916248355E-16,8.8
6.699999999999992,3.66414322304888E-14,598.4,0.0,0.0,0.0,0.0,60.0,0.0,0.0,5.388445916248355E-16,8.8,0.0,-0.0,5.388445916248355E-16,8.8
6.799999999999992,3.718027682211364E-14,607.1999999999999,0.0,0.0,0.0,0.0,60.0,0.0,0.0,5.388445916248355E-16,8.8,0.0,-0.0,5.388445916248355E-16,8.8
6.8999999999999915,3.7719121413738476E-14,615.9999999999999,0.0,0.0,0.0,0.0,60.0,0.0,0.0,5.388445916248355E-16,8.8,0.0,-0.0,5.388445916248355E-16,8.8
6.999999999999991,3.8257966005363313E-14,624.7999999999998,0.0,0.0,0.0,0.0,60.0,0.0,0.0,5.388445916248355E-16,8.8,0.0,-0.0,5.388445916248355E-16,8.8
7.099999999999991,3.879681059698815E-14,633.5999999999998,0.0,0.0,0.0,0.0,60.0,0.0,0.0,5.388445916248355E-16,8.8,0.0,-0.0,5.388445916248355E-16,8.8
7.19999999999999,3.933565518861299E-14,642.3999999999997,0.0,0.0,0.0,0.0,60.0,0.0,0.0,5.388445916248355E-16,8.8,0.0,-0.0,5.388445916248355E-16,8.8
7.29999999999999,3.9874499780237825E-14,651.1999999999997,0.0,0.0,0.0,0.0,60.0,0.0,0.0,5.388445916248355E-16,8.8,0.0,-0.0,5.388445916248355E-16,8.8
7.39999999999999,4.041334437186266E-14,659.9999999999997,0.0,0.0,0.0,0.0,60.0,0.0,0.0,5.388445916248355E-16,8.8,0.0,-0.0,5.388445916248355E-16,8.8
7.499999999999989,4.09521889634875E-14,668.7999999999996,0.0,0.0,0.0,0.0,60.0,0.0,0.0,5.388445916248355E-16,8.8,0.0,-0.0,5.388445916248355E-16,8.8
7.599999999999989,4.1491033555112336E-14,677.5999999999996,0.0,0.0,0.0,0.0,60.0,0.0,0.0,5.388445916248355E-16,8.8,0.0,-0.0,5.388445916248355E-16,8.8
7.699999999999989,4.2029878146737174E-14,686.3999999999995,0.0,0.0,0.0,0.0,60.0,0.0,0.0,5.388445916248355E-16,8.8,0.0,-0.0,5.388445916248355E-16,8.8
7.799999999999988,4.256872273836201E-14,695.1999999999995,0.0,0.0,0.0,0.0,60.0,0.0,0.0,5.388445916248355E-16,8.8,0.0,-0.0,5.388445916248355E-16,8.8
7.899999999999988,4.310756732998685E-14,703.9999999999994,0.0,0.0,0.0,0.0,60.0,0.0,0.0,5.388445916248355E-16,8.8,0.0,-0.0,5.388445916248355E-16,8.8
7.999999999999988,4.3646411921611685E-14,712.7999999999994,0.0,0.0,0.0,0.0,60.0,0.0,0.0,5.388445916248355E-16,8.8,0.0,-0.0,5.388445916248355E-16,8.8
8.099999999999987,4.418525651323652E-14,721.5999999999993,0.0,0.0,0.0,0.0,60.0,0.0,0.0,5.388445916248355E-16,8.8,0.0,-0.0,5.388445916248355E-16,8.8
8.199999999999987,4.472410110486136E-14,730.3999999999993,0.0,0.0,0.0,0.0,60.0,0.0,0.0,5.388445916248355E-16,8.8,0.0,-0.0,5.388445916248355E-16,8.8
8.299999999999986,4.5262945696486197E-14,739.1999999999992,0.0,0.0,0.0,0.0,60.0,0.0,0.0,5.388445916248355E-16,8.8,0.0,-0.0,5.388445916248355E-16,8.8
8.399999999999986,4.5801790288111034E-14,747.9999999999992,0.0,0.0,0.0,0.0,60.0,0.0,0.0,5.388445916248355E-16,8.8,0.0,-0.0,5.388445916248355E-16,8.8
8.499999999999986,4.634063487973587E-14,756.7999999999992,0.0,0.0,0.0,0.0,60.0,0.0,0.0,5.388445916248355E-16,8.8,0.0,-0.0,5.388445916248355E-16,8.8
8.599999999999985,4.687947947136071E-14,765.5999999999991,0.0,0.0,0.0,0.0,60.0,0.0,0.0,5.388445916248355E-16,8.8,0.0,-0.0,5.388445916248355E-16,8.8
8.699999999999985,4.7418324062985545E-14,774.3999999999991,0.0,0.0,0.0,0.0,60.0,0.0,0.0,5.388445916248355E-16,8.8,0.0,-0.0,5.388445916248355E-16,8.8
8.799999999999985,4.795716865461038E-14,783.199999999999,0.0,0.0,0.0,0.0,60.0,0.0,0.0,5.388445916248355E-16,8.8,0.0,-0.0,5.388445916248355E-16,8.8
8.899999999999984,4.849601324623522E-14,791.999999999999,0.0,0.0,0.0,0.0,60.0,0.0,0.0,5.388445916248355E-16,8.8,0.0,-0.0,5.388445916248355E-16,8.8
8.999999999999984,4.9034857837860057E-14,800.7999999999989,0.0,0.0,0.0,0.0,60.0,0.0,0.0,5.388445916248355E-16,8.8,0.0,-0.0,5.388445916248355E-16,8.8
9.099999999999984,4.9573702429484894E-14,809.5999999999989,0.0,0.0,0.0,0.0,60.0,0.0,0.0,5.388445916248355E-16,8.8,0.0,-0.0,5.388445916248355E-16,8.8
9.199999999999983,5.011254702110973E-14,818.3999999999988,0.0,0.0,0.0,0.0,60.0,0.0,0.0,5.388445916248355E-16,8.8,0.0,-0.0,5.388445916248355E-16,8.8
9.299999999999983,5.065139161273457E-14,827.1999999999988,0.0,0.0,0.0,0.0,60.0,0.0,0.0,5.388445916248355E-16,8.8,0.0,-0.0,5.388445916248355E-16,8.8
9.399999999999983,5.1190236204359406E-14,835.9999999999987,0.0,0.0,0.0,0.0,60.0,0.0,0.0,5.388445916248355E-16,8.8,0.0,-0.0,5.388445916248355E-16,8.8
9.499999999999982,5.172908079598424E-14,844.7999999999987,0.0,0.0,0.0,0.0,60.0,0.0,0.0,5.388445916248355E-16,8.8,0.0,-0.0,5.388445916248355E-16,8.8
9.599999999999982,5.226792538760908E-14,853.5999999999987,0.0,0.0,0.0,0.0,60.0,0.0,0.0,5.388445916248355E-16,8.8,0.0,-0.0,5.388445916248355E-16,8.8
9.699999999999982,5.280676997923392E-14,862.3999999999986,0.0,0.0,0.0,0.0,60.0,0.0,0.0,5.388445916248355E-16,8.8,0.0,-0.0,5.388445916248355E-16,8.8
9.799999999999981,5.3345614570858754E-14,871.1999999999986,0.0,0.0,0.0,0.0,60.0,0.0,0.0,5.388445916248355E-16,8.8,0.0,-0.0,5.388445916248355E-16,8.8
9.89999999999998,5.388445916248359E-14,879.9999999999985,0.0,0.0,0.0,0.0,60.0,0.0,0.0,5.388445916248355E-16,8.8,0.0,-0.0,5.388445916248355E-16,8.8
9.99999999999998,5.442330375410843E-14,888.7999999999985,0.0,0.0,0.0,0.0,60.0,0.0,0.0,5.388445916248355E-16,8.8,0.0,-0.0,5.388445916248355E-16,8.8
10.09999999999998,5.4962148345733266E-14,897.5999999999984,0.0,0.0,0.0,0.0,60.0,0.0,0.0,5.388445916248355E-16,8.8,0.0,-0.0,5.388445916248355E-16,8.8
10.19999999999998,5.55009929373581E-14,906.3999999999984,0.0,0.0,0.0,0.0,60.0,0.0,0.0,5.388445916248355E-16,8.8,0.0,-0.0,5.388445916248355E-16,8.8
10.29999999999998,5.603983752898294E-14,915.1999999999983,0.0,0.0,0.0,0.0,60.0,0.0,0.0,5.388445916248355E-16,8.8,0.0,-0.0,5.388445916248355E-16,8.8
10.399999999999979,5.657868212060778E-14,923.9999999999983,0.0,0.0,0.0,0.0,60.0,0.0,0.0,5.388445916248355E-16,8.8,0.0,-0.0,5.388445916248355E-16,8.8
10.499999999999979,5.711752671223261E-14,932.7999999999982,0.0,0.0,0.0,0.0,60.0,0.0,0.0,5.388445916248355E-16,8.8,0.0,-0.0,5.388445916248355E-16,8.8
10.599999999999978,5.765637130385745E-14,941.5999999999982,0.0,0.0,0.0,0.0,60.0,0.0,0.0,5.388445916248355E-16,8.8,0.0,-0.0,5.388445916248355E-16,8.8
10.699999999999978,5.819521589548229E-14,950.3999999999982,0.0,0.0,0.0,0.0,60.0,0.0,0.0,5.388445916248355E-16,8.8,0.0,-0.0,5.388445916248355E-16,8.8
10.799999999999978,5.873406048710713E-14,959.1999999999981,0.0,0.0,0.0,0.0,60.0,0.0,0.0,5.388445916248355E-16,8.8,0.0,-0.0,5.388445916248355E-16,8.8
10.899999999999977,5.927290507873196E-14,967.9999999999981,0.0,0.0,0.0,0.0,60.0,0.0,0.0,5.388445916248355E-16,8.8,0.0,-0.0,5.388445916248355E-16,8.8
10.999999999999977,5.98117496703568E-14,976.799999999998,0.0,0.0,0.0,0.0,60.0,0.0,0.0,5.388445916248355E-16,8.8,0.0,-0.0,5.388445916248355E-16,8.8
11.099999999999977,6.035059426198164E-14,985.599999999998,0.0,0.0,0.0,0.0,60.0,0.0,0.0,5.388445916248355E-16,8.8,0.0,-0.0,5.388445916248355E-16,8.8
11.199999999999976,6.088943885360647E-14,994.3999999999979,0.0,0.0,0.0,0.0,60.0,0.0,0.0,5.388445916248355E-16,8.8,0.0,-0.0,5.388445916248355E-16,8.8
11.299999999999976,6.142828344523131E-14,1003.1999999999979,0.0,0.0,0.0,0.0,60.0,0.0,0.0,5.388445916248355E-16,8.8,0.0,-0.0,5.388445916248355E-16,8.8
11.399999999999975,6.196712803685615E-14,1011.9999999999978,0.0,0.0,0.0,0.0,60.0,0.0,0.0,5.388445916248355E-16,8.8,0.0,-0.0,5.388445916248355E-16,8.8
11.499999999999975,6.250597262848099E-14,1020.7999999999978,0.0,0.0,0.0,0.0,60.0,0.0,0.0,5.388445916248355E-16,8.8,0.0,-0.0,5.388445916248355E-16,8.8
11.599999999999975,6.304481722010582E-14,1029.5999999999979,0.0,0.0,0.0,0.0,60.0,0.0,0.0,5.388445916248355E-16,8.8,0.0,-0.0,5.388445916248355E-16,8.8
11.699999999999974,6.358366181173066E-14,1038.3999999999978,0.0,0.0,0.0,0.0,60.0,0.0,0.0,5.388445916248355E-16,8.8,0.0,-0.0,5.388445916248355E-16,8.8
11.799999999999974,6.41225064033555E-14,1047.1999999999978,0.0,0.0,0.0,0.0,60.0,0.0,0.0,5.388445916248355E-16,8.8,0.0,-0.0,5.388445916248355E-16,8.8
11.899999999999974,6.466135099498033E-14,1055.9999999999977,0.0,0.0,0.0,0.0,60.0,0.0,0.0,5.388445916248355E-16,8.8,0.0,-0.0,5.388445916248355E-16,8.8
11.999999999999973,6.520019558660517E-14,1064.7999999999977,0.0,0.0,0.0,0.0,60.0,0.0,0.0,5.388445916248355E-16,8.8,0.0,-0.0,5.388445916248355E-16,8.8
12.099999999999973,6.573904017823001E-14,1073.5999999999976,0.0,0.0,0.0,0.0,60.0,0.0,0.0,5.388445916248355E-16,8.8,0.0,-0.0,5.388445916248355E-16,8.8
12.199999999999973,6.627788476985485E-14,1082.3999999999976,0.0,0.0,0.0,0.0,60.0,0.0,0.0,5.388445916248355E-16,8.8,0.0,-0.0,5.388445916248355E-16,8.8
12.299999999999972,6.681672936147968E-14,1091.1999999999975,0.0,0.0,0.0,0.0,60.0,0.0,0.0,5.388445916248355E-16,8.8,0.0,-0.0,5.388445916248355E-16,8.8
12.399999999999972,6.735557395310452E-14,1099.9999999999975,0.0,0.0,0.0,0.0,60.0,0.0,0.0,5.388445916248355E-16,8.8,0.0,-0.0,5.388445916248355E-16,8.8
12.499999999999972,6.789441854472936E-14,1108.7999999999975,0.0,0.0,0.0,0.0,60.0,0.0,0.0,5.388445916248355E-16,8.8,0.0,-0.0,5.388445916248355E-16,8.8
12.599999999999971,6.84332631363542E-14,1117.5999999999974,0.0,0.0,0.0,0.0,60.0,0.0,0.0,5.388445916248355E-16,8.8,0.0,-0.0,5.388445916248355E-16,8.8
12.69999999999997,6.897210772797903E-14,1126.3999999999974,0.0,0.0,0.0,0.0,60.0,0.0,0.0,5.388445916248355E-16,8.8,0.0,-0.0,5.388445916248355E-16,8.8
12.79999999999997,6.951095231960387E-14,1135.1999999999973,0.0,0.0,0.0,0.0,60.0,0.0,0.0,5.388445916248355E-16,8.8,0.0,-0.0,5.388445916248355E-16,8.8
12.89999999999997,7.004979691122871E-14,1143.9999999999973,0.0,0.0,0.0,0.0,60.0,0.0,0.0,5.388445916248355E-16,8.8,0.0,-0.0,5.388445916248355E-16,8.8
12.99999999999997,7.058864150285354E-14,1152.7999999999972,0.0,0.0,0.0,0.0,60.0,0.0,0.0,5.388445916248355E-16,8.8,0.0,-0.0,5.388445916248355E-16,8.8
13.09999999999997,7.112748609447838E-14,1161.5999999999972,0.0,0.0,0.0,0.0,60.0,0.0,0.0,5.388445916248355E-16,8.8,0.0,-0.0,5.388445916248355E-16,8.8
13.199999999999969,7.166633068610322E-14,1170.3999999999971,0.0,0.0,0.0,0.0,60.0,0.0,0.0,5.388445916248355E-16,8.8,0.0,-0.0,5.388445916248355E-16,8.8
13.299999999999969,7.220517527772806E-14,1179.199999999997,0.0,0.0,0.0,0.0,60.0,0.0,0.0,5.388445916248355E-16,8.8,0.0,-0.0,5.388445916248355E-16,8.8
13.399999999999968,7.274401986935289E-14,1187.999999999997,0.0,0.0,0.0,0.0,60.0,0.0,0.0,5.388445916248355E-16,8.8,0.0,-0.0,5.388445916248355E-16,8.8
13.499999999999968,7.328286446097773E-14,1196.799999999997,0.0,0.0,0.0,0.0,60.0,0.0,0.0,5.388445916248355E-16,8.8,0.0,-0.0,5.388445916248355E-16,8.8
13.599999999999968,7.382170905260257E-14,1205.599999999997,0.0,0.0,0.0,0.0,60.0,0.0,0.0,5.388445916248355E-16,8.8,0.0,-0.0,5.388445916248355E-16,8.8
13.699999999999967,7.43605536442274E-14,1214.399999999997,0.0,0.0,0.0,0.0,60.0,0.0,0.0,5.388445916248355E-16,8.8,0.0,-0.0,5.388445916248355E-16,8.8
13.799999999999967,7.489939823585224E-14,1223.1999999999969,0.0,0.0,0.0,0.0,60.0,0.0,0.0,5.388445916248355E-16,8.8,0.0,-0.0,5.388445916248355E-16,8.8
13.899999999999967,7.543824282747708E-14,1231.9999999999968,0.0,0.0,0.0,0.0,60.0,0.0,0.0,5.388445916248355E-16,8.8,0.0,-0.0,5.388445916248355E-16,8.8
13.999999999999966,7.597708741910192E-14,1240.7999999999968,0.0,0.0,0.0,0.0,60.0,0.0,0.0,5.388445916248355E-16,8.8,0.0,-0.0,5.388445916248355E-16,8.8
14.099999999999966,7.651593201072675E-14,1249.5999999999967,0.0,0.0,0.0,0.0,60.0,0.0,0.0,5.388445916248355E-16,8.8,0.0,-0.0,5.388445916248355E-16,8.8
14.199999999999966,7.705477660235159E-14,1258.3999999999967,0.0,0.0,0.0,0.0,60.0,0.0,0.0,5.388445916248355E-16,8.8,0.0,-0.0,5.388445916248355E-16,8.8
14.299999999999965,7.759362119397643E-14,1267.1999999999966,0.0,0.0,0.0,0.0,60.0,0.0,0.0,5.388445916248355E-16,8.8,0.0,-0.0,5.388445916248355E-16,8.8
14.399999999999965,7.813246578560126E-14,1275.9999999999966,0.0,0.0,0.0,0.0,60.0,0.0,0.0,5.388445916248355E-16,8.8,0.0,-0.0,5.388445916248355E-16,8.8
14.499999999999964,7.86713103772261E-14,1284.7999999999965,0.0,0.0,0.0,0.0,60.0,0.0,0.0,5.388445916248355E-16,8.8,0.0,-0.0,5.388445916248355E-16,8.8
14.599999999999964,7.921015496885094E-14,1293.5999999999965,0.0,0.0,0.0,0.0,60.0,0.0,0.0,5.388445916248355E-16,8.8,0.0,-0.0,5.388445916248355E-16,8.8
14.699999999999964,7.974899956047578E-14,1302.3999999999965,0.0,0.0,0.0,0.0,60.0,0.0,0.0,5.388445916248355E-16,8.8,0.0,-0.0,5.388445916248355E-16,8.8
14.799999999999963,8.028784415210061E-14,1311.1999999999964,0.0,0.0,0.0,0.0,60.0,0.0,0.0,5.388445916248355E-16,8.8,0.0,-0.0,5.388445916248355E-16,8.8
14.899999999999963,8.082668874372545E-14,1319.9999999999964,0.0,0.0,0.0,0.0,60.0,0.0,0.0,5.388445916248355E-16,8.8,0.0,-0.0,5.388445916248355E-16,8.8
14.999999999999963,8.136553333535029E-14,1328.7999999999963,0.0,0.0,0.0,0.0,60.0,0.0,0.0,5.388445916248355E-16,8.8,0.0,-0.0,5.388445916248355E-16,8.8
15.099999999999962,8.190437792697512E-14,1337.5999999999963,0.0,0.0,0.0,0.0,60.0,0.0,0.0,5.388445916248355E-16,8.8,0.0,-0.0,5.388445916248355E-16,8.8
15.199999999999962,8.244322251859996E-14,1346.3999999999962,0.0,0.0,0.0,0.0,60.0,0.0,0.0,5.388445916248355E-16,8.8,0.0,-0.0,5.388445916248355E-16,8.8
15.299999999999962,8.29820671102248E-14,1355.1999999999962,0.0,0.0,0.0,0.0,60.0,0.0,0.0,5.388445916248355E-16,8.8,0.0,-0.0,5.388445916248355E-16,8.8
15.399999999999961,8.352091170184964E-14,1363.9999999999961,0.0,0.0,0.0,0.0,60.0,0.0,0.0,5.388445916248355E-16,8.8,0.0,-0.0,5.388445916248355E-16,8.8
15.499999999999961,8.405975629347447E-14,1372.799999999996,0.0,0.0,0.0,0.0,60.0,0.0,0.0,5.388445916248355E-16,8.8,0.0,-0.0,5.388445916248355E-16,8.8
15.59999999999996,8.459860088509931E-14,1381.599999999996,0.0,0.0,0.0,0.0,60.0,0.0,0.0,5.388445916248355E-16,8.8,0.0,-0.0,5.388445916248355E-16,8.8
15.69999999999996,8.513744547672415E-14,1390.399999999996,0.0,0.0,0.0,0.0,60.0,0.0,0.0,5.388445916248355E-16,8.8,0.0,-0.0,5.388445916248355E-16,8.8
15.79999999999996,8.567629006834898E-14,1399.199999999996,0.0,0.0,0.0,0.0,60.0,0.0,0.0,5.388445916248355E-16,8.8,0.0,-0.0,5.388445916248355E-16,8.8
15.89999999999996,8.621513465997382E-14,1407.999999999996,0.0,0.0,0.0,0.0,60.0,0.0,0.0,5.388445916248355E-16,8.8,0.0,-0.0,5.388445916248355E-16,8.8
15.99999999999996,8.675397925159866E-14,1416.7999999999959,0.0,0.0,0.0,0.0,60.0,0.0,0.0,5.388445916248355E-16,8.8,0.0,-0.0,5.388445916248355E-16,8.8
16.09999999999996,8.72928238432235E-14,1425.5999999999958,0.0,0.0,0.0,0.0,60.0,0.0,0.0,5.388445916248355E-16,8.8,0.0,-0.0,5.388445916248355E-16,8.8
16.19999999999996,8.783166843484833E-14,1434.3999999999958,0.0,0.0,0.0,0.0,60.0,0.0,0.0,5.388445916248355E-16,8.8,0.0,-0.0,5.388445916248355E-16,8.8
16.29999999999996,8.837051302647317E-14,1443.1999999999957,0.0,0.0,0.0,0.0,60.0,0.0,0.0,5.388445916248355E-16,8.8,0.0,-0.0,5.388445916248355E-16,8.8
16.399999999999963,8.890935761809801E-14,1451.9999999999957,0.0,0.0,0.0,0.0,60.0,0.0,0.0,5.388445916248355E-16,8.8,0.0,-0.0,5.388445916248355E-16,8.8
16.499999999999964,8.944820220972285E-14,1460.7999999999956,0.0,0.0,0.0,0.0,60.0,0.0,0.0,5.388445916248355E-16,8.8,0.0,-0.0,5.388445916248355E-16,8.8
16.599999999999966,8.998704680134768E-14,1469.5999999999956,0.0,0.0,0.0,0.0,60.0,0.0,0.0,5.388445916248355E-16,8.8,0.0,-0.0,5.388445916248355E-16,8.8
16.699999999999967,9.052589139297252E-14,1478.3999999999955,0.0,0.0,0.0,0.0,60.0,0.0,0.0,5.388445916248355E-16,8.8,0.0,-0.0,5.388445916248355E-16,8.8
16.79999999999997,9.106473598459736E-14,1487.1999999999955,0.0,0.0,0.0,0.0,60.0,0.0,0.0,5.388445916248355E-16,8.8,0.0,-0.0,5.388445916248355E-16,8.8
16.89999999999997,9.16035805762222E-14,1495.9999999999955,0.0,0.0,0.0,0.0,60.0,0.0,0.0,5.388445916248355E-16,8.8,0.0,-0.0,5.388445916248355E-16,8.8
16.99999999999997,9.214242516784703E-14,1504.7999999999954,0.0,0.0,0.0,0.0,60.0,0.0,0.0,5.388445916248355E-16,8.8,0.0,-0.0,5.388445916248355E-16,8.8
17.099999999999973,9.268126975947187E-14,1513.5999999999954,0.0,0.0,0.0,0.0,60.0,0.0,0.0,5.388445916248355E-16,8.8,0.0,-0.0,5.388445916248355E-16,8.8
17.199999999999974,9.32201143510967E-14,1522.3999999999953,0.0,0.0,0.0,0.0,60.0,0.0,0.0,5.388445916248355E-16,8.8,0.0,-0.0,5.388445916248355E-16,8.8
17.299999999999976,9.375895894272154E-14,1531.1999999999953,0.0,0.0,0.0,0.0,60.0,0.0,0.0,5.388445916248355E-16,8.8,0.0,-0.0,5.388445916248355E-16,8.8
17.399999999999977,9.429780353434638E-14,1539.9999999999952,0.0,0.0,0.0,0.0,60.0,0.0,0.0,5.388445916248355E-16,8.8,0.0,-0.0,5.388445916248355E-16,8.8
17.49999999999998,9.483664812597122E-14,1548.7999999999952,0.0,0.0,0.0,0.0,60.0,0.0,0.0,5.388445916248355E-16,8.8,0.0,-0.0,5.388445916248355E-16,8.8
17.59999999999998,9.537549271759605E-14,1557.5999999999951,0.0,0.0,0.0,0.0,60.0,0.0,0.0,5.388445916248355E-16,8.8,0.0,-0.0,5.388445916248355E-16,8.8
17.69999999999998,9.591433730922089E-14,1566.399999999995,0.0,0.0,0.0,0.0,60.0,0.0,0.0,5.388445916248355E-16,8.8,0.0,-0.0,5.388445916248355E-16,8.8
17.799999999999983,9.645318190084573E-14,1575.199999999995,0.0,0.0,0.0,0.0,60.0,0.0,0.0,5.388445916248355E-16,8.8,0.0,-0.0,5.388445916248355E-16,8.8
17.899999999999984,9.699202649247057E-14,1583.999999999995,0.0,0.0,0.0,0.0,60.0,0.0,0.0,5.388445916248355E-16,8.8,0.0,-0.0,5.388445916248355E-16,8.8
17.999999999999986,9.75308710840954E-14,1592.799999999995,0.0,0.0,0.0,0.0,60.0,0.0,0.0,5.388445916248355E-16,8.8,0.0,-0.0,5.388445916248355E-16,8.8
18.099999999999987,9.806971567572024E-14,1601.599999999995,0.0,0.0,0.0,0.0,60.0,0.0,0.0,5.388445916248355E-16,8.8,0.0,-0.0,5.388445916248355E-16,8.8
18.19999999999999,9.860856026734508E-14,1610.3999999999949,0.0,0.0,0.0,0.0,60.0,0.0,0.0,5.388445916248355E-16,8.8,0.0,-0.0,5.388445916248355E-16,8.8
18.29999999999999,9.914740485896991E-14,1619.1999999999948,0.0,0.0,0.0,0.0,60.0,0.0,0.0,5.388445916248355E-16,8.8,0.0,-0.0,5.388445916248355E-16,8.8
18.39999999999999,9.968624945059475E-14,1627.9999999999948,0.0,0.0,0.0,0.0,60.0,0.0,0.0,5.388445916248355E-16,8.8,0.0,-0.0,5.388445916248355E-16,8.8
18.499999999999993,1.0022509404221959E-13,1636.7999999999947,0.0,0.0,0.0,0.0,60.0,0.0,0.0,5.388445916248355E-16,8.8,0.0,-0.0,5.388445916248355E-16,8.8
18.599999999999994,1.0076393863384443E-13,1645.5999999999947,0.0,0.0,0.0,0.0,60.0,0.0,0.0,5.388445916248355E-16,8.8,0.0,-0.0,5.388445916248355E-16,8.8
18.699999999999996,1.0130278322546926E-13,1654.3999999999946,0.0,0.0,0.0,0.0,60.0,0.0,0.0,5.388445916248355E-16,8.8,0.0,-0.0,5.388445916248355E-16,8.8
18.799999999999997,1.018416278170941E-13,1663.1999999999946,0.0,0.0,0.0,0.0,60.0,0.0,0.0,5.388445916248355E-16,8.8,0.0,-0.0,5.388445916248355E-16,8.8
18.9,1.0238047240871894E-13,1671.9999999999945,0.0,0.0,0.0,0.0,60.0,0.0,0.0,5.388445916248355E-16,8.8,0.0,-0.0,5.388445916248355E-16,8.8
19.0,1.0291931700034377E-13,1680.7999999999945,0.0,0.0,0.0,0.0,60.0,0.0,0.0,5.388445916248355E-16,8.8,0.0,-0.0,5.388445916248355E-16,8.8
19.1,1.0345816159196861E-13,1689.5999999999945,0.0,0.0,0.0,0.0,60.0,0.0,0.0,5.388445916248355E-16,8.8,0.0,-0.0,5.388445916248355E-16,8.8
19.200000000000003,1.0399700618359345E-13,1698.3999999999944,0.0,0.0,0.0,0.0,60.0,0.0,0.0,5.388445916248355E-16,8.8,0.0,-0.0,5.388445916248355E-16,8.8
19.300000000000004,1.0453585077521829E-13,1707.1999999999944,0.0,0.0,0.0,0.0,60.0,0.0,0.0,5.388445916248355E-16,8.8,0.0,-0.0,5.388445916248355E-16,8.8
19.400000000000006,1.0507469536684312E-13,1715.9999999999943,0.0,0.0,0.0,0.0,60.0,0.0,0.0,5.388445916248355E-16,8.8,0.0,-0.0,5.388445916248355E-16,8.8
19.500000000000007,1.0561353995846796E-13,1724.7999999999943,0.0,0.0,0.0,0.0,60.0,0.0,0.0,5.388445916248355E-16,8.8,0.0,-0.0,5.388445916248355E-16,8.8
19.60000000000001,1.061523845500928E-13,1733.5999999999942,0.0,0.0,0.0,0.0,60.0,0.0,0.0,5.388445916248355E-16,8.8,0.0,-0.0,5.388445916248355E-16,8.8
19.70000000000001,1.0669122914171763E-13,1742.3999999999942,0.0,0.0,0.0,0.0,60.0,0.0,0.0,5.388445916248355E-16,8.8,0.0,-0.0,5.388445916248355E-16,8.8
19.80000000000001,1.0723007373334247E-13,1751.1999999999941,0.0,0.0,0.0,0.0,60.0,0.0,0.0,5.388445916248355E-16,8.8,0.0,-0.0,5.388445916248355E-16,8.8
19.900000000000013,1.0776891832496731E-13,1759.999999999994,0.0,0.0,0.0,0.0,60.0,0.0,0.0,5.388445916248355E-16,8.8,0.0,-0.0,5.388445916248355E-16,8.8
20.000000000000014,1.0830776291659215E-13,1768.799999999994,0.0,0.0,0.0,0.0,60.0,0.0,0.0,5.388445916248355E-16,8.8,0.0,-0.0,5.388445916248355E-16,8.8
20.100000000000016,1.0884660750821698E-13,1777.599999999994,0.0,0.0,0.0,0.0,60.0,0.0,0.0,5.388445916248355E-16,8.8,0.0,-0.0,5.388445916248355E-16,8.8
20.200000000000017,1.0938545209984182E-13,1786.399999999994,0.0,0.0,0.0,0.0,60.0,0.0,0.0,5.388445916248355E-16,8.8,0.0,-0.0,5.388445916248355E-16,8.8
20.30000000000002,1.0992429669146666E-13,1795.199999999994,0.0,0.0,0.0,0.0,60.0,0.0,0.0,5.388445916248355E-16,8.8,0.0,-0.0,5.388445916248355E-16,8.8
20.40000000000002,1.104631412830915E-13,1803.9999999999939,0.0,0.0,0.0,0.0,60.0,0.0,0.0,5.388445916248355E-16,8.8,0.0,-0.0,5.388445916248355E-16,8.8
20.50000000000002,1.1100198587471633E-13,1812.7999999999938,0.0,0.0,0.0,0.0,60.0,0.0,0.0,5.388445916248355E-16,8.8,0.0,-0.0,5.388445916248355E-16,8.8
20.600000000000023,1.1154083046634117E-13,1821.5999999999938,0.0,0.0,0.0,0.0,60.0,0.0,0.0,5.388445916248355E-16,8.8,0.0,-0.0,5.388445916248355E-16,8.8
20.700000000000024,1.1207967505796601E-13,1830.3999999999937,0.0,0.0,0.0,0.0,60.0,0.0,0.0,5.388445916248355E-16,8.8,0.0,-0.0,5.388445916248355E-16,8.8
20.800000000000026,1.1261851964959084E-13,1839.1999999999937,0.0,0.0,0.0,0.0,60.0,0.0,0.0,5.388445916248355E-16,8.8,0.0,-0.0,5.388445916248355E-16,8.8
20.900000000000027,1.1315736424121568E-13,1847.9999999999936,0.0,0.0,0.0,0.0,60.0,0.0,0.0,5.388445916248355E-16,8.8,0.0,-0.0,5.388445916248355E-16,8.8
21.00000000000003,1.136962088328405E-13,1856.7999999999936,0.0,0.0,0.0,0.0,60.0,0.0,0.0,5.388445916248355E-16,8.8,0.0,-0.0,5.388445916248355E-16,8.8
21.10000000000003,1.1423505342446533E-13,1865.5999999999935,0.0,0.0,0.0,0.0,60.0,0.0,0.0,5.388445916248355E-16,8.8,0.0,-0.0,5.388445916248355E-16,8.8
21.20000000000003,1.1477389801609015E-13,1874.3999999999935,0.0,0.0,0.0,0.0,60.0,0.0,0.0,5.388445916248355E-16,8.8,0.0,-0.0,5.388445916248355E-16,8.8
21.300000000000033,1.1531274260771498E-13,1883.1999999999935,0.0,0.0,0.0,0.0,60.0,0.0,0.0,5.388445916248355E-16,8.8,0.0,-0.0,5.388445916248355E-16,8.8
21.400000000000034,1.158515871993398E-13,1891.9999999999934,0.0,0.0,0.0,0.0,60.0,0.0,0.0,5.388445916248355E-16,8.8,0.0,-0.0,5.388445916248355E-16,8.8
21.500000000000036,1.1639043179096463E-13,1900.7999999999934,0.0,0.0,0.0,0.0,60.0,0.0,0.0,5.388445916248355E-16,8.8,0.0,-0.0,5.388445916248355E-16,8.8
21.600000000000037,1.1692927638258945E-13,1909.5999999999933,0.0,0.0,0.0,0.0,60.0,0.0,0.0,5.388445916248355E-16,8.8,0.0,-0.0,5.388445916248355E-16,8.8
21.70000000000004,1.1746812097421428E-13,1918.3999999999933,0.0,0.0,0.0,0.0,60.0,0.0,0.0,5.388445916248355E-16,8.8,0.0,-0.0,5.388445916248355E-16,8.8
21.80000000000004,1.180069655658391E-13,1927.1999999999932,0.0,0.0,0.0,0.0,60.0,0.0,0.0,5.388445916248355E-16,8.8,0.0,-0.0,5.388445916248355E-16,8.8
21.90000000000004,1.1854581015746393E-13,1935.9999999999932,0.0,0.0,0.0,0.0,60.0,0.0,0.0,5.388445916248355E-16,8.8,0.0,-0.0,5.388445916248355E-16,8.8
22.000000000000043,1.1908465474908875E-13,1944.7999999999931,0.0,0.0,0.0,0.0,60.0,0.0,0.0,5.388445916248355E-16,8.8,0.0,-0.0,5.388445916248355E-16,8.8
22.100000000000044,1.1962349934071358E-13,1953.599999999993,0.0,0.0,0.0,0.0,60.0,0.0,0.0,5.388445916248355E-16,8.8,0.0,-0.0,5.388445916248355E-16,8.8
22.200000000000045,1.201623439323384E-13,1962.399999999993,0.0,0.0,0.0,0.0,60.0,0.0,0.0,5.388445916248355E-16,8.8,0.0,-0.0,5.388445916248355E-16,8.8
22.300000000000047,1.2070118852396322E-13,1971.199999999993,0.0,0.0,0.0,0.0,60.0,0.0,0.0,5.388445916248355E-16,8.8,0.0,-0.0,5.388445916248355E-16,8.8
22.40000000000005,1.2124003311558805E-13,1979.999999999993,0.0,0.0,0.0,0.0,60.0,0.0,0.0,5.388445916248355E-16,8.8,0.0,-0.0,5.388445916248355E-16,8.8
22.50000000000005,1.2177887770721287E-13,1988.799999999993,0.0,0.0,0.0,0.0,60.0,0.0,0.0,5.388445916248355E-16,8.8,0.0,-0.0,5.388445916248355E-16,8.8
22.60000000000005,1.223177222988377E-13,1997.5999999999929,0.0,0.0,0.0,0.0,60.0,0.0,0.0,5.388445916248355E-16,8.8,0.0,-0.0,5.388445916248355E-16,8.8
22.700000000000053,1.2285656689046252E-13,2006.3999999999928,0.0,0.0,0.0,0.0,60.0,0.0,0.0,5.388445916248355E-16,8.8,0.0,-0.0,5.388445916248355E-16,8.8
22.800000000000054,1.2339541148208735E-13,2015.1999999999928,0.0,0.0,0.0,0.0,60.0,0.0,0.0,5.388445916248355E-16,8.8,0.0,-0.0,5.388445916248355E-16,8.8
22.900000000000055,1.2393425607371217E-13,2023.9999999999927,0.0,0.0,0.0,0.0,60.0,0.0,0.0,5.388445916248355E-16,8.8,0.0,-0.0,5.388445916248355E-16,8.8
23.000000000000057,1.24473100665337E-13,2032.7999999999927,0.0,0.0,0.0,0.0,60.0,0.0,0.0,5.388445916248355E-16,8.8,0.0,-0.0,5.388445916248355E-16,8.8
23.10000000000006,1.2501194525696182E-13,2041.5999999999926,0.0,0.0,0.0,0.0,60.0,0.0,0.0,5.388445916248355E-16,8.8,0.0,-0.0,5.388445916248355E-16,8.8
23.20000000000006,1.2555078984858665E-13,2050.399999999993,0.0,0.0,0.0,0.0,60.0,0.0,0.0,5.388445916248355E-16,8.8,0.0,-0.0,5.388445916248355E-16,8.8
23.30000000000006,1.2608963444021147E-13,2059.199999999993,0.0,0.0,0.0,0.0,60.0,0.0,0.0,5.388445916248355E-16,8.8,0.0,-0.0,5.388445916248355E-16,8.8
23.400000000000063,1.266284790318363E-13,2067.999999999993,0.0,0.0,0.0,0.0,60.0,0.0,0.0,5.388445916248355E-16,8.8,0.0,-0.0,5.388445916248355E-16,8.8
23.500000000000064,1.2716732362346112E-13,2076.7999999999934,0.0,0.0,0.0,0.0,60.0,0.0,0.0,5.388445916248355E-16,8.8,0.0,-0.0,5.388445916248355E-16,8.8
23.600000000000065,1.2770616821508594E-13,2085.5999999999935,0.0,0.0,0.0,0.0,60.0,0.0,0.0,5.388445916248355E-16,8.8,0.0,-0.0,5.388445916248355E-16,8.8
23.700000000000067,1.2824501280671077E-13,2094.3999999999937,0.0,0.0,0.0,0.0,60.0,0.0,0.0,5.388445916248355E-16,8.8,0.0,-0.0,5.388445916248355E-16,8.8
23.800000000000068,1.287838573983356E-13,2103.199999999994,0.0,0.0,0.0,0.0,60.0,0.0,0.0,5.388445916248355E-16,8.8,0.0,-0.0,5.388445916248355E-16,8.8
23.90000000000007,1.2932270198996042E-13,2111.999999999994,0.0,0.0,0.0,0.0,60.0,0.0,0.0,5.388445916248355E-16,8.8,0.0,-0.0,5.388445916248355E-16,8.8
24.00000000000007,1.2986154658158524E-13,2120.7999999999943,0.0,0.0,0.0,0.0,60.0,0.0,0.0,5.388445916248355E-16,8.8,0.0,-0.0,5.388445916248355E-16,8.8
24.100000000000072,1.3040039117321007E-13,2129.5999999999945,0.0,0.0,0.0,0.0,60.0,0.0,0.0,5.388445916248355E-16,8.8,0.0,-0.0,5.388445916248355E-16,8.8
24.200000000000074,1.309392357648349E-13,2138.3999999999946,0.0,0.0,0.0,0.0,60.0,0.0,0.0,5.388445916248355E-16,8.8,0.0,-0.0,5.388445916248355E-16,8.8
24.300000000000075,1.3147808035645972E-13,2147.199999999995,0.0,0.0,0.0,0.0,60.0,0.0,0.0,5.388445916248355E-16,8.8,0.0,-0.0,5.388445916248355E-16,8.8
24.400000000000077,1.3201692494808454E-13,2155.999999999995,0.0,0.0,0.0,0.0,60.0,0.0,0.0,5.388445916248355E-16,8.8,0.0,-0.0,5.388445916248355E-16,8.8
24.500000000000078,1.3255576953970936E-13,2164.799999999995,0.0,0.0,0.0,0.0,60.0,0.0,0.0,5.388445916248355E-16,8.8,0.0,-0.0,5.388445916248355E-16,8.8
24.60000000000008,1.330946141313342E-13,2173.5999999999954,0.0,0.0,0.0,0.0,60.0,0.0,0.0,5.388445916248355E-16,8.8,0.0,-0.0,5.388445916248355E-16,8.8
24.70000000000008,1.3363345872295901E-13,2182.3999999999955,0.0,0.0,0.0,0.0,60.0,0.0,0.0,5.388445916248355E-16,8.8,0.0,-0.0,5.388445916248355E-16,8.8
24.800000000000082,1.3417230331458384E-13,2191.1999999999957,0.0,0.0,0.0,0.0,60.0,0.0,0.0,5.388445916248355E-16,8.8,0.0,-0.0,5.388445916248355E-16,8.8
24.900000000000084,1.3471114790620866E-13,2199.999999999996,0.0,0.0,0.0,0.0,60.0,0.0,0.0,5.388445916248355E-16,8.8,0.0,-0.0,5.388445916248355E-16,8.8
25.000000000000085,1.352499924978335E-13,2208.799999999996,0.0,0.0,0.0,0.0,60.0,0.0,0.0,5.388445916248355E-16,8.8,0.0,-0.0,5.388445916248355E-16,8.8
25.100000000000087,1.357888370894583E-13,2217.5999999999963,0.0,0.0,0.0,0.0,60.0,0.0,0.0,5.388445916248355E-16,8.8,0.0,-0.0,5.388445916248355E-16,8.8
25.200000000000088,1.3632768168108314E-13,2226.3999999999965,0.0,0.0,0.0,0.0,60.0,0.0,0.0,5.388445916248355E-16,8.8,0.0,-0.0,5.388445916248355E-16,8.8
25.30000000000009,1.3686652627270796E-13,2235.1999999999966,0.0,0.0,0.0,0.0,60.0,0.0,0.0,5.388445916248355E-16,8.8,0.0,-0.0,5.388445916248355E-16,8.8
25.40000000000009,1.3740537086433279E-13,2243.999999999997,0.0,0.0,0.0,0.0,60.0,0.0,0.0,5.388445916248355E-16,8.8,0.0,-0.0,5.388445916248355E-16,8.8
25.500000000000092,1.379442154559576E-13,2252.799999999997,0.0,0.0,0.0,0.0,60.0,0.0,0.0,5.388445916248355E-16,8.8,0.0,-0.0,5.388445916248355E-16,8.8
25.600000000000094,1.3848306004758243E-13,2261.599999999997,0.0,0.0,0.0,0.0,60.0,0.0,0.0,5.388445916248355E-16,8.8,0.0,-0.0,5.388445916248355E-16,8.8
25.700000000000095,1.3902190463920726E-13,2270.3999999999974,0.0,0.0,0.0,0.0,60.0,0.0,0.0,5.388445916248355E-16,8.8,0.0,-0.0,5.388445916248355E-16,8.8
25.800000000000097,1.3956074923083208E-13,2279.1999999999975,0.0,0.0,0.0,0.0,60.0,0.0,0.0,5.388445916248355E-16,8.8,0.0,-0.0,5.388445916248355E-16,8.8
25.900000000000098,1.400995938224569E-13,2287.9999999999977,0.0,0.0,0.0,0.0,60.0,0.0,0.0,5.388445916248355E-16,8.8,0.0,-0.0,5.388445916248355E-16,8.8
26.0000000000001,1.4063843841408173E-13,2296.799999999998,0.0,0.0,0.0,0.0,60.0,0.0,0.0,5.388445916248355E-16,8.8,0.0,-0.0,5.388445916248355E-16,8.8
26.1000000000001,1.4117728300570656E-13,2305.599999999998,0.0,0.0,0.0,0.0,60.0,0.0,0.0,5.388445916248355E-16,8.8,0.0,-0.0,5.388445916248355E-16,8.8
26.200000000000102,1.4171612759733138E-13,2314.3999999999983,0.0,0.0,0.0,0.0,60.0,0.0,0.0,5.388445916248355E-16,8.8,0.0,-0.0,5.388445916248355E-16,8.8
26.300000000000104,1.422549721889562E-13,2323.1999999999985,0.0,0.0,0.0,0.0,60.0,0.0,0.0,5.388445916248355E-16,8.8,0.0,-0.0,5.388445916248355E-16,8.8
26.400000000000105,1.4279381678058103E-13,2331.9999999999986,0.0,0.0,0.0,0.0,60.0,0.0,0.0,5.388445916248355E-16,8.8,0.0,-0.0,5.388445916248355E-16,8.8
26.500000000000107,1.4333266137220586E-13,2340.799999999999,0.0,0.0,0.0,0.0,60.0,0.0,0.0,5.388445916248355E-16,8.8,0.0,-0.0,5.388445916248355E-16,8.8
26.600000000000108,1.4387150596383068E-13,2349.599999999999,0.0,0.0,0.0,0.0,60.0,0.0,0.0,5.388445916248355E-16,8.8,0.0,-0.0,5.388445916248355E-16,8.8
26.70000000000011,1.444103505554555E-13,2358.399999999999,0.0,0.0,0.0,0.0,60.0,0.0,0.0,5.388445916248355E-16,8.8,0.0,-0.0,5.388445916248355E-16,8.8
26.80000000000011,1.4494919514708033E-13,2367.1999999999994,0.0,0.0,0.0,0.0,60.0,0.0,0.0,5.388445916248355E-16,8.8,0.0,-0.0,5.388445916248355E-16,8.8
26.900000000000112,1.4548803973870515E-13,2375.9999999999995,0.0,0.0,0.0,0.0,60.0,0.0,0.0,5.388445916248355E-16,8.8,0.0,-0.0,5.388445916248355E-16,8.8
27.000000000000114,1.4602688433032998E-13,2384.7999999999997,0.0,0.0,0.0,0.0,60.0,0.0,0.0,5.388445916248355E-16,8.8,0.0,-0.0,5.388445916248355E-16,8.8
27.100000000000115,1.465657289219548E-13,2393.6,0.0,0.0,0.0,0.0,60.0,0.0,0.0,5.388445916248355E-16,8.8,0.0,-0.0,5.388445916248355E-16,8.8
27.200000000000117,1.4710457351357963E-13,2402.4,0.0,0.0,0.0,0.0,60.0,0.0,0.0,5.388445916248355E-16,8.8,0.0,-0.0,5.388445916248355E-16,8.8
27.300000000000118,1.4764341810520445E-13,2411.2000000000003,0.0,0.0,0.0,0.0,60.0,0.0,0.0,5.388445916248355E-16,8.8,0.0,-0.0,5.388445916248355E-16,8.8
27.40000000000012,1.4818226269682928E-13,2420.0000000000005,0.0,0.0,0.0,0.0,60.0,0.0,0.0,5.388445916248355E-16,8.8,0.0,-0.0,5.388445916248355E-16,8.8
27.50000000000012,1.487211072884541E-13,2428.8000000000006,0.0,0.0,0.0,0.0,60.0,0.0,0.0,5.388445916248355E-16,8.8,0.0,-0.0,5.388445916248355E-16,8.8
27.600000000000122,1.4925995188007893E-13,2437.600000000001,0.0,0.0,0.0,0.0,60.0,0.0,0.0,5.388445916248355E-16,8.8,0.0,-0.0,5.388445916248355E-16,8.8
27.700000000000124,1.4979879647170375E-13,2446.400000000001,0.0,0.0,0.0,0.0,60.0,0.0,0.0,5.388445916248355E-16,8.8,0.0,-0.0,5.388445916248355E-16,8.8
27.800000000000125,1.5033764106332858E-13,2455.200000000001,0.0,0.0,0.0,0.0,60.0,0.0,0.0,5.388445916248355E-16,8.8,0.0,-0.0,5.388445916248355E-16,8.8
27.900000000000126,1.508764856549534E-13,2464.0000000000014,0.0,0.0,0.0,0.0,60.0,0.0,0.0,5.388445916248355E-16,8.8,0.0,-0.0,5.388445916248355E-16,8.8
28.000000000000128,1.5141533024657822E-13,2472.8000000000015,0.0,0.0,0.0,0.0,60.0,0.0,0.0,5.388445916248355E-16,8.8,0.0,-0.0,5.388445916248355E-16,8.8
28.10000000000013,1.5195417483820305E-13,2481.6000000000017,0.0,0.0,0.0,0.0,60.0,0.0,0.0,5.388445916248355E-16,8.8,0.0,-0.0,5.388445916248355E-16,8.8
28.20000000000013,1.5249301942982787E-13,2490.400000000002,0.0,0.0,0.0,0.0,60.0,0.0,0.0,5.388445916248355E-16,8.8,0.0,-0.0,5.388445916248355E-16,8.8
28.300000000000132,1.530318640214527E-13,2499.200000000002,0.0,0.0,0.0,0.0,60.0,0.0,0.0,5.388445916248355E-16,8.8,0.0,-0.0,5.388445916248355E-16,8.8
28.400000000000134,1.5357070861307752E-13,2508.0000000000023,0.0,0.0,0.0,0.0,60.0,0.0,0.0,5.388445916248355E-16,8.8,0.0,-0.0,5.388445916248355E-16,8.8
28.500000000000135,1.5410955320470235E-13,2516.8000000000025,0.0,0.0,0.0,0.0,60.0,0.0,0.0,5.388445916248355E-16,8.8,0.0,-0.0,5.388445916248355E-16,8.8
28.600000000000136,1.5464839779632717E-13,2525.6000000000026,0.0,0.0,0.0,0.0,60.0,0.0,0.0,5.388445916248355E-16,8.8,0.0,-0.0,5.388445916248355E-16,8.8
28.700000000000138,1.55187242387952E-13,2534.400000000003,0.0,0.0,0.0,0.0,60.0,0.0,0.0,5.388445916248355E-16,8.8,0.0,-0.0,5.388445916248355E-16,8.8
28.80000000000014,1.5572608697957682E-13,2543.200000000003,0.0,0.0,0.0,0.0,60.0,0.0,0.0,5.388445916248355E-16,8.8,0.0,-0.0,5.388445916248355E-16,8.8
28.90000000000014,1.5626493157120165E-13,2552.000000000003,0.0,0.0,0.0,0.0,60.0,0.0,0.0,5.388445916248355E-16,8.8,0.0,-0.0,5.388445916248355E-16,8.8
29.000000000000142,1.5680377616282647E-13,2560.8000000000034,0.0,0.0,0.0,0.0,60.0,0.0,0.0,5.388445916248355E-16,8.8,0.0,-0.0,5.388445916248355E-16,8.8
29.100000000000144,1.573426207544513E-13,2569.6000000000035,0.0,0.0,0.0,0.0,60.0,0.0,0.0,5.388445916248355E-16,8.8,0.0,-0.0,5.388445916248355E-16,8.8
29.200000000000145,1.5788146534607612E-13,2578.4000000000037,0.0,0.0,0.0,0.0,60.0,0.0,0.0,5.388445916248355E-16,8.8,0.0,-0.0,5.388445916248355E-16,8.8
29.300000000000146,1.5842030993770094E-13,2587.200000000004,0.0,0.0,0.0,0.0,60.0,0.0,0.0,5.388445916248355E-16,8.8,0.0,-0.0,5.388445916248355E-16,8.8
29.400000000000148,1.5895915452932577E-13,2596.000000000004,0.0,0.0,0.0,0.0,60.0,0.0,0.0,5.388445916248355E-16,8.8,0.0,-0.0,5.388445916248355E-16,8.8
29.50000000000015,1.594979991209506E-13,2604.8000000000043,0.0,0.0,0.0,0.0,60.0,0.0,0.0,5.388445916248355E-16,8.8,0.0,-0.0,5.388445916248355E-16,8.8
29.60000000000015,1.6003684371257542E-13,2613.6000000000045,0.0,0.0,0.0,0.0,60.0,0.0,0.0,5.388445916248355E-16,8.8,0.0,-0.0,5.388445916248355E-16,8.8
29.700000000000152,1.6057568830420024E-13,2622.4000000000046,0.0,0.0,0.0,0.0,60.0,0.0,0.0,5.388445916248355E-16,8.8,0.0,-0.0,5.388445916248355E-16,8.8
29.800000000000153,1.6111453289582507E-13,2631.200000000005,0.0,0.0,0.0,0.0,60.0,0.0,0.0,5.388445916248355E-16,8.8,0.0,-0.0,5.388445916248355E-16,8.8
29.900000000000155,1.616533774874499E-13,2640.000000000005,0.0,0.0,0.0,0.0,60.0,0.0,0.0,5.388445916248355E-16,8.8,0.0,-0.0,5.388445916248355E-16,8.8
30.000000000000156,1.6219222207907472E-13,2648.800000000005,0.0,0.0,0.0,0.0,60.0,0.0,0.0,5.388445916248355E-16,8.8,0.0,-0.0,5.388445916248355E-16,8.8
30.100000000000158,1.6273106667069954E-13,2657.6000000000054,0.0,0.0,0.0,0.0,60.0,0.0,0.0,5.388445916248355E-16,8.8,0.0,-0.0,5.388445916248355E-16,8.8
30.20000000000016,1.6326991126232436E-13,2666.4000000000055,0.0,0.0,0.0,0.0,60.0,0.0,0.0,5.388445916248355E-16,8.8,0.0,-0.0,5.388445916248355E-16,8.8
30.30000000000016,1.638087558539492E-13,2675.2000000000057,0.0,0.0,0.0,0.0,60.0,0.0,0.0,5.388445916248355E-16,8.8,0.0,-0.0,5.388445916248355E-16,8.8
30.400000000000162,1.6434760044557401E-13,2684.000000000006,0.0,0.0,0.0,0.0,60.0,0.0,0.0,5.388445916248355E-16,8.8,0.0,-0.0,5.388445916248355E-16,8.8
30.500000000000163,1.6488644503719884E-13,2692.800000000006,0.0,0.0,0.0,0.0,60.0,0.0,0.0,5.388445916248355E-16,8.8,0.0,-0.0,5.388445916248355E-16,8.8
30.600000000000165,1.6542528962882366E-13,2701.6000000000063,0.0,0.0,0.0,0.0,60.0,0.0,0.0,5.388445916248355E-16,8.8,0.0,-0.0,5.388445916248355E-16,8.8
30.700000000000166,1.6596413422044849E-13,2710.4000000000065,0.0,0.0,0.0,0.0,60.0,0.0,0.0,5.388445916248355E-16,8.8,0.0,-0.0,5.388445916248355E-16,8.8
30.800000000000168,1.665029788120733E-13,2719.2000000000066,0.0,0.0,0.0,0.0,60.0,0.0,0.0,5.388445916248355E-16,8.8,0.0,-0.0,5.388445916248355E-16,8.8
30.90000000000017,1.6704182340369814E-13,2728.000000000007,0.0,0.0,0.0,0.0,60.0,0.0,0.0,5.388445916248355E-16,8.8,0.0,-0.0,5.388445916248355E-16,8.8
31.00000000000017,1.6758066799532296E-13,2736.800000000007,0.0,0.0,0.0,0.0,60.0,0.0,0.0,5.388445916248355E-16,8.8,0.0,-0.0,5.388445916248355E-16,8.8
31.100000000000172,1.6811951258694779E-13,2745.600000000007,0.0,0.0,0.0,0.0,60.0,0.0,0.0,5.388445916248355E-16,8.8,0.0,-0.0,5.388445916248355E-16,8.8
31.200000000000173,1.686583571785726E-13,2754.4000000000074,0.0,0.0,0.0,0.0,60.0,0.0,0.0,5.388445916248355E-16,8.8,0.0,-0.0,5.388445916248355E-16,8.8
31.300000000000175,1.6919720177019743E-13,2763.2000000000075,0.0,0.0,0.0,0.0,60.0,0.0,0.0,5.388445916248355E-16,8.8,0.0,-0.0,5.388445916248355E-16,8.8
31.400000000000176,1.6973604636182226E-13,2772.0000000000077,0.0,0.0,0.0,0.0,60.0,0.0,0.0,5.388445916248355E-16,8.8,0.0,-0.0,5.388445916248355E-16,8.8
31.500000000000178,1.7027489095344708E-13,2780.800000000008,0.0,0.0,0.0,0.0,60.0,0.0,0.0,5.388445916248355E-16,8.8,0.0,-0.0,5.388445916248355E-16,8.8
31.60000000000018,1.708137355450719E-13,2789.600000000008,0.0,0.0,0.0,0.0,60.0,0.0,0.0,5.388445916248355E-16,8.8,0.0,-0.0,5.388445916248355E-16,8.8
31.70000000000018,1.7135258013669673E-13,2798.4000000000083,0.0,0.0,0.0,0.0,60.0,0.0,0.0,5.388445916248355E-16,8.8,0.0,-0.0,5.388445916248355E-16,8.8
31.800000000000182,1.7189142472832156E-13,2807.2000000000085,0.0,0.0,0.0,0.0,60.0,0.0,0.0,5.388445916248355E-16,8.8,0.0,-0.0,5.388445916248355E-16,8.8
31.900000000000183,1.7243026931994638E-13,2816.0000000000086,0.0,0.0,0.0,0.0,60.0,0.0,0.0,5.388445916248355E-16,8.8,0.0,-0.0,5.388445916248355E-16,8.8
32.000000000000185,1.729691139115712E-13,2824.800000000009,0.0,0.0,0.0,0.0,60.0,0.0,0.0,5.388445916248355E-16,8.8,0.0,-0.0,5.388445916248355E-16,8.8
32.100000000000186,1.7350795850319603E-13,2833.600000000009,0.0,0.0,0.0,0.0,60.0,0.0,0.0,5.388445916248355E-16,8.8,0.0,-0.0,5.388445916248355E-16,8.8
32.20000000000019,1.7404680309482086E-13,2842.400000000009,0.0,0.0,0.0,0.0,60.0,0.0,0.0,5.388445916248355E-16,8.8,0.0,-0.0,5.388445916248355E-16,8.8
32.30000000000019,1.7458564768644568E-13,2851.2000000000094,0.0,0.0,0.0,0.0,60.0,0.0,0.0,5.388445916248355E-16,8.8,0.0,-0.0,5.388445916248355E-16,8.8
32.40000000000019,1.751244922780705E-13,2860.0000000000095,0.0,0.0,0.0,0.0,60.0,0.0,0.0,5.388445916248355E-16,8.8,0.0,-0.0,5.388445916248355E-16,8.8
32.50000000000019,1.7566333686969533E-13,2868.8000000000097,0.0,0.0,0.0,0.0,60.0,0.0,0.0,5.388445916248355E-16,8.8,0.0,-0.0,5.388445916248355E-16,8.8
32.60000000000019,1.7620218146132015E-13,2877.60000000001,0.0,0.0,0.0,0.0,60.0,0.0,0.0,5.388445916248355E-16,8.8,0.0,-0.0,5.388445916248355E-16,8.8
32.700000000000195,1.7674102605294498E-13,2886.40000000001,0.0,0.0,0.0,0.0,60.0,0.0,0.0,5.388445916248355E-16,8.8,0.0,-0.0,5.388445916248355E-16,8.8
32.800000000000196,1.772798706445698E-13,2895.2000000000103,0.0,0.0,0.0,0.0,60.0,0.0,0.0,5.388445916248355E-16,8.8,0.0,-0.0,5.388445916248355E-16,8.8
32.9000000000002,1.7781871523619463E-13,2904.0000000000105,0.0,0.0,0.0,0.0,60.0,0.0,0.0,5.388445916248355E-16,8.8,0.0,-0.0,5.388445916248355E-16,8.8
33.0000000000002,1.7835755982781945E-13,2912.8000000000106,0.0,0.0,0.0,0.0,60.0,0.0,0.0,5.388445916248355E-16,8.8,0.0,-0.0,5.388445916248355E-16,8.8
33.1000000000002,1.7889640441944428E-13,2921.600000000011,0.0,0.0,0.0,0.0,60.0,0.0,0.0,5.388445916248355E-16,8.8,0.0,-0.0,5.388445916248355E-16,8.8
33.2000000000002,1.794352490110691E-13,2930.400000000011,0.0,0.0,0.0,0.0,60.0,0.0,0.0,5.388445916248355E-16,8.8,0.0,-0.0,5.388445916248355E-16,8.8
33.3000000000002,1.7997409360269393E-13,2939.200000000011,0.0,0.0,0.0,0.0,60.0,0.0,0.0,5.388445916248355E-16,8.8,0.0,-0.0,5.388445916248355E-16,8.8
33.400000000000205,1.8051293819431875E-13,2948.0000000000114,0.0,0.0,0.0,0.0,60.0,0.0,0.0,5.388445916248355E-16,8.8,0.0,-0.0,5.388445916248355E-16,8.8
33.500000000000206,1.8105178278594357E-13,2956.8000000000116,0.0,0.0,0.0,0.0,60.0,0.0,0.0,5.388445916248355E-16,8.8,0.0,-0.0,5.388445916248355E-16,8.8
33.60000000000021,1.815906273775684E-13,2965.6000000000117,0.0,0.0,0.0,0.0,60.0,0.0,0.0,5.388445916248355E-16,8.8,0.0,-0.0,5.388445916248355E-16,8.8
33.70000000000021,1.8212947196919322E-13,2974.400000000012,0.0,0.0,0.0,0.0,60.0,0.0,0.0,5.388445916248355E-16,8.8,0.0,-0.0,5.388445916248355E-16,8.8
33.80000000000021,1.8266831656081805E-13,2983.200000000012,0.0,0.0,0.0,0.0,60.0,0.0,0.0,5.388445916248355E-16,8.8,0.0,-0.0,5.388445916248355E-16,8.8
33.90000000000021,1.8320716115244287E-13,2992.0000000000123,0.0,0.0,0.0,0.0,60.0,0.0,0.0,5.388445916248355E-16,8.8,0.0,-0.0,5.388445916248355E-16,8.8
34.00000000000021,1.837460057440677E-13,3000.8000000000125,0.0,0.0,0.0,0.0,60.0,0.0,0.0,5.388445916248355E-16,8.8,0.0,-0.0,5.388445916248355E-16,8.8
34.100000000000215,1.8428485033569252E-13,3009.6000000000126,0.0,0.0,0.0,0.0,60.0,0.0,0.0,5.388445916248355E-16,8.8,0.0,-0.0,5.388445916248355E-16,8.8
34.200000000000216,1.8482369492731735E-13,3018.400000000013,0.0,0.0,0.0,0.0,60.0,0.0,0.0,5.388445916248355E-16,8.8,0.0,-0.0,5.388445916248355E-16,8.8
34.30000000000022,1.8536253951894217E-13,3027.200000000013,0.0,0.0,0.0,0.0,60.0,0.0,0.0,5.388445916248355E-16,8.8,0.0,-0.0,5.388445916248355E-16,8.8
34.40000000000022,1.85901384110567E-13,3036.000000000013,0.0,0.0,0.0,0.0,60.0,0.0,0.0,5.388445916248355E-16,8.8,0.0,-0.0,5.388445916248355E-16,8.8
34.50000000000022,1.8644022870219182E-13,3044.8000000000134,0.0,0.0,0.0,0.0,60.0,0.0,0.0,5.388445916248355E-16,8.8,0.0,-0.0,5.388445916248355E-16,8.8
34.60000000000022,1.8697907329381664E-13,3053.6000000000136,0.0,0.0,0.0,0.0,60.0,0.0,0.0,5.388445916248355E-16,8.8,0.0,-0.0,5.388445916248355E-16,8.8
34.70000000000022,1.8751791788544147E-13,3062.4000000000137,0.0,0.0,0.0,0.0,60.0,0.0,0.0,5.388445916248355E-16,8.8,0.0,-0.0,5.388445916248355E-16,8.8
34.800000000000225,1.880567624770663E-13,3071.200000000014,0.0,0.0,0.0,0.0,60.0,0.0,0.0,5.388445916248355E-16,8.8,0.0,-0.0,5.388445916248355E-16,8.8
34.900000000000226,1.8859560706869112E-13,3080.000000000014,0.0,0.0,0.0,0.0,60.0,0.0,0.0,5.388445916248355E-16,8.8,0.0,-0.0,5.388445916248355E-16,8.8
35.00000000000023,1.8913445166031594E-13,3088.8000000000143,0.0,0.0,0.0,0.0,60.0,0.0,0.0,5.388445916248355E-16,8.8,0.0,-0.0,5.388445916248355E-16,8.8
35.10000000000023,1.8967329625194077E-13,3097.6000000000145,0.0,0.0,0.0,0.0,60.0,0.0,0.0,5.388445916248355E-16,8.8,0.0,-0.0,5.388445916248355E-16,8.8
35.20000000000023,1.902121408435656E-13,3106.4000000000146,0.0,0.0,0.0,0.0,60.0,0.0,0.0,5.388445916248355E-16,8.8,0.0,-0.0,5.388445916248355E-16,8.8
35.30000000000023,1.9075098543519042E-13,3115.200000000015,0.0,0.0,0.0,0.0,60.0,0.0,0.0,5.388445916248355E-16,8.8,0.0,-0.0,5.388445916248355E-16,8.8
35.40000000000023,1.9128983002681524E-13,3124.000000000015,0.0,0.0,0.0,0.0,60.0,0.0,0.0,5.388445916248355E-16,8.8,0.0,-0.0,5.388445916248355E-16,8.8
35.500000000000234,1.9182867461844007E-13,3132.800000000015,0.0,0.0,0.0,0.0,60.0,0.0,0.0,5.388445916248355E-16,8.8,0.0,-0.0,5.388445916248355E-16,8.8
35.600000000000236,1.923675192100649E-13,3141.6000000000154,0.0,0.0,0.0,0.0,60.0,0.0,0.0,5.388445916248355E-16,8.8,0.0,-0.0,5.388445916248355E-16,8.8
35.70000000000024,1.9290636380168971E-13,3150.4000000000156,0.0,0.0,0.0,0.0,60.0,0.0,0.0,5.388445916248355E-16,8.8,0.0,-0.0,5.388445916248355E-16,8.8
35.80000000000024,1.9344520839331454E-13,3159.2000000000157,0.0,0.0,0.0,0.0,60.0,0.0,0.0,5.388445916248355E-16,8.8,0.0,-0.0,5.388445916248355E-16,8.8
35.90000000000024,1.9398405298493936E-13,3168.000000000016,0.0,0.0,0.0,0.0,60.0,0.0,0.0,5.388445916248355E-16,8.8,0.0,-0.0,5.388445916248355E-16,8.8
36.00000000000024,1.945228975765642E-13,3176.800000000016,0.0,0.0,0.0,0.0,60.0,0.0,0.0,5.388445916248355E-16,8.8,0.0,-0.0,5.388445916248355E-16,8.8
36.10000000000024,1.9506174216818901E-13,3185.6000000000163,0.0,0.0,0.0,0.0,60.0,0.0,0.0,5.388445916248355E-16,8.8,0.0,-0.0,5.388445916248355E-16,8.8
36.200000000000244,1.9560058675981384E-13,3194.4000000000165,0.0,0.0,0.0,0.0,60.0,0.0,0.0,5.388445916248355E-16,8.8,0.0,-0.0,5.388445916248355E-16,8.8
36.300000000000246,1.9613943135143866E-13,3203.2000000000166,0.0,0.0,0.0,0.0,60.0,0.0,0.0,5.388445916248355E-16,8.8,0.0,-0.0,5.388445916248355E-16,8.8
36.40000000000025,1.9667827594306349E-13,3212.000000000017,0.0,0.0,0.0,0.0,60.0,0.0,0.0,5.388445916248355E-16,8.8,0.0,-0.0,5.388445916248355E-16,8.8
36.50000000000025,1.972171205346883E-13,3220.800000000017,0.0,0.0,0.0,0.0,60.0,0.0,0.0,5.388445916248355E-16,8.8,0.0,-0.0,5.388445916248355E-16,8.8
36.60000000000025,1.9775596512631314E-13,3229.600000000017,0.0,0.0,0.0,0.0,60.0,0.0,0.0,5.388445916248355E-16,8.8,0.0,-0.0,5.388445916248355E-16,8.8
36.70000000000025,1.9829480971793796E-13,3238.4000000000174,0.0,0.0,0.0,0.0,60.0,0.0,0.0,5.388445916248355E-16,8.8,0.0,-0.0,5.388445916248355E-16,8.8
36.80000000000025,1.9883365430956278E-13,3247.2000000000176,0.0,0.0,0.0,0.0,60.0,0.0,0.0,5.388445916248355E-16,8.8,0.0,-0.0,5.388445916248355E-16,8.8
36.900000000000254,1.993724989011876E-13,3256.0000000000177,0.0,0.0,0.0,0.0,60.0,0.0,0.0,5.388445916248355E-16,8.8,0.0,-0.0,5.388445916248355E-16,8.8
37.000000000000256,1.9991134349281243E-13,3264.800000000018,0.0,0.0,0.0,0.0,60.0,0.0,0.0,5.388445916248355E-16,8.8,0.0,-0.0,5.388445916248355E-16,8.8
37.10000000000026,2.0045018808443726E-13,3273.600000000018,0.0,0.0,0.0,0.0,60.0,0.0,0.0,5.388445916248355E-16,8.8,0.0,-0.0,5.388445916248355E-16,8.8
37.20000000000026,2.0098903267606208E-13,3282.4000000000183,0.0,0.0,0.0,0.0,60.0,0.0,0.0,5.388445916248355E-16,8.8,0.0,-0.0,5.388445916248355E-16,8.8
37.30000000000026,2.015278772676869E-13,3291.2000000000185,0.0,0.0,0.0,0.0,60.0,0.0,0.0,5.388445916248355E-16,8.8,0.0,-0.0,5.388445916248355E-16,8.8
37.40000000000026,2.0206672185931173E-13,3300.0000000000186,0.0,0.0,0.0,0.0,60.0,0.0,0.0,5.388445916248355E-16,8.8,0.0,-0.0,5.388445916248355E-16,8.8
37.50000000000026,2.0260556645093656E-13,3308.800000000019,0.0,0.0,0.0,0.0,60.0,0.0,0.0,5.388445916248355E-16,8.8,0.0,-0.0,5.388445916248355E-16,8.8
37.600000000000264,2.0314441104256138E-13,3317.600000000019,0.0,0.0,0.0,0.0,60.0,0.0,0.0,5.388445916248355E-16,8.8,0.0,-0.0,5.388445916248355E-16,8.8
37.700000000000266,2.036832556341862E-13,3326.400000000019,0.0,0.0,0.0,0.0,60.0,0.0,0.0,5.388445916248355E-16,8.8,0.0,-0.0,5.388445916248355E-16,8.8
37.80000000000027,2.0422210022581103E-13,3335.2000000000194,0.0,0.0,0.0,0.0,60.0,0.0,0.0,5.388445916248355E-16,8.8,0.0,-0.0,5.388445916248355E-16,8.8
37.90000000000027,2.0476094481743586E-13,3344.0000000000196,0.0,0.0,0.0,0.0,60.0,0.0,0.0,5.388445916248355E-16,8.8,0.0,-0.0,5.388445916248355E-16,8.8
38.00000000000027,2.0529978940906068E-13,3352.8000000000197,0.0,0.0,0.0,0.0,60.0,0.0,0.0,5.388445916248355E-16,8.8,0.0,-0.0,5.388445916248355E-16,8.8
38.10000000000027,2.058386340006855E-13,3361.60000000002,0.0,0.0,0.0,0.0,60.0,0.0,0.0,5.388445916248355E-16,8.8,0.0,-0.0,5.388445916248355E-16,8.8
38.20000000000027,2.0637747859231033E-13,3370.40000000002,0.0,0.0,0.0,0.0,60.0,0.0,0.0,5.388445916248355E-16,8.8,0.0,-0.0,5.388445916248355E-16,8.8
38.300000000000274,2.0691632318393515E-13,3379.2000000000203,0.0,0.0,0.0,0.0,60.0,0.0,0.0,5.388445916248355E-16,8.8,0.0,-0.0,5.388445916248355E-16,8.8
38.400000000000276,2.0745516777555998E-13,3388.0000000000205,0.0,0.0,0.0,0.0,60.0,0.0,0.0,5.388445916248355E-16,8.8,0.0,-0.0,5.388445916248355E-16,8.8
38.50000000000028,2.079940123671848E-13,3396.8000000000206,0.0,0.0,0.0,0.0,60.0,0.0,0.0,5.388445916248355E-16,8.8,0.0,-0.0,5.388445916248355E-16,8.8
38.60000000000028,2.0853285695880963E-13,3405.600000000021,0.0,0.0,0.0,0.0,60.0,0.0,0.0,5.388445916248355E-16,8.8,0.0,-0.0,5.388445916248355E-16,8.8
38.70000000000028,2.0907170155043445E-13,3414.400000000021,0.0,0.0,0.0,0.0,60.0,0.0,0.0,5.388445916248355E-16,8.8,0.0,-0.0,5.388445916248355E-16,8.8
38.80000000000028,2.0961054614205928E-13,3423.200000000021,0.0,0.0,0.0,0.0,60.0,0.0,0.0,5.388445916248355E-16,8.8,0.0,-0.0,5.388445916248355E-16,8.8
38.90000000000028,2.101493907336841E-13,3432.0000000000214,0.0,0.0,0.0,0.0,60.0,0.0,0.0,5.388445916248355E-16,8.8,0.0,-0.0,5.388445916248355E-16,8.8
39.000000000000284,2.1068823532530893E-13,3440.8000000000216,0.0,0.0,0.0,0.0,60.0,0.0,0.0,5.388445916248355E-16,8.8,0.0,-0.0,5.388445916248355E-16,8.8
39.100000000000286,2.1122707991693375E-13,3449.6000000000217,0.0,0.0,0.0,0.0,60.0,0.0,0.0,5.388445916248355E-16,8.8,0.0,-0.0,5.388445916248355E-16,8.8
39.20000000000029,2.1176592450855857E-13,3458.400000000022,0.0,0.0,0.0,0.0,60.0,0.0,0.0,5.388445916248355E-16,8.8,0.0,-0.0,5.388445916248355E-16,8.8
39.30000000000029,2.123047691001834E-13,3467.200000000022,0.0,0.0,0.0,0.0,60.0,0.0,0.0,5.388445916248355E-16,8.8,0.0,-0.0,5.388445916248355E-16,8.8
39.40000000000029,2.1284361369180822E-13,3476.0000000000223,0.0,0.0,0.0,0.0,60.0,0.0,0.0,5.388445916248355E-16,8.8,0.0,-0.0,5.388445916248355E-16,8.8
39.50000000000029,2.1338245828343305E-13,3484.8000000000225,0.0,0.0,0.0,0.0,60.0,0.0,0.0,5.388445916248355E-16,8.8,0.0,-0.0,5.388445916248355E-16,8.8
39.60000000000029,2.1392130287505787E-13,3493.6000000000226,0.0,0.0,0.0,0.0,60.0,0.0,0.0,5.388445916248355E-16,8.8,0.0,-0.0,5.388445916248355E-16,8.8
39.700000000000294,2.144601474666827E-13,3502.400000000023,0.0,0.0,0.0,0.0,60.0,0.0,0.0,5.388445916248355E-16,8.8,0.0,-0.0,5.388445916248355E-16,8.8
39.800000000000296,2.1499899205830752E-13,3511.200000000023,0.0,0.0,0.0,0.0,60.0,0.0,0.0,5.388445916248355E-16,8.8,0.0,-0.0,5.388445916248355E-16,8.8
39.9000000000003,2.1553783664993235E-13,3520.000000000023,0.0,0.0,0.0,0.0,60.0,0.0,0.0,5.388445916248355E-16,8.8,0.0,-0.0,5.388445916248355E-16,8.8
40.0000000000003,2.1607668124155717E-13,3528.8000000000234,0.0,0.0,0.0,0.0,60.0,0.0,0.0,5.388445916248355E-16,8.8,0.0,-0.0,5.388445916248355E-16,8.8
40.1000000000003,2.16615525833182E-13,3537.6000000000236,0.0,0.0,0.0,0.0,60.0,0.0,0.0,5.388445916248355E-16,8.8,0.0,-0.0,5.388445916248355E-16,8.8
40.2000000000003,2.1715437042480682E-13,3546.4000000000237,0.0,0.0,0.0,0.0,60.0,0.0,0.0,5.388445916248355E-16,8.8,0.0,-0.0,5.388445916248355E-16,8.8
